# LAS format log file from PETREL
# Project units are specified as depth units
#==================================================================
~Version information
VERS.   2.0:
WRAP.   NO:
#==================================================================
~Well
STRT .m      1.0668000000 :
STOP .m      1939.1376000 :
STEP .m     0.15240000 :
NULL .        -999.250000 :
COMP.           : COMPANY
WELL.  P-129   : WELL
FLD.            : FIELD
LOC.            : LOCATION
SRVC.           : SERVICE COMPANY
DATE.  2014-09-16 16:48:09   : Log Export Date {yyyy-MM-dd HH:mm:ss}
PROV.           : PROVINCE
UWI.      : UNIQUE WELL ID
API.            : API NUMBER
#==================================================================
~Curve
DEPT .m                   : DEPTH
Sonic_despiked .us/ft     : Sonic_despiked
RHOB_despiked .g/cm3      : RHOB_despiked
two-waytime .ms           : two-way time
~Parameter
#==================================================================
~Ascii
# ...
 1151.6868000 63.304943085 2.7023222446 567.03564453
 1151.8392000 63.318279266 2.6980981827 567.10015869
 1151.9916000 63.331615448 2.6365785599 567.16467285
 1152.1440000 63.344955444 2.5997176170 567.22924805
 1152.2964000 63.358291626 2.6001913548 567.29376221
 1152.4488000 63.371627808 2.6333627701 567.35833740
 1152.6012000 63.335754395 2.6470866203 567.42285156
 1152.7536000 63.299880981 2.6299257278 567.48736572
 1152.9060000 63.264007568 2.5987775326 567.55194092
 1153.0584000 63.228137970 2.5974133015 567.61645508
 1153.2108000 63.192264557 2.5960490704 567.68103027
 1153.3632000 63.156391144 2.5946848392 567.74554443
 1153.5156000 63.120517731 2.5933206081 567.81005859
 1153.6680000 63.084648132 2.5919563770 567.87463379
 1153.8204000 63.048774719 2.5905921459 567.93914795
 1153.9728000 63.012901306 2.5892279148 568.00372314
 1154.1252000 62.977027893 2.5937190056 568.06823730
 1154.2776000 62.970573425 2.5849521160 568.13275146
 1154.4300000 62.964118958 2.5852451324 568.19732666
 1154.5824000 62.957668304 2.5855383873 568.26184082
 1154.7348000 62.951213837 2.5858314037 568.32635498
 1154.8872000 62.944759369 2.5956108570 568.39093018
 1155.0396000 62.938304901 2.5818636417 568.45544434
 1155.1920000 62.931850433 2.5920438766 568.52001953
 1155.3444000 62.925395966 2.6022238731 568.58453369
 1155.4968000 62.918945313 2.6259760857 568.64904785
 1155.6492000 62.912490845 2.6496479511 568.71362305
 1155.8016000 62.906036377 2.6475675106 568.77813721
 1155.9540000 62.981899261 2.6527910233 568.84271240
 1156.1064000 63.208454132 2.6435678005 568.90722656
 1156.2588000 63.133335114 2.6374609470 568.97174072
 1156.4112000 63.058212280 2.6467185020 569.03631592
 1156.5636000 62.983093262 2.6596794128 569.10083008
 1156.7160000 62.921604156 2.6563725471 569.16540527
 1156.8684000 62.849891663 2.6363193989 569.22991943
 1157.0208000 62.778179169 2.6045920849 569.29443359
 1157.1732000 62.760738373 2.5743615627 569.35900879
 1157.3256000 62.696777344 2.5749819279 569.42352295
 1157.4780000 62.739151001 2.5756022930 569.48803711
 1157.6304000 62.781520844 2.5762226582 569.55261230
 1157.7828000 63.005779266 2.6086924076 569.61712646
 1157.9352000 62.978927612 2.5923993587 569.68170166
 1158.0876000 62.952072144 2.5761060715 569.74621582
 1158.2400000 62.925220490 2.5893201828 569.81072998
 1158.3924000 62.898368835 2.6025342941 569.87530518
 1158.5448000 62.871517181 2.6157486439 569.93981934
 1158.6972000 62.844661713 2.6289627552 570.00439453
 1158.8496000 62.817810059 2.6421768665 570.06890869
 1159.0020000 62.790958405 2.6394042969 570.13342285
 1159.1544000 62.741661072 2.6366317272 570.19799805
 1159.3068000 62.692363739 2.6338589191 570.26251221
 1159.4592000 62.714874268 2.6310863495 570.32702637
 1159.6116000 62.737384796 2.6283137798 570.39160156
 1159.7640000 62.759895325 2.6255412102 570.45611572
 1159.9164000 62.782405853 2.6227684021 570.52069092
 1160.0688000 62.804916382 2.6199958324 570.58520508
 1160.2212000 62.827426910 2.6172232628 570.64971924
 1160.3736000 62.849933624 2.6047646999 570.71429443
 1160.5260000 62.872444153 2.6230826378 570.77880859
 1160.6784000 62.894954681 2.6185126305 570.84338379
 1160.8308000 62.917465210 2.5974271297 570.90789795
 1160.9832000 62.939975739 2.5759859085 570.97241211
 1161.1356000 62.962486267 2.5753569603 571.03698730
 1161.2880000 62.984996796 2.5747282505 571.10150146
 1161.4404000 63.007507324 2.5740995407 571.16607666
 1161.5928000 63.021041870 2.5760807991 571.23059082
 1161.7452000 63.034576416 2.5780620575 571.29510498
 1161.8976000 63.048110962 2.5920197964 571.35968018
 1162.0500000 63.061645508 2.5914626122 571.42419434
 1162.2024000 63.075180054 2.5836744308 571.48870850
 1162.3548000 63.088714600 2.5828845501 571.55328369
 1162.5072000 63.102249146 2.5820946693 571.61779785
 1162.6596000 63.115783691 2.5813050270 571.68237305
 1162.8120000 63.129318237 2.5805151463 571.74688721
 1162.9644000 63.142852783 2.5828187466 571.81140137
 1163.1168000 63.156387329 2.5851221085 571.87597656
 1163.2692000 63.169918060 2.5874257088 571.94049072
 1163.4216000 63.183452606 2.5897293091 572.00506592
 1163.5740000 63.196987152 2.5920326710 572.06958008
 1163.7264000 63.210521698 2.5943362713 572.13409424
 1163.8788000 63.224056244 2.5966398716 572.19866943
 1164.0312000 63.237590790 2.5989432335 572.26318359
 1164.1836000 63.251125336 2.6012468338 572.32775879
 1164.3360000 63.264659882 2.6035504341 572.39227295
 1164.4884000 63.278194427 2.6058537960 572.45678711
 1164.6408000 63.294589996 2.6081573963 572.52136230
 1164.7932000 63.310985565 2.6104609966 572.58587646
 1164.9456000 63.327384949 2.6127643585 572.65039063
 1165.0980000 63.343780518 2.6150679588 572.71496582
 1165.2504000 63.360176086 2.6502587795 572.77947998
 1165.4028000 63.376571655 2.6457984447 572.84405518
 1165.5552000 63.392971039 2.6172907352 572.90856934
 1165.7076000 63.409366608 2.6026136875 572.97308350
 1165.8600000 63.425762177 2.6124908924 573.03765869
 1166.0124000 63.442157745 2.6252090931 573.10217285
 1166.1648000 63.458557129 2.6305077076 573.16674805
 1166.3172000 63.474952698 2.6320898533 573.23126221
 1166.4696000 63.491348267 2.6437065601 573.29577637
 1166.6220000 63.507743835 2.6609194279 573.36035156
 1166.7744000 63.524143219 2.6724324226 573.42486572
 1166.9268000 63.540538788 2.6732330322 573.48937988
 1167.0792000 63.556934357 2.6740334034 573.55395508
 1167.2316000 63.573329926 2.6748340130 573.61846924
 1167.3840000 63.589729309 2.6756343842 573.68304443
 1167.5364000 63.606124878 2.6764349937 573.74755859
 1167.6888000 63.622520447 2.6772353649 573.81207275
 1167.8412000 63.578060150 2.6843278408 573.87664795
 1167.9936000 63.533599854 2.6834633350 573.94116211
 1168.1460000 63.542476654 2.6825990677 574.00573730
 1168.2984000 63.551357269 2.6817345619 574.07025146
 1168.4508000 63.560234070 2.6808700562 574.13476563
 1168.6032000 63.569114685 2.6800057888 574.19934082
 1168.7556000 63.577995300 2.6791412830 574.26385498
 1168.9080000 63.586872101 2.6517641544 574.32843018
 1169.0604000 63.595748901 2.6269643307 574.39294434
 1169.2128000 63.604629517 2.6290335655 574.45745850
 1169.3652000 63.613510132 2.6311025620 574.52203369
 1169.5176000 63.622386932 2.6331717968 574.58654785
 1169.6700000 63.631263733 2.6352407932 574.65106201
 1169.8224000 63.640144348 2.6373100281 574.71563721
 1169.9748000 63.608966827 2.6393790245 574.78015137
 1170.1272000 63.577785492 2.6414482594 574.84472656
 1170.2796000 63.546607971 2.6435172558 574.90924072
 1170.4320000 63.305503845 2.6455864906 574.97375488
 1170.5844000 63.537746429 2.6574616432 575.03833008
 1170.7368000 63.481773376 2.6569805145 575.10284424
 1170.8892000 63.527111053 2.6540098190 575.16741943
 1171.0416000 63.572448730 2.6719739437 575.23193359
 1171.1940000 63.446529388 2.6910459995 575.29644775
 1171.3464000 63.189533234 2.6868212223 575.36102295
 1171.4988000 63.131633759 2.6825964451 575.42553711
 1171.6512000 63.073730469 2.6783716679 575.49011230
 1171.8036000 63.015830994 2.6741468906 575.55462646
 1171.9560000 62.957931519 2.6699221134 575.61914063
 1172.1084000 62.811595917 2.6463730335 575.68371582
 1172.2608000 63.370716095 2.6469979286 575.74822998
 1172.4132000 63.296554565 2.6480050087 575.81274414
 1172.5656000 63.222393036 2.6482908726 575.87731934
 1172.7180000 63.148227692 2.6487431526 575.94183350
 1172.8704000 63.074066162 2.6464755535 576.00640869
 1173.0228000 62.999904633 2.6422777176 576.07092285
 1173.1752000 62.925743103 2.6547141075 576.13543701
 1173.3276000 62.851577759 2.6778862476 576.20001221
 1173.4800000 62.777416229 2.6798124313 576.26452637
 1173.6324000 62.876766205 2.6817388535 576.32910156
 1173.7848000 62.821884155 2.6836650372 576.39361572
 1173.9372000 62.767002106 2.6855912209 576.45812988
 1174.0896000 62.712116241 2.6875176430 576.52270508
 1174.2420000 62.657234192 2.6894438267 576.58721924
 1174.3944000 62.752521515 2.6654298306 576.65173340
 1174.5468000 62.988365173 2.6550133228 576.71630859
