# LAS format log file from PETREL
# Project units are specified as depth units
#==================================================================
~Version information
VERS.   2.0:
WRAP.   NO:
#==================================================================
~Well
STRT .m      1.0668000000 :
STOP .m      1939.1376000 :
STEP .m     0.15240000 :
NULL .        -999.250000 :
COMP.           : COMPANY
WELL.  P-129   : WELL
FLD.            : FIELD
LOC.            : LOCATION
SRVC.           : SERVICE COMPANY
DATE.  2014-09-16 16:48:09   : Log Export Date {yyyy-MM-dd HH:mm:ss}
PROV.           : PROVINCE
UWI.      : UNIQUE WELL ID
API.            : API NUMBER
#==================================================================
~Curve
DEPT .m                   : DEPTH
Sonic_despiked .us/ft     : Sonic_despiked
RHOB_despiked .g/cm3      : RHOB_despiked
two-waytime .ms           : two-way time
~Parameter
#==================================================================
~Ascii
# ...
 507.33960000 70.006889343 2.6458554268 294.91152954
 507.49200000 70.004600525 2.6453034878 294.97613525
 507.64440000 70.002311707 2.6447513103 295.04074097
 507.79680000 70.000022888 2.6441991329 295.10534668
 507.94920000 69.997726440 2.6436471939 295.16995239
 508.10160000 69.995437622 2.6430950165 295.23452759
 508.25400000 69.993148804 2.6425428391 295.29913330
 508.40640000 69.990859985 2.6419909000 295.36373901
 508.55880000 69.988571167 2.6414387226 295.42834473
 508.71120000 69.986282349 2.6408865452 295.49295044
 508.86360000 69.983985901 2.6403346062 295.55755615
 509.01600000 69.981697083 2.6397824287 295.62216187
 509.16840000 69.979408264 2.6358296871 295.68673706
 509.32080000 70.071891785 2.6271140575 295.75134277
 509.47320000 70.052024841 2.6183583736 295.81594849
 509.62560000 70.032157898 2.6097974777 295.88055420
 509.77800000 70.012290955 2.6055386066 295.94515991
 509.93040000 69.992424011 2.6005787849 296.00976563
 510.08280000 69.972557068 2.5831992626 296.07437134
 510.23520000 69.952690125 2.5800108910 296.13894653
 510.38760000 69.932823181 2.5768227577 296.20355225
 510.54000000 69.912956238 2.5736346245 296.26815796
 510.69240000 69.893089294 2.5704462528 296.33276367
 510.84480000 69.873222351 2.5744633675 296.39736938
 510.99720000 69.853355408 2.5727162361 296.46197510
 511.14960000 69.833488464 2.5808866024 296.52658081
 511.30200000 69.813621521 2.5880439281 296.59115601
 511.45440000 69.793754578 2.5906836987 296.65576172
 511.60680000 69.773880005 2.5837290287 296.72036743
 511.75920000 69.754013062 2.5798490047 296.78497314
 511.91160000 69.734146118 2.5860335827 296.84957886
 512.06400000 69.714279175 2.5901532173 296.91418457
 512.21640000 69.694412231 2.5929968357 296.97879028
 512.36880000 69.674545288 2.5837543011 297.04336548
 512.52120000 69.654678345 2.5813670158 297.10797119
 512.67360000 69.634811401 2.5807077885 297.17257690
 512.82600000 69.614944458 2.5800485611 297.23718262
 512.97840000 69.595077515 2.5793890953 297.30178833
 513.13080000 69.575210571 2.5787298679 297.36639404
 513.28320000 69.555343628 2.5780706406 297.43099976
 513.43560000 69.535476685 2.5774114132 297.49557495
 513.58800000 69.515609741 2.5929687023 297.56018066
 513.74040000 69.495742798 2.6243662834 297.62478638
 513.89280000 68.941467285 2.6407277584 297.68939209
 514.04520000 68.362579346 2.6450204849 297.75399780
 514.19760000 68.212165833 2.6379563808 297.81860352
 514.35000000 68.161987305 2.6401429176 297.88320923
 514.50240000 68.111808777 2.6476941109 297.94778442
 514.65480000 68.061630249 2.6700210571 298.01239014
 514.80720000 68.011451721 2.6734726429 298.07699585
 514.95960000 67.961273193 2.6769239902 298.14160156
 515.11200000 67.911094666 2.6803755760 298.20620728
 515.26440000 67.860916138 2.6838269234 298.27081299
 515.41680000 67.810737610 2.6872785091 298.33541870
 515.56920000 67.760559082 2.6907300949 298.40002441
 515.72160000 67.710380554 2.6941814423 298.46459961
 515.87400000 67.660209656 2.6976330280 298.52920532
 516.02640000 67.610031128 2.6898989677 298.59381104
 516.17880000 67.559852600 2.6843581200 298.65841675
 516.33120000 67.509674072 2.6893808842 298.72302246
 516.48360000 67.459495544 2.6963777542 298.78762817
 516.63600000 67.409317017 2.6988363266 298.85223389
 516.78840000 67.359138489 2.7081596851 298.91680908
 516.94080000 67.308959961 2.7057251930 298.98141479
 517.09320000 67.258781433 2.7017614841 299.04602051
 517.24560000 67.208602905 2.6941878796 299.11062622
 517.39800000 67.158424377 2.6866881847 299.17523193
 517.55040000 67.167945862 2.6649930477 299.23983765
 517.70280000 67.177467346 2.6432948112 299.30444336
 517.85520000 67.186988831 2.6204156876 299.36901855
 518.00760000 67.196510315 2.6171288490 299.43362427
 518.16000000 67.206031799 2.6149165630 299.49822998
 518.31240000 67.215553284 2.6118721962 299.56283569
 518.46480000 67.127540588 2.6129977703 299.62744141
 518.61720000 67.039520264 2.6141233444 299.69204712
 518.76960000 66.951507568 2.6152491570 299.75665283
 518.92200000 66.863487244 2.6163747311 299.82122803
 519.07440000 66.775474548 2.6175003052 299.88583374
 519.22680000 66.687454224 2.6186258793 299.95043945
 519.37920000 66.599441528 2.6197514534 300.01504517
 519.53160000 66.511421204 2.6208770275 300.07965088
 519.68400000 66.423408508 2.6220028400 300.14425659
 519.83640000 66.335388184 2.6231284142 300.20886230
 519.98880000 66.065917969 2.6242539883 300.27343750
 520.14120000 65.845481873 2.6439435482 300.33804321
 520.29360000 64.649269104 2.6760230064 300.40264893
 520.44600000 64.649269104 2.7117004395 300.46725464
 520.59840000 65.552223206 2.7101356983 300.53186035
 520.75080000 65.892883301 2.7085709572 300.59646606
 520.90320000 66.051414490 2.7070059776 300.66107178
 521.05560000 65.908271790 2.7054412365 300.72564697
 521.20800000 65.765136719 2.7038764954 300.79025269
 521.36040000 65.621994019 2.6909139156 300.85485840
 521.51280000 65.478851318 2.6797158718 300.91946411
 521.66520000 65.335716248 2.6679193974 300.98406982
 521.81760000 65.192573547 2.6561527252 301.04867554
 521.97000000 64.778991699 2.6518905163 301.11328125
 522.12240000 63.840583801 2.6544475555 301.17785645
 522.27480000 63.464607239 2.6651306152 301.24246216
 522.42720000 63.840629578 2.6730275154 301.30706787
 522.57960000 64.514907837 2.6831753254 301.37167358
 522.73200000 64.336959839 2.6869928837 301.43627930
 522.88440000 63.909046173 2.6841528416 301.50088501
 523.03680000 63.189220428 2.6714911461 301.56549072
 523.18920000 63.527378082 2.6689014435 301.63006592
 523.34160000 63.865535736 2.6802718639 301.69467163
 523.49400000 64.203689575 2.6898734570 301.75927734
 523.64640000 63.856796265 2.6896405220 301.82388306
 523.79880000 63.509902954 2.6766707897 301.88848877
 523.95120000 63.163009644 2.6604301929 301.95309448
 524.10360000 63.158641815 2.6617856026 302.01770020
 524.25600000 63.154273987 2.6631407738 302.08227539
 524.40840000 63.149906158 2.6644961834 302.14688110
 524.56080000 63.145538330 2.6658515930 302.21148682
 524.71320000 63.141170502 2.6825394630 302.27609253
 524.86560000 61.770641327 2.6979112625 302.34069824
 525.01800000 60.960525513 2.7151443958 302.40530396
 525.17040000 60.401092529 2.7301342487 302.46990967
 525.32280000 59.841659546 2.7375299931 302.53448486
 525.47520000 59.282222748 2.7384941578 302.59909058
 525.62760000 58.722789764 2.7370398045 302.66369629
 525.78000000 58.830459595 2.7331619263 302.72830200
 525.93240000 58.457881927 2.7309448719 302.79290771
 526.08480000 59.250652313 2.7298476696 302.85751343
 526.23720000 59.474349976 2.7373766899 302.92211914
 526.38960000 59.913547516 2.7417628765 302.98669434
 526.54200000 59.892730713 2.7349734306 303.05130005
 526.69440000 59.506557465 2.7239506245 303.11590576
 526.84680000 59.470890045 2.7161200047 303.18051147
 526.99920000 59.361843109 2.7272362709 303.24511719
 527.15160000 59.857723236 2.7441189289 303.30972290
 527.30400000 60.215717316 2.7563130856 303.37432861
 527.45640000 60.215717316 2.7498867512 303.43893433
 527.60880000 59.959068298 2.7371413708 303.50350952
 527.76120000 59.702419281 2.7173914909 303.56811523
 527.91360000 59.445770264 2.7188570499 303.63272095
 528.06600000 59.189121246 2.7216074467 303.69732666
 528.21840000 58.932468414 2.7262296677 303.76193237
 528.37080000 58.675819397 2.7163360119 303.82653809
 528.52320000 58.419170380 2.7115058899 303.89114380
 528.67560000 58.162521362 2.7065157890 303.95571899
 528.82800000 57.905872345 2.7116928101 304.02032471
 528.98040000 56.096721649 2.7335522175 304.08493042
 529.13280000 56.006919861 2.7954449654 304.14953613
 529.28520000 55.917118073 2.7974522114 304.21414185
 529.43760000 55.827316284 2.7994594574 304.27874756
 529.59000000 55.737514496 2.8014667034 304.34335327
 529.74240000 55.647712708 2.8034739494 304.40792847
 529.89480000 55.557910919 2.8054811954 304.47253418
 530.04720000 55.468109131 2.8074884415 304.53713989
 530.19960000 55.378307343 2.8094956875 304.60174561
