# LAS format log file from PETREL
# Project units are specified as depth units
#==================================================================
~Version information
VERS.   2.0:
WRAP.   NO:
#==================================================================
~Well
STRT .m      1.0668000000 :
STOP .m      1939.1376000 :
STEP .m     0.15240000 :
NULL .        -999.250000 :
COMP.           : COMPANY
WELL.  P-129   : WELL
FLD.            : FIELD
LOC.            : LOCATION
SRVC.           : SERVICE COMPANY
DATE.  2014-09-16 16:48:09   : Log Export Date {yyyy-MM-dd HH:mm:ss}
PROV.           : PROVINCE
UWI.      : UNIQUE WELL ID
API.            : API NUMBER
#==================================================================
~Curve
DEPT .m                   : DEPTH
Sonic_despiked .us/ft     : Sonic_despiked
RHOB_despiked .g/cm3      : RHOB_despiked
two-waytime .ms           : two-way time
~Parameter
#==================================================================
~Ascii
# ...
 1404.8232000 60.965282440 2.6758935452 669.80535889
 1404.9756000 60.936229706 2.6759438515 669.86743164
 1405.1280000 60.907173157 2.6743924618 669.92950439
 1405.2804000 60.878116608 2.6639921665 669.99151611
 1405.4328000 60.849063873 2.6658139229 670.05358887
 1405.5852000 60.820007324 2.6676354408 670.11566162
 1405.7376000 60.790954590 2.6698555946 670.17773438
 1405.8900000 60.864810944 2.6730122566 670.23980713
 1406.0424000 60.938671112 2.6695890427 670.30187988
 1406.1948000 61.012527466 2.6634533405 670.36395264
 1406.3472000 61.086383820 2.6660108566 670.42596436
 1406.4996000 61.160243988 2.6685681343 670.48803711
 1406.6520000 61.234100342 2.6711256504 670.55010986
 1406.8044000 61.016235352 2.6836984158 670.61218262
 1406.9568000 60.798374176 2.6852710247 670.67425537
 1407.1092000 60.965625763 2.6868438721 670.73632813
 1407.2616000 60.955406189 2.6884164810 670.79840088
 1407.4140000 60.945190430 2.6899893284 670.86041260
 1407.5664000 60.934970856 2.6915619373 670.92248535
 1407.7188000 60.962581635 2.6822504997 670.98455811
 1407.8712000 60.961818695 2.6789855957 671.04663086
 1408.0236000 60.961059570 2.6790740490 671.10870361
 1408.1760000 60.960296631 2.6755425930 671.17077637
 1408.3284000 60.959533691 2.6589381695 671.23284912
 1408.4808000 60.958774567 2.6583132744 671.29486084
 1408.6332000 60.958011627 2.6576886177 671.35693359
 1408.7856000 60.957252502 2.6683566570 671.41900635
 1408.9380000 60.956489563 2.6642332077 671.48107910
 1409.0904000 60.955726624 2.6641130447 671.54315186
 1409.2428000 60.954967499 2.6639926434 671.60522461
 1409.3952000 60.954204559 2.6638722420 671.66729736
 1409.5476000 60.953445435 2.6637520790 671.72930908
 1409.7000000 60.952682495 2.6730387211 671.79138184
 1409.8524000 60.951919556 2.6698973179 671.85345459
 1410.0048000 60.951160431 2.6654772758 671.91552734
 1410.1572000 60.950397491 2.6646509171 671.97760010
 1410.3096000 60.949638367 2.6638245583 672.03967285
 1410.4620000 60.948875427 2.6740970612 672.10168457
 1410.6144000 60.948116302 2.6773264408 672.16375732
 1410.7668000 60.947353363 2.6805558205 672.22583008
 1410.9192000 60.976650238 2.6795468330 672.28790283
 1411.0716000 60.993698120 2.6718704700 672.34997559
 1411.2240000 61.010742188 2.6672241688 672.41204834
 1411.3764000 61.027790070 2.6606512070 672.47412109
 1411.5288000 61.044837952 2.6777913570 672.53613281
 1411.6812000 61.061885834 2.6778197289 672.59820557
 1411.8336000 61.078929901 2.6778478622 672.66027832
 1411.9860000 61.095977783 2.6778762341 672.72235107
 1412.1384000 61.113025665 2.6779046059 672.78442383
 1412.2908000 61.130069733 2.6779327393 672.84649658
 1412.4432000 61.147117615 2.6779611111 672.90856934
 1412.5956000 61.164165497 2.6675882339 672.97058105
 1412.7480000 61.181209564 2.6532824039 673.03265381
 1412.9004000 61.198257446 2.6522321701 673.09472656
 1413.0528000 61.215305328 2.6511819363 673.15679932
 1413.2052000 61.232353210 2.6501314640 673.21887207
 1413.3576000 61.249397278 2.6490812302 673.28094482
 1413.5100000 61.266445160 2.6717209816 673.34301758
 1413.6624000 61.283493042 2.6696012020 673.40502930
 1413.8148000 61.300537109 2.6674811840 673.46710205
 1413.9672000 61.317584991 2.6653614044 673.52917480
 1414.1196000 61.334632874 2.6578140259 673.59124756
 1414.2720000 61.351676941 2.6569802761 673.65332031
 1414.4244000 61.368724823 2.6561467648 673.71539307
 1414.5768000 61.385772705 2.6553130150 673.77746582
 1414.7292000 61.402820587 2.6544792652 673.83947754
 1414.8816000 61.419864655 2.6536455154 673.90155029
 1415.0340000 61.436912537 2.6528120041 673.96362305
 1415.1864000 60.138896942 2.6519782543 674.02569580
 1415.3388000 60.100799561 2.6538300514 674.08776855
 1415.4912000 60.062705994 2.6659777164 674.14984131
 1415.6436000 60.024608612 2.6578752995 674.21191406
 1415.7960000 59.986515045 2.6593587399 674.27392578
 1415.9484000 59.948417664 2.6563587189 674.33599854
 1416.1008000 59.910324097 2.6533584595 674.39807129
 1416.2532000 59.872226715 2.6503584385 674.46014404
 1416.4056000 59.834129333 2.6647498608 674.52221680
 1416.5580000 59.796035767 2.6713488102 674.58428955
 1416.7104000 59.757938385 2.6651871204 674.64636230
 1416.8628000 59.719844818 2.6583058834 674.70837402
 1417.0152000 59.681747437 2.6545610428 674.77044678
 1417.1676000 59.699119568 2.6563498974 674.83251953
 1417.3200000 59.716495514 2.6544156075 674.89459229
 1417.4724000 59.733867645 2.6532866955 674.95666504
 1417.6248000 59.751239777 2.6521744728 675.01873779
 1417.7772000 59.768615723 2.6510624886 675.08081055
 1417.9296000 59.785987854 2.6572988033 675.14282227
 1418.0820000 59.803363800 2.6624972820 675.20489502
 1418.2344000 59.820735931 2.6628656387 675.26696777
 1418.3868000 59.838108063 2.6650981903 675.32904053
 1418.5392000 59.855484009 2.6656916142 675.39111328
 1418.6916000 59.872856140 2.6730647087 675.45318604
 1418.8440000 59.890228271 2.6754512787 675.51525879
 1418.9964000 59.907604218 2.6787018776 675.57727051
 1419.1488000 59.924976349 2.6804986000 675.63934326
 1419.3012000 59.350467682 2.6811554432 675.70141602
 1419.4536000 59.328380585 2.6818125248 675.76348877
 1419.6060000 59.306297302 2.6824693680 675.82556152
 1419.7584000 59.284210205 2.6795070171 675.88763428
 1419.9108000 59.228664398 2.6792590618 675.94970703
 1420.0632000 59.173122406 2.6790111065 676.01171875
 1420.2156000 59.117576599 2.6787633896 676.07379150
 1420.3680000 59.128959656 2.6785154343 676.13586426
 1420.5204000 59.140342712 2.6742093563 676.19793701
 1420.6728000 59.151721954 2.6776707172 676.26000977
 1420.8252000 59.163105011 2.6656818390 676.32208252
 1420.9776000 59.174488068 2.6644508839 676.38415527
 1421.1300000 59.185871124 2.6632196903 676.44616699
 1421.2824000 59.197254181 2.6619887352 676.50823975
 1421.4348000 59.208637238 2.6607575417 676.57031250
 1421.5872000 59.220016479 2.6595265865 676.63238525
 1421.7396000 59.231399536 2.6673774719 676.69445801
 1421.8920000 59.242782593 2.6733517647 676.75653076
 1422.0444000 59.254165649 2.6814188957 676.81860352
 1422.1968000 59.265548706 2.6829636097 676.88061523
 1422.3492000 59.276931763 2.6845085621 676.94268799
 1422.5016000 59.288311005 2.6860532761 677.00476074
 1422.6540000 59.299694061 2.6875979900 677.06683350
 1422.8064000 59.311077118 2.6753611565 677.12890625
 1422.9588000 59.131477356 2.6822693348 677.19097900
 1423.1112000 59.132251740 2.6696159840 677.25305176
 1423.2636000 59.133022308 2.6609392166 677.31506348
 1423.4160000 59.133792877 2.6651246548 677.37713623
 1423.5684000 59.134567261 2.6693100929 677.43920898
 1423.7208000 59.135337830 2.6734957695 677.50128174
 1423.8732000 59.136112213 2.6776812077 677.56335449
 1424.0256000 59.136882782 2.6818666458 677.62542725
 1424.1780000 59.137657166 2.6860520840 677.68750000
 1424.3304000 59.138427734 2.6974096298 677.74951172
 1424.4828000 59.139202118 2.6875362396 677.81158447
 1424.6352000 59.139972687 2.6771163940 677.87365723
 1424.7876000 59.144001007 2.6729006767 677.93572998
 1424.9400000 59.144882202 2.6896772385 677.99780273
 1425.0924000 58.932403564 2.6943078041 678.05987549
 1425.2448000 58.926616669 2.6964242458 678.12194824
 1425.3972000 58.935928345 2.6846017838 678.18395996
 1425.5496000 58.945240021 2.6682109833 678.24603271
 1425.7020000 58.954547882 2.6583397388 678.30810547
 1425.8544000 58.963859558 2.6681971550 678.37017822
 1426.0068000 58.973171234 2.6946384907 678.43225098
 1426.1592000 58.982482910 2.6964731216 678.49432373
 1426.3116000 58.991790771 2.6983077526 678.55639648
 1426.4640000 59.001102448 2.7001423836 678.61840820
 1426.6164000 59.010414124 2.6741344929 678.68048096
 1426.7688000 59.019725800 2.6736423969 678.74255371
 1426.9212000 59.029033661 2.6731503010 678.80462646
 1427.0736000 59.038345337 2.6966235638 678.86669922
 1427.2260000 58.809535980 2.6942100525 678.92877197
 1427.3784000 58.850994110 2.6917963028 678.99084473
 1427.5308000 58.892448425 2.6893827915 679.05285645
 1427.6832000 58.933906555 2.6869692802 679.11492920
