# LAS format log file from PETREL
# Project units are specified as depth units
#==================================================================
~Version information
VERS.   2.0:
WRAP.   NO:
#==================================================================
~Well
STRT .m      1.0668000000 :
STOP .m      1939.1376000 :
STEP .m     0.15240000 :
NULL .        -999.250000 :
COMP.           : COMPANY
WELL.  P-129   : WELL
FLD.            : FIELD
LOC.            : LOCATION
SRVC.           : SERVICE COMPANY
DATE.  2014-09-16 16:48:09   : Log Export Date {yyyy-MM-dd HH:mm:ss}
PROV.           : PROVINCE
UWI.      : UNIQUE WELL ID
API.            : API NUMBER
#==================================================================
~Curve
DEPT .m                   : DEPTH
Sonic_despiked .us/ft     : Sonic_despiked
RHOB_despiked .g/cm3      : RHOB_despiked
two-waytime .ms           : two-way time
~Parameter
#==================================================================
~Ascii
# ...
 1911.0960000 59.255718231 2.7174124718 874.21228027
 1911.2484000 58.769927979 2.7082626820 874.27624512
 1911.4008000 58.284137726 2.7042241096 874.34027100
 1911.5532000 59.488433838 2.6982557774 874.40429688
 1911.7056000 59.244083405 2.7021012306 874.46832275
 1911.8580000 58.999732971 2.7041306496 874.53228760
 1912.0104000 58.755386353 2.7063033581 874.59631348
 1912.1628000 58.511035919 2.6988253593 874.66033936
 1912.3152000 58.266685486 2.6940603256 874.72430420
 1912.4676000 58.022338867 2.6954591274 874.78833008
 1912.6200000 57.777988434 2.7051281929 874.85235596
 1912.7724000 57.533641815 2.7210879326 874.91638184
 1912.9248000 57.289291382 2.7270307541 874.98034668
 1913.0772000 57.044940948 2.7349121571 875.04437256
 1913.2296000 56.800594330 2.7410621643 875.10839844
 1913.3820000 56.556243896 2.7568287849 875.17236328
 1913.5344000 56.482891083 2.7664542198 875.23638916
 1913.6868000 56.409542084 2.7631266117 875.30041504
 1913.8392000 56.336193085 2.7587041855 875.36437988
 1913.9916000 56.262840271 2.7659103870 875.42840576
 1914.1440000 56.189491272 2.7737667561 875.49243164
 1914.2964000 56.116142273 2.7463724613 875.55645752
 1914.4488000 56.042789459 2.7463791370 875.62042236
 1914.6012000 55.969440460 2.7463858128 875.68444824
 1914.7536000 55.896087646 2.7463922501 875.74847412
 1914.9060000 55.933418274 2.7463989258 875.81243896
 1915.0584000 55.970745087 2.7464056015 875.87646484
 1915.2108000 56.008075714 2.7681291103 875.94049072
 1915.3632000 56.045406342 2.7717552185 876.00451660
 1915.5156000 56.082736969 2.7588293552 876.06848145
 1915.6680000 56.120063782 2.7372474670 876.13250732
 1915.8204000 56.157394409 2.7645967007 876.19653320
 1915.9728000 56.194725037 2.7811152935 876.26049805
 1916.1252000 56.232055664 2.7856502533 876.32452393
 1916.2776000 56.269382477 2.7851495743 876.38854980
 1916.4300000 56.306713104 2.7846488953 876.45251465
 1916.5824000 56.157272339 2.7841482162 876.51654053
 1916.7348000 56.179035187 2.7836477757 876.58056641
 1916.8872000 56.200801849 2.7831470966 876.64459229
 1917.0396000 56.165496826 2.7826464176 876.70855713
 1917.1920000 55.895919800 2.7668626308 876.77258301
 1917.3444000 55.948246002 2.7641787529 876.83660889
 1917.4968000 56.000576019 2.7266097069 876.90057373
 1917.6492000 56.052902222 2.7178940773 876.96459961
 1917.8016000 55.913532257 2.7273409367 877.02862549
 1917.9540000 55.774162292 2.7367877960 877.09265137
 1918.1064000 55.760654449 2.7462346554 877.15661621
 1918.2588000 55.747146606 2.7556815147 877.22064209
 1918.4112000 55.733638763 2.7604765892 877.28466797
 1918.5636000 55.720130920 2.7652716637 877.34863281
 1918.7160000 55.706623077 2.7700664997 877.41265869
 1918.8684000 55.693115234 2.7748615742 877.47668457
 1919.0208000 55.679607391 2.7796566486 877.54071045
 1919.1732000 55.666099548 2.7844517231 877.60467529
 1919.3256000 55.794319153 2.7826390266 877.66870117
 1919.4780000 55.795276642 2.7808263302 877.73272705
 1919.6304000 55.822956085 2.7790136337 877.79669189
 1919.7828000 55.798469543 2.7772011757 877.86071777
 1919.9352000 55.755741119 2.7753884792 877.92474365
 1920.0876000 55.699535370 2.7735757828 877.98870850
 1920.2400000 55.708759308 2.7416744232 878.05273438
 1920.3924000 55.717983246 2.7445371151 878.11676025
 1920.5448000 55.727207184 2.7528111935 878.18078613
 1920.6972000 55.736434937 2.7532534599 878.24475098
 1920.8496000 55.745658875 2.7331743240 878.30877686
 1921.0020000 55.754882813 2.7196767330 878.37280273
 1921.1544000 55.728172302 2.7323410511 878.43676758
 1921.3068000 55.701457977 2.7427453995 878.50079346
 1921.4592000 55.674747467 2.7474560738 878.56481934
 1921.6116000 55.648036957 2.7365865707 878.62884521
 1921.7640000 55.621322632 2.7274296284 878.69281006
 1921.9164000 55.594612122 2.7309114933 878.75683594
 1922.0688000 55.567901611 2.7468693256 878.82086182
 1922.2212000 55.541187286 2.7579238415 878.88482666
 1922.3736000 55.514476776 2.7471137047 878.94885254
 1922.5260000 55.470420837 2.7326242924 879.01287842
 1922.6784000 55.426368713 2.7234020233 879.07684326
 1922.8308000 55.382312775 2.7266664505 879.14086914
 1922.9832000 55.338260651 2.7256710529 879.20489502
 1923.1356000 55.294208527 2.7260215282 879.26892090
 1923.2880000 55.250152588 2.7276792526 879.33288574
 1923.4404000 55.206100464 2.7383892536 879.39691162
 1923.5928000 55.162044525 2.7477838993 879.46093750
 1923.7452000 55.117992401 2.7362582684 879.52490234
 1923.8976000 55.073940277 2.7209861279 879.58892822
 1924.0500000 55.064666748 2.7199032307 879.65295410
 1924.2024000 55.055389404 2.7321865559 879.71697998
 1924.3548000 55.046115875 2.7338948250 879.78094482
 1924.5072000 55.036842346 2.7271215916 879.84497070
 1924.6596000 55.027568817 2.7269420624 879.90899658
 1924.8120000 55.018291473 2.7359595299 879.97296143
 1924.9644000 55.009017944 2.7349162102 880.03698730
 1925.1168000 54.999744415 2.7386913300 880.10101318
 1925.2692000 54.990470886 2.7542910576 880.16497803
 1925.4216000 54.981193542 2.7535929680 880.22900391
 1925.5740000 54.971920013 2.7528946400 880.29302979
 1925.7264000 54.962646484 2.7521963120 880.35705566
 1925.8788000 54.953372955 2.7514982224 880.42102051
 1926.0312000 54.944095612 2.7246556282 880.48504639
 1926.1836000 54.934822083 2.7040195465 880.54907227
 1926.3360000 54.925548553 2.7100145817 880.61303711
 1926.4884000 54.916275024 2.7160096169 880.67706299
 1926.6408000 54.906997681 2.7298486233 880.74108887
 1926.7932000 54.897724152 2.7231125832 880.80511475
 1926.9456000 54.897724152 2.7108390331 880.86907959
 1927.0980000 54.897724152 2.7076733112 880.93310547
 1927.2504000 54.897724152 2.7045078278 880.99713135
 1927.4028000 54.897724152 2.7013421059 881.06109619
 1927.5552000 54.897724152 2.6981763840 881.12512207
 1927.7076000 54.897724152 2.7277524471 881.18914795
 1927.8600000 54.897724152 2.7470421791 881.25317383
 1928.0124000 54.897724152 2.7467098236 881.31713867
 1928.1648000 54.897724152 2.7463777065 881.38116455
 1928.3172000 54.897724152 2.7460453510 881.44519043
 1928.4696000 54.897724152 2.7457129955 881.50915527
 1928.6220000 54.897724152 2.7453808784 881.57318115
 1928.7744000 54.897724152 2.7450485229 881.63720703
 1928.9268000 54.897724152 2.7447164059 881.70117188
 1929.0792000 54.897724152 2.7443840504 881.76519775
 1929.2316000 54.897724152 2.7440516949 881.82922363
 1929.3840000 54.897724152 2.7437195778 881.89324951
 1929.5364000 54.897724152 2.7433872223 881.95721436
 1929.6888000 54.897724152 2.7220206261 882.02124023
 1929.8412000 54.897724152 2.7167642117 882.08526611
 1929.9936000 54.897724152 2.7055175304 882.14923096
 1930.1460000 54.897724152 2.7057702541 882.21325684
 1930.2984000 54.897724152 2.7060229778 882.27728271
 1930.4508000 54.897724152 2.7062757015 882.34130859
 1930.6032000 54.897724152 2.7065284252 882.40527344
 1930.7556000 54.897724152 2.7143943310 882.46929932
 1930.9080000 54.897724152 2.7150788307 882.53332520
 1931.0604000 54.897724152 2.7093572617 882.59729004
 1931.2128000 54.897724152 2.7178702354 882.66131592
 1931.3652000 54.897724152 2.7215788364 882.72534180
 1931.5176000 54.897724152 2.7177176476 882.78930664
 1931.6700000 54.897724152 2.6915173531 882.85333252
 1931.8224000 54.897724152 2.6875922680 882.91735840
 1931.9748000 54.897724152 2.6892638206 882.98138428
 1932.1272000 54.897724152 2.7015509605 883.04534912
 1932.2796000 54.897724152 2.7034904957 883.10937500
 1932.4320000 54.897724152 2.7067654133 883.17340088
 1932.5844000 54.897724152 2.7119410038 883.23736572
 1932.7368000 54.897724152 2.7101817131 883.30139160
 1932.8892000 54.897724152 2.7097637653 883.36541748
 1933.0416000 54.897724152 2.7079474926 883.42944336
 1933.1940000 54.897724152 2.7106225491 883.49340820
 1933.3464000 54.897724152 2.7102210522 883.55743408
 1933.4988000 54.897724152 2.7118523121 883.62145996
 1933.6512000 54.897724152 2.7098529339 883.68542480
 1933.8036000 54.897724152 2.7080893517 883.74945068
 1933.9560000 54.897724152 2.7029435635 883.81347656
