# LAS format log file from PETREL
# Project units are specified as depth units
#==================================================================
~Version information
VERS.   2.0:
WRAP.   NO:
#==================================================================
~Well
STRT .m      1.0668000000 :
STOP .m      1939.1376000 :
STEP .m     0.15240000 :
NULL .        -999.250000 :
COMP.           : COMPANY
WELL.  P-129   : WELL
FLD.            : FIELD
LOC.            : LOCATION
SRVC.           : SERVICE COMPANY
DATE.  2014-09-16 16:48:09   : Log Export Date {yyyy-MM-dd HH:mm:ss}
PROV.           : PROVINCE
UWI.      : UNIQUE WELL ID
API.            : API NUMBER
#==================================================================
~Curve
DEPT .m                   : DEPTH
Sonic_despiked .us/ft     : Sonic_despiked
RHOB_despiked .g/cm3      : RHOB_despiked
two-waytime .ms           : two-way time
~Parameter
#==================================================================
~Ascii
# ...
 254.20320000  -999.250000 2.3989255428 174.49749756
 254.35560000  -999.250000 2.3989405632 174.59645081
 254.50800000  -999.250000 2.3989574909 174.69538879
 254.66040000  -999.250000 2.3989763260 174.79432678
 254.81280000  -999.250000 2.3989984989 174.89326477
 254.96520000  -999.250000 2.3990225792 174.99221802
 255.11760000  -999.250000 2.3990492821 175.09115601
 255.27000000  -999.250000 2.3990786076 175.19009399
 255.42240000  -999.250000 2.3991112709 175.28904724
 255.57480000  -999.250000 2.3991475105 175.38798523
 255.72720000  -999.250000 2.3991858959 175.48692322
 255.87960000  -999.250000 2.3992276192 175.58586121
 256.03200000  -999.250000 2.3992719650 175.68481445
 256.18440000  -999.250000 2.3993186951 175.78375244
 256.33680000  -999.250000 2.3993670940 175.88269043
 256.48920000  -999.250000 2.3994174004 175.98162842
 256.64160000  -999.250000 2.3994681835 176.08058167
 256.79400000  -999.250000 2.3995189667 176.17951965
 256.94640000  -999.250000 2.3995680809 176.27845764
 257.09880000  -999.250000 2.3996150494 176.37739563
 257.25120000  -999.250000 2.3996574879 176.47634888
 257.40360000  -999.250000 2.3996946812 176.57528687
 257.55600000  -999.250000 2.3997273445 176.67422485
 257.70840000  -999.250000 2.3997602463 176.77316284
 257.86080000  -999.250000 2.3998074532 176.87211609
 258.01320000  -999.250000 2.3999927044 176.97105408
 258.16560000  -999.250000 2.4005522728 177.06999207
 258.31800000  -999.250000 2.4021434784 177.16893005
 258.47040000  -999.250000 2.4133760929 177.26788330
 258.62280000  -999.250000 2.4344048500 177.36682129
 258.77520000  -999.250000 2.4579663277 177.46575928
 258.92760000  -999.250000 2.4785811901 177.56469727
 259.08000000  -999.250000 2.5456624031 177.66365051
 259.23240000  -999.250000 2.6406269073 177.76258850
 259.38480000  -999.250000 2.7721214294 177.86152649
 259.53720000  -999.250000 2.8991198540 177.96047974
 259.68960000  -999.250000 3.0101697445 178.05941772
 259.84200000  -999.250000 3.0842232704 178.15835571
 259.99440000  -999.250000 3.1093356609 178.25729370
 260.14680000  -999.250000 3.0961291790 178.35624695
 260.29920000  -999.250000 3.0588033199 178.45518494
 260.45160000  -999.250000 2.9608073235 178.55412292
 260.60400000  -999.250000 3.0375435352 178.65306091
 260.75640000  -999.250000 3.2467837334 178.75201416
 260.90880000  -999.250000 3.5349600315 178.85095215
 261.06120000  -999.250000 3.6744523048 178.94989014
 261.21360000  -999.250000 3.7034230232 179.04882813
 261.36600000  -999.250000 3.7124769688 179.14778137
 261.51840000  -999.250000 3.7193839550 179.24671936
 261.67080000  -999.250000 3.7278146744 179.34565735
 261.82320000  -999.250000 3.7408311367 179.44459534
 261.97560000  -999.250000 3.7544023991 179.54354858
 262.12800000  -999.250000 3.7604913712 179.64248657
 262.28040000  -999.250000 3.7616951466 179.74142456
 262.43280000  -999.250000 3.7668511868 179.84036255
 262.58520000  -999.250000 3.7791166306 179.93931580
 262.73760000  -999.250000 3.7894344330 180.03825378
 262.89000000  -999.250000 3.7890751362 180.13719177
 263.04240000  -999.250000 3.7753381729 180.23614502
 263.19480000  -999.250000 3.7574777603 180.33508301
 263.34720000  -999.250000 3.7430551052 180.43402100
 263.49960000  -999.250000 3.7337126732 180.53295898
 263.65200000  -999.250000 3.7218303680 180.63191223
 263.80440000  -999.250000 3.7016677856 180.73085022
 263.95680000  -999.250000 3.6782615185 180.82978821
 264.10920000  -999.250000 3.6588263512 180.92872620
 264.26160000  -999.250000 3.6469452381 181.02767944
 264.41400000  -999.250000 3.6372575760 181.12661743
 264.56640000  -999.250000 3.6218583584 181.22555542
 264.71880000  -999.250000 3.6012518406 181.32449341
 264.87120000  -999.250000 3.5833134651 181.42344666
 265.02360000  -999.250000 3.5775432587 181.52238464
 265.17600000  -999.250000 3.5850701332 181.62132263
 265.32840000  -999.250000 3.6104664803 181.72026062
 265.48080000  -999.250000 3.7449529171 181.81921387
 265.63320000  -999.250000 3.7540378571 181.91815186
 265.78560000  -999.250000 3.7631227970 182.01708984
 265.93800000  -999.250000 3.7722077370 182.11602783
 266.09040000  -999.250000 3.7812926769 182.21498108
 266.24280000  -999.250000 3.7903778553 182.31391907
 266.39520000  -999.250000 3.7994627953 182.41285706
 266.54760000  -999.250000 3.8085477352 182.51181030
 266.70000000  -999.250000 3.8176326752 182.61074829
 266.85240000  -999.250000 3.8267176151 182.70968628
 267.00480000  -999.250000 3.7972166538 182.80862427
 267.15720000  -999.250000 3.7950248718 182.90757751
 267.30960000  -999.250000 3.7951347828 183.00651550
 267.46200000  -999.250000 3.7942276001 183.10545349
 267.61440000  -999.250000 3.7913000584 183.20439148
 267.76680000  -999.250000 3.7902483940 183.30334473
 267.91920000  -999.250000 3.7954134941 183.40228271
 268.07160000  -999.250000 3.8068840504 183.50122070
 268.22400000  -999.250000 3.8197450638 183.60015869
 268.37640000  -999.250000 3.8355212212 183.69911194
 268.52880000  -999.250000 3.8835988045 183.79804993
 268.68120000  -999.250000 3.8740575314 183.89698792
 268.83360000  -999.250000 3.8645162582 183.99592590
 268.98600000  -999.250000 3.8549749851 184.09487915
 269.13840000  -999.250000 3.8454337120 184.19381714
 269.29080000  -999.250000 3.8358924389 184.29275513
 269.44320000  -999.250000 3.8263511658 184.39169312
 269.59560000  -999.250000 3.8168098927 184.49064636
 269.74800000  -999.250000 3.7505886555 184.58958435
 269.90040000  -999.250000 3.7260327339 184.68852234
 270.05280000  -999.250000 3.7140209675 184.78746033
 270.20520000  -999.250000 3.7022898197 184.88641357
 270.35760000  -999.250000 3.6881775856 184.98535156
 270.51000000  -999.250000 3.6734650135 185.08428955
 270.66240000  -999.250000 3.6600153446 185.18324280
 270.81480000  -999.250000 3.6469342709 185.28218079
 270.96720000  -999.250000 3.6302580833 185.38111877
 271.11960000  -999.250000 3.6300249100 185.48005676
 271.27200000  -999.250000 3.6297914982 185.57901001
 271.42440000  -999.250000 3.6295583248 185.67794800
 271.57680000  -999.250000 3.6293251514 185.77688599
 271.72920000  -999.250000 3.6290919781 185.87582397
 271.88160000  -999.250000 3.6288585663 185.97477722
 272.03400000  -999.250000 3.6286253929 186.07371521
 272.18640000  -999.250000 3.6283922195 186.17265320
 272.33880000  -999.250000 3.6281590462 186.27159119
 272.49120000  -999.250000 3.6279256344 186.37054443
 272.64360000  -999.250000 3.6276924610 186.46948242
 272.79600000  -999.250000 3.6274592876 186.56842041
 272.94840000  -999.250000 3.6272261143 186.66735840
 273.10080000  -999.250000 3.6269927025 186.76631165
 273.25320000  -999.250000 3.6267595291 186.86524963
 273.40560000  -999.250000 3.6434519291 186.96418762
 273.55800000  -999.250000 3.6604294777 187.06312561
 273.71040000  -999.250000 3.6740400791 187.16207886
 273.86280000  -999.250000 3.6851360798 187.26101685
 274.01520000  -999.250000 3.7007925510 187.35995483
 274.16760000  -999.250000 3.7252526283 187.45890808
 274.32000000  -999.250000 3.7548229694 187.55784607
 274.47240000  -999.250000 3.7834861279 187.65678406
 274.62480000  -999.250000 3.8095240593 187.75572205
 274.77720000  -999.250000 3.8317863941 187.85467529
 274.92960000  -999.250000 3.8438305855 187.95361328
 275.08200000  -999.250000 3.8427057266 188.05255127
 275.23440000  -999.250000 3.8324828148 188.15148926
 275.38680000  -999.250000 3.8219709396 188.25044250
 275.53920000  -999.250000 3.8167862892 188.34938049
 275.69160000  -999.250000 3.8176736832 188.44831848
 275.84400000  -999.250000 3.8223204613 188.54725647
 275.99640000  -999.250000 3.8289735317 188.64620972
 276.14880000  -999.250000 3.8373129368 188.74514771
 276.30120000  -999.250000 3.8483691216 188.84408569
 276.45360000  -999.250000 3.8648095131 188.94302368
 276.60600000  -999.250000 3.8950858116 189.04197693
 276.75840000  -999.250000 3.9416091442 189.14091492
 276.91080000  -999.250000 3.9907720089 189.23985291
 277.06320000  -999.250000 4.0240445137 189.33879089
