# LAS format log file from PETREL
# Project units are specified as depth units
#==================================================================
~Version information
VERS.   2.0:
WRAP.   NO:
#==================================================================
~Well
STRT .m      1.0668000000 :
STOP .m      1939.1376000 :
STEP .m     0.15240000 :
NULL .        -999.250000 :
COMP.           : COMPANY
WELL.  P-129   : WELL
FLD.            : FIELD
LOC.            : LOCATION
SRVC.           : SERVICE COMPANY
DATE.  2014-09-16 16:48:09   : Log Export Date {yyyy-MM-dd HH:mm:ss}
PROV.           : PROVINCE
UWI.      : UNIQUE WELL ID
API.            : API NUMBER
#==================================================================
~Curve
DEPT .m                   : DEPTH
Sonic_despiked .us/ft     : Sonic_despiked
RHOB_despiked .g/cm3      : RHOB_despiked
two-waytime .ms           : two-way time
~Parameter
#==================================================================
~Ascii
# ...
 392.27760000 69.246597290 2.6704125404 245.44905090
 392.43000000 69.228370667 2.6721990108 245.51676941
 392.58240000 69.210151672 2.6753807068 245.58448792
 392.73480000 69.191925049 2.6759102345 245.65219116
 392.88720000 69.173706055 2.6764397621 245.71990967
 393.03960000 69.260383606 2.6769692898 245.78762817
 393.19200000 69.347061157 2.6660706997 245.85534668
 393.34440000 69.433738708 2.6564822197 245.92304993
 393.49680000 69.520408630 2.6527092457 245.99076843
 393.64920000 69.476181030 2.6508851051 246.05848694
 393.80160000 69.431961060 2.6525573730 246.12619019
 393.95400000 69.387741089 2.6612265110 246.19390869
 394.10640000 69.343513489 2.6637461185 246.26162720
 394.25880000 69.299285889 2.6733603477 246.32933044
 394.41120000 69.255065918 2.6770076752 246.39704895
 394.56360000 69.197219849 2.6750659943 246.46476746
 394.71600000 69.214004517 2.6616396904 246.53248596
 394.86840000 69.230781555 2.6582937241 246.60018921
 395.02080000 69.247566223 2.6559207439 246.66790771
 395.17320000 69.264343262 2.6498110294 246.73562622
 395.32560000 69.281127930 2.6393988132 246.80332947
 395.47800000 69.297904968 2.6293606758 246.87104797
 395.63040000 69.314689636 2.6292474270 246.93876648
 395.78280000 69.331466675 2.6260805130 247.00646973
 395.93520000 69.348251343 2.6178762913 247.07418823
 396.08760000 69.365028381 2.6056113243 247.14190674
 396.24000000 69.381813049 2.5996620655 247.20962524
 396.39240000 69.398590088 2.6004185677 247.27732849
 396.54480000 69.415374756 2.5969707966 247.34504700
 396.69720000 69.432151794 2.5967943668 247.41276550
 396.84960000 69.448936462 2.5966181755 247.48046875
 397.00200000 69.465713501 2.5964417458 247.54818726
 397.15440000 69.482498169 2.5962653160 247.61590576
 397.30680000 69.499275208 2.5960891247 247.68360901
 397.45920000 69.516059875 2.5959126949 247.75132751
 397.61160000 69.532836914 2.5957362652 247.81904602
 397.76400000 69.549621582 2.5955600739 247.88676453
 397.91640000 69.566398621 2.5953836441 247.95446777
 398.06880000 69.583183289 2.5952072144 248.02218628
 398.22120000 69.599960327 2.5950310230 248.08990479
 398.37360000 69.616744995 2.5948545933 248.15760803
 398.52600000 69.337234497 2.6055688858 248.22532654
 398.67840000 69.322395325 2.6040558815 248.29304504
 398.83080000 69.307563782 2.5954670906 248.36074829
 398.98320000 69.292724609 2.5979852676 248.42846680
 399.13560000 69.277885437 2.6005032063 248.49618530
 399.28800000 69.263046265 2.6030211449 248.56390381
 399.44040000 69.248214722 2.6055393219 248.63160706
 399.59280000 69.233375549 2.6085565090 248.69932556
 399.74520000 69.218536377 2.6229770184 248.76704407
 399.89760000 69.203704834 2.6344723701 248.83474731
 400.05000000 69.188865662 2.6601302624 248.90246582
 400.20240000 69.125671387 2.6608390808 248.97018433
 400.35480000 69.062477112 2.6615478992 249.03788757
 400.50720000 68.999275208 2.6622567177 249.10560608
 400.65960000 68.936080933 2.6629655361 249.17332458
 400.81200000 68.963905334 2.6636741161 249.24104309
 400.96440000 68.991729736 2.6643829346 249.30874634
 401.11680000 69.019554138 2.6650917530 249.37570190
 401.26920000 69.047378540 2.6658005714 249.44107056
 401.42160000 69.075195313 2.6665093899 249.50645447
 401.57400000 69.103019714 2.6672182083 249.57182312
 401.72640000 69.130844116 2.6679270267 249.63720703
 401.87880000 69.158668518 2.6686358452 249.70257568
 402.03120000 69.186492920 2.6693446636 249.76795959
 402.18360000 69.214317322 2.6700534821 249.83334351
 402.33600000 69.242141724 2.6707620621 249.89871216
 402.48840000 69.269966125 2.6714708805 249.96409607
 402.64080000 69.297782898 2.6721796989 250.02946472
 402.79320000 69.325607300 2.6728885174 250.09484863
 402.94560000 69.353431702 2.6735973358 250.16021729
 403.09800000 69.381256104 2.6630237103 250.22560120
 403.25040000 69.409080505 2.6576929092 250.29096985
 403.40280000 69.480392456 2.6546683311 250.35635376
 403.55520000 69.551696777 2.6486880779 250.42172241
 403.70760000 69.506660461 2.6431195736 250.48710632
 403.86000000 69.128250122 2.6362283230 250.55249023
 404.01240000 69.148429871 2.6331994534 250.61785889
 404.16480000 69.168609619 2.6381423473 250.68324280
 404.31720000 69.188789368 2.6408984661 250.74861145
 404.46960000 69.208969116 2.6429910660 250.81399536
 404.62200000 69.229156494 2.6404531002 250.87936401
 404.77440000 69.249336243 2.6495630741 250.94474792
 404.92680000 69.269515991 2.6614656448 251.01011658
 405.07920000 69.289695740 2.6690230370 251.07550049
 405.23160000 69.309875488 2.6618812084 251.14086914
 405.38400000 69.223739624 2.6555194855 251.20625305
 405.53640000 69.198188782 2.6588869095 251.27163696
 405.68880000 69.172637939 2.6673731804 251.33700562
 405.84120000 69.147079468 2.6641273499 251.40238953
 405.99360000 69.121528625 2.6570453644 251.46775818
 406.14600000 69.232688904 2.6442780495 251.53314209
 406.29840000 69.343849182 2.6328828335 251.59851074
 406.45080000 69.531913757 2.6206018925 251.66389465
 406.60320000 69.543289185 2.6197934151 251.72926331
 406.75560000 69.743125916 2.6174490452 251.79464722
 406.90800000 69.783302307 2.6156980991 251.86001587
 407.06040000 69.966423035 2.6068747044 251.92539978
 407.21280000 70.027214050 2.6031661034 251.99078369
 407.36520000 70.179588318 2.5990798473 252.05615234
 407.51760000 70.202827454 2.5914709568 252.12153625
 407.67000000 70.226066589 2.5895555019 252.18690491
 407.82240000 70.249305725 2.5882539749 252.25228882
 407.97480000 70.272544861 2.5869524479 252.31765747
 408.12720000 70.295783997 2.5890624523 252.38304138
 408.27960000 70.319030762 2.5888981819 252.44841003
 408.43200000 70.342269897 2.5887339115 252.51379395
 408.58440000 70.365509033 2.5885696411 252.57916260
 408.73680000 70.388748169 2.5884051323 252.64454651
 408.88920000 70.411987305 2.5882408619 252.70993042
 409.04160000 70.435226440 2.5880765915 252.77529907
 409.19400000 70.458465576 2.5879123211 252.84068298
 409.34640000 70.621383667 2.5877478123 252.90605164
 409.49880000 70.635025024 2.5875835419 252.97143555
 409.65120000 70.648674011 2.5874192715 253.03680420
 409.80360000 70.662315369 2.5978560448 253.10218811
 409.95600000 70.675964355 2.6010079384 253.16755676
 410.10840000 70.689605713 2.6159605980 253.23294067
 410.26080000 70.703247070 2.6260480881 253.29830933
 410.41320000 70.716896057 2.6360294819 253.36369324
 410.56560000 70.730537415 2.6408121586 253.42907715
 410.71800000 70.715957642 2.6427922249 253.49444580
 410.87040000 70.701377869 2.6495680809 253.55982971
 411.02280000 70.381744385 2.6553347111 253.62519836
 411.17520000 70.412857056 2.6696860790 253.69058228
 411.32760000 70.443977356 2.6699566841 253.75595093
 411.48000000 70.475097656 2.6702272892 253.82133484
 411.63240000 70.506210327 2.6704978943 253.88670349
 411.78480000 70.537322998 2.6707682610 253.95208740
 411.93720000 70.568443298 2.6710388660 254.01745605
 412.08960000 70.637794495 2.6713094711 254.08283997
 412.24200000 70.707145691 2.6715800762 254.14822388
 412.39440000 70.776496887 2.6718506813 254.21359253
 412.54680000 70.845848083 2.6278700829 254.27897644
 412.69920000 70.790115356 2.6050937176 254.34434509
 412.85160000 70.707687378 2.5893790722 254.40972900
 413.00400000 70.757011414 2.5864443779 254.47509766
 413.15640000 70.733291626 2.5911622047 254.54048157
 413.30880000 70.810096741 2.5978140831 254.60585022
 413.46120000 70.886901855 2.6018555164 254.67123413
 413.61360000 70.963706970 2.5995802879 254.73660278
 413.76600000 71.040512085 2.6010596752 254.80198669
 413.91840000 70.947959900 2.6036643982 254.86737061
 414.07080000 70.942558289 2.6027975082 254.93273926
 414.22320000 70.937149048 2.6103997231 254.99812317
 414.37560000 70.931747437 2.6190898418 255.06349182
 414.52800000 70.926338196 2.6427958012 255.12887573
 414.68040000 70.920936584 2.6627888680 255.19424438
 414.83280000 70.902618408 2.6657545567 255.25962830
 414.98520000 70.895065308 2.6687202454 255.32499695
 415.13760000 70.887504578 2.6716856956 255.39038086
