# LAS format log file from PETREL
# Project units are specified as depth units
#==================================================================
~Version information
VERS.   2.0:
WRAP.   NO:
#==================================================================
~Well
STRT .m      1.0668000000 :
STOP .m      1939.1376000 :
STEP .m     0.15240000 :
NULL .        -999.250000 :
COMP.           : COMPANY
WELL.  P-129   : WELL
FLD.            : FIELD
LOC.            : LOCATION
SRVC.           : SERVICE COMPANY
DATE.  2014-09-16 16:48:09   : Log Export Date {yyyy-MM-dd HH:mm:ss}
PROV.           : PROVINCE
UWI.      : UNIQUE WELL ID
API.            : API NUMBER
#==================================================================
~Curve
DEPT .m                   : DEPTH
Sonic_despiked .us/ft     : Sonic_despiked
RHOB_despiked .g/cm3      : RHOB_despiked
two-waytime .ms           : two-way time
~Parameter
#==================================================================
~Ascii
# ...
 1266.7488000 60.622436523 2.6843810081 614.62402344
 1266.9012000 60.538925171 2.6734664440 614.68591309
 1267.0536000 60.634017944 2.6716270447 614.74786377
 1267.2060000 60.564243317 2.6697874069 614.80975342
 1267.3584000 60.494472504 2.6679477692 614.87164307
 1267.5108000 60.424697876 2.6661083698 614.93353271
 1267.6632000 60.354923248 2.6725172997 614.99542236
 1267.8156000 60.334003448 2.6723272800 615.05731201
 1267.9680000 60.313087463 2.6721374989 615.11920166
 1268.1204000 60.292167664 2.6719477177 615.18109131
 1268.2728000 60.271251678 2.6717576981 615.24304199
 1268.4252000 60.250331879 2.6715679169 615.30493164
 1268.5776000 60.229415894 2.6816518307 615.36682129
 1268.7300000 60.208496094 2.6785895824 615.42871094
 1268.8824000 60.426837921 2.6842904091 615.49060059
 1269.0348000 60.435825348 2.7118673325 615.55249023
 1269.1872000 60.271278381 2.7092585564 615.61437988
 1269.3396000 60.262912750 2.7066500187 615.67633057
 1269.4920000 60.447452545 2.7007977962 615.73822021
 1269.6444000 60.429130554 2.7019219398 615.80010986
 1269.7968000 60.410808563 2.7030460835 615.86199951
 1269.9492000 60.392490387 2.7041704655 615.92388916
 1270.1016000 60.374168396 2.7052946091 615.98577881
 1270.2540000 60.355846405 2.7064187527 616.04766846
 1270.4064000 60.337524414 2.6890935898 616.10961914
 1270.5588000 60.319202423 2.6839330196 616.17150879
 1270.7112000 60.300884247 2.6980252266 616.23339844
 1270.8636000 60.282562256 2.6969549656 616.29528809
 1271.0160000 60.264240265 2.6958849430 616.35717773
 1271.1684000 60.245918274 2.6948146820 616.41906738
 1271.3208000 60.227596283 2.6937446594 616.48095703
 1271.4732000 60.209278107 2.6926743984 616.54290771
 1271.6256000 60.190956116 2.6787066460 616.60479736
 1271.7780000 60.172634125 2.6769073009 616.66668701
 1271.9304000 59.934726715 2.6753518581 616.72857666
 1272.0828000 60.003570557 2.6805365086 616.79046631
 1272.2352000 60.072418213 2.6892011166 616.85235596
 1272.3876000 59.935340881 2.6909480095 616.91424561
 1272.5400000 59.935543060 2.6934695244 616.97619629
 1272.6924000 59.935749054 2.6922109127 617.03808594
 1272.8448000 59.971961975 2.6909821033 617.09997559
 1272.9972000 59.978168488 2.6844611168 617.16186523
 1273.1496000 59.984375000 2.6761062145 617.22375488
 1273.3020000 59.990581512 2.6769325733 617.28564453
 1273.4544000 59.981269836 2.6748478413 617.34753418
 1273.6068000 59.985923767 2.6744790077 617.40948486
 1273.7592000 59.990577698 2.6741101742 617.47137451
 1273.9116000 59.995231628 2.6737413406 617.53326416
 1274.0640000 59.999885559 2.6733725071 617.59515381
 1274.2164000 60.122005463 2.6730036736 617.65704346
 1274.3688000 60.244125366 2.6719691753 617.71893311
 1274.5212000 60.366245270 2.6714894772 617.78082275
 1274.6736000 59.961360931 2.6710095406 617.84277344
 1274.8260000 60.014053345 2.6705298424 617.90466309
 1274.9784000 60.066749573 2.6986219883 617.96655273
 1275.1308000 60.119441986 2.7017674446 618.02844238
 1275.2832000 60.172138214 2.6988630295 618.09033203
 1275.4356000 60.224830627 2.6959583759 618.15222168
 1275.5880000 60.277526855 2.6930539608 618.21411133
 1275.7404000 60.330219269 2.6907119751 618.27600098
 1275.8928000 60.382915497 2.6987302303 618.33795166
 1276.0452000 60.435607910 2.6964609623 618.39984131
 1276.1976000 60.488304138 2.6941916943 618.46173096
 1276.3500000 60.540996552 2.6919224262 618.52362061
 1276.5024000 60.593688965 2.6896531582 618.58551025
 1276.6548000 60.646385193 2.6725456715 618.64739990
 1276.8072000 60.699077606 2.6751208305 618.70928955
 1276.9596000 60.751773834 2.6977713108 618.77124023
 1277.1120000 60.804466248 2.6985580921 618.83312988
 1277.2644000 60.857162476 2.6993448734 618.89501953
 1277.4168000 60.909854889 2.7001316547 618.95690918
 1277.5692000 60.256160736 2.7009184361 619.01879883
 1277.7216000 60.271678925 2.6842374802 619.08068848
 1277.8740000 60.287193298 2.6740026474 619.14257813
 1278.0264000 60.302707672 2.6756606102 619.20452881
 1278.1788000 60.318225861 2.6744008064 619.26641846
 1278.3312000 60.333740234 2.6744120121 619.32830811
 1278.4836000 60.403915405 2.6754434109 619.39019775
 1278.6360000 60.474090576 2.6764748096 619.45208740
 1278.7884000 60.544265747 2.6874923706 619.51397705
 1278.9408000 60.565853119 2.6959450245 619.57586670
 1279.0932000 60.587444305 2.6916790009 619.63781738
 1279.2456000 60.609031677 2.6883828640 619.69970703
 1279.3980000 61.264198303 2.6818690300 619.76159668
 1279.5504000 61.358875275 2.6804723740 619.82348633
 1279.7028000 60.811965942 2.6790757179 619.88537598
 1279.8552000 60.848999023 2.6776788235 619.94726563
 1280.0076000 60.886035919 2.6762821674 620.00915527
 1280.1600000 60.923072815 2.6748855114 620.07110596
 1280.3124000 60.960105896 2.6937437057 620.13299561
 1280.4648000 61.205894470 2.7068309784 620.19488525
 1280.6172000 61.451679230 2.7053816319 620.25677490
 1280.7696000 61.697467804 2.7039322853 620.31866455
 1280.9220000 61.590915680 2.6910669804 620.38055420
 1281.0744000 61.484363556 2.6826457977 620.44244385
 1281.2268000 61.377811432 2.6859128475 620.50439453
 1281.3792000 61.826187134 2.7011544704 620.56628418
 1281.5316000 61.858367920 2.7006769180 620.62817383
 1281.6840000 61.652236938 2.7001991272 620.69006348
 1281.8364000 61.446102142 2.6873390675 620.75195313
 1281.9888000 61.527000427 2.6797053814 620.81384277
 1282.1412000 61.607894897 2.6757652760 620.87573242
 1282.2936000 61.688793182 2.6689174175 620.93762207
 1282.4460000 61.769691467 2.6704244614 620.99957275
 1282.5984000 61.850585938 2.6714541912 621.06146240
 1282.7508000 61.931484222 2.6941263676 621.12335205
 1282.9032000 61.518852234 2.7068262100 621.18524170
 1283.0556000 61.529243469 2.7056632042 621.24713135
 1283.2080000 61.565788269 2.7044999599 621.30902100
 1283.3604000 61.743709564 2.7033367157 621.37091064
 1283.5128000 61.731113434 2.7021737099 621.43286133
 1283.6652000 61.718517303 2.6922249794 621.49475098
 1283.8176000 61.705921173 2.6895909309 621.55664063
 1283.9700000 61.693325043 2.6871910095 621.61853027
 1284.1224000 61.680728912 2.6722805500 621.68041992
 1284.2748000 61.668132782 2.6758809090 621.74230957
 1284.4272000 61.655536652 2.6794812679 621.80419922
 1284.5796000 61.642940521 2.6830816269 621.86614990
 1284.7320000 61.630344391 2.6866819859 621.92803955
 1284.8844000 61.617748260 2.6902823448 621.98992920
 1285.0368000 61.605152130 2.6938827038 622.05181885
 1285.1892000 61.592556000 2.7040319443 622.11370850
 1285.3416000 61.579956055 2.7085678577 622.17559814
 1285.4940000 61.567359924 2.7131037712 622.23748779
 1285.6464000 61.554763794 2.7016165257 622.29943848
 1285.7988000 61.542167664 2.6923038960 622.36132813
 1285.9512000 61.529571533 2.6872212887 622.42321777
 1286.1036000 61.516975403 2.6842703819 622.48510742
 1286.2560000 61.504379272 2.6799302101 622.54699707
 1286.4084000 61.491783142 2.6856935024 622.60888672
 1286.5608000 61.479187012 2.6914567947 622.67077637
 1286.7132000 61.466590881 2.6972200871 622.73272705
 1286.8656000 61.453994751 2.7029833794 622.79461670
 1287.0180000 61.441398621 2.6973683834 622.85650635
 1287.1704000 61.428802490 2.7008559704 622.91839600
 1287.3228000 61.416206360 2.7043435574 622.98028564
 1287.4752000 61.389343262 2.7078311443 623.04217529
 1287.6276000 61.362480164 2.6826398373 623.10406494
 1287.7800000 61.335617065 2.6829409599 623.16601563
 1287.9324000 61.336681366 2.6832418442 623.22790527
 1288.0848000 61.337749481 2.6835429668 623.28979492
 1288.2372000 61.338813782 2.6838440895 623.35168457
 1288.3896000 61.339881897 2.6779038906 623.41357422
 1288.5420000 61.340946198 2.6967251301 623.47546387
 1288.6944000 61.342014313 2.6996402740 623.53735352
 1288.8468000 61.343078613 2.7025556564 623.59924316
 1288.9992000 61.344146729 2.7054708004 623.66119385
 1289.1516000 61.345211029 2.6710593700 623.72308350
 1289.3040000 61.346279144 2.6756207943 623.78497314
 1289.4564000 61.347343445 2.6801822186 623.84686279
 1289.6088000 61.328357697 2.6847436428 623.90875244
