# LAS format log file from PETREL
# Project units are specified as depth units
#==================================================================
~Version information
VERS.   2.0:
WRAP.   NO:
#==================================================================
~Well
STRT .m      1.0668000000 :
STOP .m      1939.1376000 :
STEP .m     0.15240000 :
NULL .        -999.250000 :
COMP.           : COMPANY
WELL.  P-129   : WELL
FLD.            : FIELD
LOC.            : LOCATION
SRVC.           : SERVICE COMPANY
DATE.  2014-09-16 16:48:09   : Log Export Date {yyyy-MM-dd HH:mm:ss}
PROV.           : PROVINCE
UWI.      : UNIQUE WELL ID
API.            : API NUMBER
#==================================================================
~Curve
DEPT .m                   : DEPTH
Sonic_despiked .us/ft     : Sonic_despiked
RHOB_despiked .g/cm3      : RHOB_despiked
two-waytime .ms           : two-way time
~Parameter
#==================================================================
~Ascii
# ...
 1013.6124000 67.801223755 2.6433310509 507.50277710
 1013.7648000 67.856819153 2.6427025795 507.56915283
 1013.9172000 67.912422180 2.6420738697 507.63555908
 1014.0696000 67.968017578 2.6414453983 507.70193481
 1014.2220000 68.109817505 2.6631982327 507.76831055
 1014.3744000 68.251625061 2.6872165203 507.83471680
 1014.5268000 67.976142883 2.6882343292 507.90109253
 1014.6792000 68.036094666 2.6687555313 507.96749878
 1014.8316000 68.096046448 2.6616206169 508.03387451
 1014.9840000 68.155998230 2.6544857025 508.10025024
 1015.1364000 68.215950012 2.6473507881 508.16665649
 1015.2888000 68.275901794 2.6402158737 508.23303223
 1015.4412000 68.335853577 2.6393308640 508.29943848
 1015.5936000 68.395805359 2.6384458542 508.36581421
 1015.7460000 68.455764771 2.6394450665 508.43218994
 1015.8984000 68.515716553 2.6404440403 508.49859619
 1016.0508000 68.575668335 2.6414430141 508.56497192
 1016.2032000 68.635620117 2.6424422264 508.63137817
 1016.3556000 68.695571899 2.6434412003 508.69775391
 1016.5080000 68.755523682 2.6444401741 508.76412964
 1016.6604000 68.815475464 2.6454393864 508.83053589
 1016.8128000 68.875427246 2.6464383602 508.89691162
 1016.9652000 68.853889465 2.6474373341 508.96331787
 1017.1176000 68.832359314 2.6484365463 509.02969360
 1017.2700000 68.810821533 2.6494355202 509.09606934
 1017.4224000 68.789283752 2.6504344940 509.16247559
 1017.5748000 68.767745972 2.6514337063 509.22885132
 1017.7272000 68.746215820 2.6524326801 509.29525757
 1017.8796000 68.724678040 2.6534316540 509.36163330
 1018.0320000 68.272529602 2.6544308662 509.42800903
 1018.1844000 68.559165955 2.6554298401 509.49441528
 1018.3368000 68.845794678 2.6564288139 509.56079102
 1018.4892000 68.834297180 2.6574280262 509.62719727
 1018.6416000 68.822792053 2.6584270000 509.69357300
 1018.7940000 68.811294556 2.6594259739 509.75994873
 1018.9464000 68.799789429 2.6604251862 509.82635498
 1019.0988000 68.788291931 2.6614241600 509.89273071
 1019.2512000 68.776786804 2.6624231339 509.95910645
 1019.4036000 68.765289307 2.6634223461 510.02551270
 1019.5560000 68.753784180 2.6644213200 510.09188843
 1019.7084000 68.742286682 2.7111227512 510.15829468
 1019.8608000 68.730781555 2.7273454666 510.22467041
 1020.0132000 68.719284058 2.7077751160 510.29104614
 1020.1656000 68.561447144 2.6830441952 510.35745239
 1020.3180000 68.403610229 2.6692445278 510.42382813
 1020.4704000 68.346145630 2.6775581837 510.49023438
 1020.6228000 68.288688660 2.6841359138 510.55661011
 1020.7752000 68.231224060 2.6958620548 510.62298584
 1020.9276000 68.173759460 2.7245275974 510.68939209
 1021.0800000 68.116302490 2.7285153866 510.75576782
 1021.2324000 68.058837891 2.7325031757 510.82217407
 1021.3848000 68.001373291 2.7364909649 510.88854980
 1021.5372000 67.943916321 2.7404787540 510.95492554
 1021.6896000 67.886451721 2.7409527302 511.02133179
 1021.8420000 67.828987122 2.7292823792 511.08770752
 1021.9944000 67.771530151 2.7202277184 511.15411377
 1022.1468000 67.714065552 2.7074110508 511.22048950
 1022.2992000 67.656600952 2.7166028023 511.28686523
 1022.4516000 67.599143982 2.7210700512 511.35327148
 1022.6040000 67.541679382 2.7304837704 511.41964722
 1022.7564000 67.730911255 2.7197222710 511.48605347
 1022.9088000 67.920135498 2.7330560684 511.55242920
 1023.0612000 67.784614563 2.7365949154 511.61880493
 1023.2136000 67.649093628 2.7360639572 511.68521118
 1023.3660000 67.513572693 2.7355329990 511.75158691
 1023.5184000 67.378051758 2.7350022793 511.81799316
 1023.6708000 67.242530823 2.7344713211 511.88436890
 1023.8232000 67.107009888 2.7339403629 511.95074463
 1023.9756000 66.971481323 2.7187409401 512.01715088
 1024.1280000 66.835960388 2.7093818188 512.08355713
 1024.2804000 66.700439453 2.7150890827 512.14990234
 1024.4328000 66.564918518 2.7065613270 512.21630859
 1024.5852000 66.429397583 2.7136578560 512.28271484
 1024.7376000 66.293876648 2.7366425991 512.34906006
 1024.8900000 66.158355713 2.7417037487 512.41546631
 1025.0424000 66.161819458 2.7467648983 512.48187256
 1025.1948000 66.156265259 2.7518258095 512.54821777
 1025.3472000 65.858779907 2.7568869591 512.61462402
 1025.4996000 66.026298523 2.7462453842 512.68103027
 1025.6520000 66.193817139 2.7245731354 512.74743652
 1025.8044000 66.361335754 2.7058198452 512.81378174
 1025.9568000 65.771171570 2.6942808628 512.88018799
 1026.1092000 65.777488708 2.6962730885 512.94659424
 1026.2616000 65.783805847 2.7038891315 513.01293945
 1026.4140000 65.790115356 2.7108802795 513.07934570
 1026.5664000 65.796432495 2.7319555283 513.14575195
 1026.7188000 65.802749634 2.7521884441 513.21209717
 1026.8712000 65.809066772 2.7568480968 513.27850342
 1027.0236000 65.815376282 2.7393641472 513.34490967
 1027.1760000 65.821693420 2.7083456516 513.41125488
 1027.3284000 65.828010559 2.7170743942 513.47766113
 1027.4808000 65.834327698 2.7258031368 513.54406738
 1027.6332000 65.840637207 2.7345318794 513.61047363
 1027.7856000 65.846954346 2.7432608604 513.67681885
 1027.9380000 65.853271484 2.7519896030 513.74322510
 1028.0904000 65.920326233 2.7607183456 513.80963135
 1028.2428000 65.987388611 2.7450885773 513.87597656
 1028.3952000 66.054450989 2.7277123928 513.94238281
 1028.5476000 66.121505737 2.7313895226 514.00878906
 1028.7000000 66.188568115 2.7454276085 514.07513428
 1028.8524000 66.255622864 2.7509946823 514.14154053
 1029.0048000 66.322685242 2.7584307194 514.20794678
 1029.1572000 66.343070984 2.7602059841 514.27435303
 1029.3096000 66.363449097 2.7619814873 514.34069824
 1029.4620000 66.383834839 2.7637567520 514.40710449
 1029.6144000 66.404212952 2.7655320168 514.47351074
 1029.7668000 66.424598694 2.7523069382 514.53985596
 1029.9192000 66.444984436 2.7234320641 514.60626221
 1030.0716000 66.465362549 2.7191669941 514.67266846
 1030.2240000 66.485748291 2.7149019241 514.73901367
 1030.3764000 66.506134033 2.7106366158 514.80541992
 1030.5288000 66.526512146 2.7063715458 514.87182617
 1030.6812000 66.546897888 2.7021064758 514.93823242
 1030.8336000 66.567276001 2.6978414059 515.00457764
 1030.9860000 66.587661743 2.7141978741 515.07098389
 1031.1384000 66.608047485 2.7128787041 515.13739014
 1031.2908000 66.628425598 2.7352869511 515.20373535
 1031.4432000 66.648811340 2.7558407784 515.27014160
 1031.5956000 66.669189453 2.7763946056 515.33654785
 1031.7480000 66.689575195 2.7750737667 515.40289307
 1031.9004000 66.715499878 2.7737526894 515.46929932
 1032.0528000 66.667327881 2.7724318504 515.53570557
 1032.2052000 66.619163513 2.7711110115 515.60205078
 1032.3576000 66.570991516 2.7643544674 515.66845703
 1032.5100000 66.522819519 2.7619190216 515.73486328
 1032.6624000 66.474655151 2.7567076683 515.80126953
 1032.8148000 66.426483154 2.7488942146 515.86761475
 1032.9672000 66.378311157 2.7381598949 515.93402100
 1033.1196000 66.330139160 2.7301247120 516.00042725
 1033.2720000 66.281974792 2.7368664742 516.06677246
 1033.4244000 66.233802795 2.7449369431 516.13317871
 1033.5768000 66.185630798 2.7453451157 516.19958496
 1033.7292000 66.137466431 2.7479643822 516.26593018
 1033.8816000 66.089294434 2.7488241196 516.33233643
 1034.0340000 66.225387573 2.7536447048 516.39874268
 1034.1864000 66.271156311 2.7492084503 516.46514893
 1034.3388000 66.316925049 2.7436029911 516.53149414
 1034.4912000 66.362693787 2.7449569702 516.59790039
 1034.6436000 66.408462524 2.7510282993 516.66430664
 1034.7960000 66.454231262 2.7486648560 516.73065186
 1034.9484000 66.362442017 2.7459838390 516.79705811
 1035.1008000 66.247505188 2.7451233864 516.86346436
 1035.2532000 66.132568359 2.7437086105 516.92980957
 1035.4056000 66.605346680 2.7574450970 516.99621582
 1035.5580000 66.686317444 2.7582821846 517.06262207
 1035.7104000 66.578712463 2.7591192722 517.12902832
 1035.8628000 66.471099854 2.7599563599 517.19537354
 1036.0152000 66.363494873 2.7607932091 517.26177979
 1036.1676000 66.255882263 2.7616302967 517.32818604
 1036.3200000 66.148277283 2.7624673843 517.39453125
 1036.4724000 66.236892700 2.7633044720 517.46093750
