# LAS format log file from PETREL
# Project units are specified as depth units
#==================================================================
~Version information
VERS.   2.0:
WRAP.   NO:
#==================================================================
~Well
STRT .m      1.0668000000 :
STOP .m      1939.1376000 :
STEP .m     0.15240000 :
NULL .        -999.250000 :
COMP.           : COMPANY
WELL.  P-129   : WELL
FLD.            : FIELD
LOC.            : LOCATION
SRVC.           : SERVICE COMPANY
DATE.  2014-09-16 16:48:09   : Log Export Date {yyyy-MM-dd HH:mm:ss}
PROV.           : PROVINCE
UWI.      : UNIQUE WELL ID
API.            : API NUMBER
#==================================================================
~Curve
DEPT .m                   : DEPTH
Sonic_despiked .us/ft     : Sonic_despiked
RHOB_despiked .g/cm3      : RHOB_despiked
two-waytime .ms           : two-way time
~Parameter
#==================================================================
~Ascii
# ...
 645.41400000 59.990993500 2.4571213722 353.16604614
 645.56640000 59.933990479 2.4402852058 353.22970581
 645.71880000 59.876983643 2.4373462200 353.29336548
 645.87120000 59.819980621 2.4344072342 353.35702515
 646.02360000 60.059131622 2.4898159504 353.42068481
 646.17600000 60.298278809 2.5452249050 353.48434448
 646.32840000 60.537425995 2.5462524891 353.54800415
 646.48080000 60.776573181 2.5472800732 353.61163330
 646.63320000 61.015724182 2.5483074188 353.67529297
 646.78560000 61.254871368 2.5493350029 353.73895264
 646.93800000 61.494018555 2.5503625870 353.80261230
 647.09040000 61.460296631 2.4635953903 353.86627197
 647.24280000 61.426578522 2.4499902725 353.92993164
 647.39520000 61.392856598 2.4363853931 353.99359131
 647.54760000 61.359138489 2.4227805138 354.05725098
 647.70000000 61.325416565 2.4264292717 354.12091064
 647.85240000 61.291698456 2.4300777912 354.18457031
 648.00480000 61.257976532 2.4337263107 354.24822998
 648.15720000 61.224258423 2.4373748302 354.31188965
 648.30960000 61.190536499 2.4410233498 354.37554932
 648.46200000 61.156818390 2.4446718693 354.43920898
 648.61440000 61.277328491 2.4483203888 354.50286865
 648.76680000 61.397838593 2.4519689083 354.56652832
 648.91920000 61.350547791 2.4556174278 354.63018799
 649.07160000 61.303256989 2.4592659473 354.69384766
 649.22400000 61.255970001 2.4629144669 354.75750732
 649.37640000 61.208679199 2.4665629864 354.82116699
 649.52880000 61.161388397 2.5990509987 354.88482666
 649.68120000 61.114097595 2.5602293015 354.94848633
 649.83360000 61.066806793 2.5309383869 355.01214600
 649.98600000 61.019519806 2.5252082348 355.07580566
 650.13840000 60.972229004 2.5238518715 355.13946533
 650.29080000 60.924938202 2.5218520164 355.20312500
 650.44320000 60.877647400 2.5149607658 355.26678467
 650.59560000 60.830356598 2.5262632370 355.33041382
 650.74800000 60.783065796 2.5358457565 355.39407349
 650.90040000 60.735778809 2.5363104343 355.45773315
 651.05280000 60.688488007 2.5172023773 355.52139282
 651.20520000 60.641197205 2.5160393715 355.58505249
 651.35760000 60.593906403 2.5148763657 355.64871216
 651.51000000 60.546615601 2.5137133598 355.71237183
 651.66240000 60.499328613 2.5125503540 355.77603149
 651.81480000 60.452037811 2.5113873482 355.83969116
 651.96720000 60.404747009 2.5515506268 355.90335083
 652.11960000 59.984569550 2.6255168915 355.96701050
 652.27200000 59.069190979 2.6671941280 356.03067017
 652.42440000 59.156135559 2.7144827843 356.09432983
 652.57680000 59.243080139 2.7243404388 356.15798950
 652.72920000 59.330028534 2.7420635223 356.22164917
 652.88160000 59.416973114 2.7438793182 356.28530884
 653.03400000 59.503917694 2.7456951141 356.34896851
 653.18640000 59.590862274 2.7475109100 356.41262817
 653.33880000 59.677810669 2.7493267059 356.47628784
 653.49120000 59.764755249 2.7511425018 356.53994751
 653.64360000 59.851699829 2.7529582977 356.60360718
 653.79600000 59.938644409 2.7547740936 356.66726685
 653.94840000 60.025592804 2.7565898895 356.73092651
 654.10080000 60.112537384 2.7540171146 356.79458618
 654.25320000 60.199481964 2.7514445782 356.85824585
 654.40560000 60.286426544 2.7488718033 356.92190552
 654.55800000 60.373371124 2.7462992668 356.98556519
 654.71040000 60.460319519 2.7437264919 357.04919434
 654.86280000 60.547264099 2.7411539555 357.11285400
 655.01520000 60.634208679 2.7385811806 357.17651367
 655.16760000 60.721153259 2.7360086441 357.24017334
 655.32000000 60.808101654 2.7334358692 357.30383301
 655.47240000 60.895046234 2.7308633327 357.36749268
 655.62480000 60.981990814 2.7282905579 357.43115234
 655.77720000 61.068935394 2.7257180214 357.49481201
 655.92960000 61.155883789 2.7081165314 357.55847168
 656.08200000 61.242828369 2.6977736950 357.62213135
 656.23440000 61.329772949 2.6789178848 357.68579102
 656.38680000 61.534561157 2.6669659615 357.74945068
 656.53920000 61.739349365 2.6595671177 357.81311035
 656.69160000 61.944137573 2.6708161831 357.87677002
 656.84400000 62.148925781 2.6833603382 357.94042969
 656.99640000 62.353713989 2.6835637093 358.00408936
 657.14880000 62.558502197 2.6753659248 358.06774902
 657.30120000 62.763290405 2.6659276485 358.13140869
 657.45360000 62.968078613 2.6711339951 358.19506836
 657.60600000 63.172866821 2.6821522713 358.25872803
 657.75840000 63.377655029 2.6686081886 358.32238770
 657.91080000 63.582443237 2.6478297710 358.38604736
 658.06320000 63.787231445 2.6335484982 358.44970703
 658.21560000 63.992019653 2.6571760178 358.51336670
 658.36800000 64.196807861 2.6867165565 358.57702637
 658.52040000 64.410469055 2.7024524212 358.64068604
 658.67280000 63.838752747 2.7030484676 358.70434570
 658.82520000 63.902320862 2.6835112572 358.76797485
 658.97760000 63.965888977 2.6701774597 358.83163452
 659.13000000 64.029457092 2.6611249447 358.89529419
 659.28240000 64.093025208 2.6739227772 358.95895386
 659.43480000 64.156593323 2.6735410690 359.02261353
 659.58720000 64.220161438 2.6644330025 359.08627319
 659.73960000 64.283729553 2.6598668098 359.14993286
 659.89200000 64.347297668 2.6684439182 359.21359253
 660.04440000 64.410865784 2.6736211777 359.27725220
 660.19680000 64.474433899 2.6778521538 359.34091187
 660.34920000 64.538002014 2.6713285446 359.40457153
 660.50160000 64.601570129 2.6675570011 359.46823120
 660.65400000 64.665138245 2.6488130093 359.53189087
 660.80640000 64.728706360 2.6398148537 359.59555054
 660.95880000 64.792274475 2.6298496723 359.65921021
 661.11120000 64.855842590 2.6287026405 359.72286987
 661.26360000 64.919410706 2.6294989586 359.78652954
 661.41600000 64.982978821 2.6360187531 359.85018921
 661.56840000 65.046546936 2.6323707104 359.91384888
 661.72080000 65.110115051 2.6190397739 359.97750854
 661.87320000 65.152565002 2.6024527550 360.04116821
 662.02560000 65.195014954 2.5936207771 360.10482788
 662.17800000 65.237464905 2.5852537155 360.16848755
 662.33040000 65.279914856 2.5839896202 360.23214722
 662.48280000 65.322364807 2.5757827759 360.29580688
 662.63520000 65.364814758 2.5777227879 360.35946655
 662.78760000 65.407264709 2.5704009533 360.42312622
 662.94000000 65.449707031 2.5623736382 360.48675537
 663.09240000 65.492156982 2.5477185249 360.55041504
 663.24480000 65.534606934 2.5446434021 360.61407471
 663.39720000 65.577056885 2.5504789352 360.67773438
 663.54960000 65.619506836 2.5438542366 360.74139404
 663.70200000 65.661956787 2.5305774212 360.80505371
 663.85440000 65.704406738 2.5277566910 360.86871338
 664.00680000 65.746856689 2.5249361992 360.93237305
 664.15920000 65.725158691 2.5498361588 360.99603271
 664.31160000 65.703460693 2.5861926079 361.05969238
 664.46400000 65.681762695 2.6092646122 361.12335205
 664.61640000 65.660064697 2.6217012405 361.18701172
 664.76880000 65.638366699 2.6185116768 361.25067139
 664.92120000 65.616668701 2.6122543812 361.31433105
 665.07360000 65.594970703 2.6144840717 361.37799072
 665.22600000 65.486991882 2.6201975346 361.44165039
 665.37840000 65.379020691 2.6150529385 361.50531006
 665.53080000 65.271041870 2.6099081039 361.56896973
 665.68320000 65.163070679 2.6047635078 361.63262939
 665.83560000 64.973793030 2.5079350471 361.69628906
 665.98800000 64.784515381 2.5073502064 361.75994873
 666.14040000 64.595237732 2.5067653656 361.82360840
 666.29280000 65.177848816 2.5061805248 361.88726807
 666.44520000 64.416450500 2.5055954456 361.95092773
 666.59760000 64.551055908 2.5050106049 362.01458740
 666.75000000 64.685661316 2.5044257641 362.07824707
 666.90240000 64.820274353 2.5038409233 362.14190674
 667.05480000 64.954879761 2.5101904869 362.20553589
 667.20720000 63.748443604 2.5104722977 362.26919556
 667.35960000 63.715423584 2.5190217495 362.33285522
 667.51200000 63.682399750 2.5246343613 362.39651489
 667.66440000 63.874031067 2.5294542313 362.46017456
 667.81680000 64.065658569 2.5419166088 362.52383423
 667.96920000 64.257286072 2.5560224056 362.58749390
 668.12160000 64.448921204 2.5617499352 362.65115356
 668.27400000 64.640548706 2.5623581409 362.71481323
