# LAS format log file from PETREL
# Project units are specified as depth units
#==================================================================
~Version information
VERS.   2.0:
WRAP.   NO:
#==================================================================
~Well
STRT .m      1.0668000000 :
STOP .m      1939.1376000 :
STEP .m     0.15240000 :
NULL .        -999.250000 :
COMP.           : COMPANY
WELL.  P-129   : WELL
FLD.            : FIELD
LOC.            : LOCATION
SRVC.           : SERVICE COMPANY
DATE.  2014-09-16 16:48:09   : Log Export Date {yyyy-MM-dd HH:mm:ss}
PROV.           : PROVINCE
UWI.      : UNIQUE WELL ID
API.            : API NUMBER
#==================================================================
~Curve
DEPT .m                   : DEPTH
Sonic_despiked .us/ft     : Sonic_despiked
RHOB_despiked .g/cm3      : RHOB_despiked
two-waytime .ms           : two-way time
~Parameter
#==================================================================
~Ascii
# ...
 139.14120000  -999.250000 2.2285549641 84.266960144
 139.29360000  -999.250000 2.2287490368 84.404121399
 139.44600000  -999.250000 2.2289431095 84.541282654
 139.59840000  -999.250000 2.2291371822 84.678436279
 139.75080000  -999.250000 2.2293312550 84.815597534
 139.90320000  -999.250000 2.2295253277 84.952758789
 140.05560000  -999.250000 2.2297194004 85.089920044
 140.20800000  -999.250000 2.2299134731 85.227081299
 140.36040000  -999.250000 2.2365667820 85.364242554
 140.51280000  -999.250000 2.2464802265 85.501403809
 140.66520000  -999.250000 2.2513148785 85.638557434
 140.81760000  -999.250000 2.2599720955 85.775718689
 140.97000000  -999.250000 2.2831087112 85.912879944
 141.12240000  -999.250000 2.3038284779 86.050041199
 141.27480000  -999.250000 2.3176081181 86.187202454
 141.42720000  -999.250000 2.3192341328 86.324363708
 141.57960000  -999.250000 2.3242831230 86.461517334
 141.73200000  -999.250000 2.3337888718 86.598678589
 141.88440000  -999.250000 2.3429853916 86.735839844
 142.03680000  -999.250000 2.3438208103 86.873001099
 142.18920000  -999.250000 2.3417208195 87.010162354
 142.34160000  -999.250000 2.3527123928 87.147323608
 142.49400000  -999.250000 2.3682005405 87.284477234
 142.64640000  -999.250000 2.3815310001 87.421638489
 142.79880000  -999.250000 2.3791742325 87.558799744
 142.95120000  -999.250000 2.3788497448 87.695960999
 143.10360000  -999.250000 2.3767423630 87.833122253
 143.25600000  -999.250000 2.3873038292 87.970283508
 143.40840000  -999.250000 2.3931813240 88.107437134
 143.56080000  -999.250000 2.4066309929 88.244598389
 143.71320000  -999.250000 2.4046056271 88.381759644
 143.86560000  -999.250000 2.4014470577 88.518920898
 144.01800000  -999.250000 2.3922090530 88.656082153
 144.17040000  -999.250000 2.3872780800 88.793243408
 144.32280000  -999.250000 2.3795824051 88.930397034
 144.47520000  -999.250000 2.3779084682 89.067558289
 144.62760000  -999.250000 2.3832480907 89.204719543
 144.78000000  -999.250000 2.3983063698 89.341880798
 144.93240000  -999.250000 2.4111618996 89.479042053
 145.08480000  -999.250000 2.4145696163 89.616203308
 145.23720000  -999.250000 2.4152979851 89.753356934
 145.38960000  -999.250000 2.4160263538 89.890518188
 145.54200000  -999.250000 2.4167547226 90.027679443
 145.69440000  -999.250000 2.4174833298 90.164840698
 145.84680000  -999.250000 2.4182116985 90.302001953
 145.99920000  -999.250000 2.4189400673 90.439163208
 146.15160000  -999.250000 2.4113762379 90.576316833
 146.30400000  -999.250000 2.4004728794 90.713478088
 146.45640000  -999.250000 2.3906230927 90.850639343
 146.60880000  -999.250000 2.3910839558 90.987800598
 146.76120000  -999.250000 2.3948497772 91.124961853
 146.91360000  -999.250000 2.4031834602 91.262123108
 147.06600000  -999.250000 2.4001858234 91.399276733
 147.21840000  -999.250000 2.4065830708 91.536437988
 147.37080000  -999.250000 2.4077126980 91.673599243
 147.52320000  -999.250000 2.4079926014 91.810760498
 147.67560000  -999.250000 2.3981633186 91.947921753
 147.82800000  -999.250000 2.3917841911 92.085083008
 147.98040000  -999.250000 2.3845295906 92.222236633
 148.13280000  -999.250000 2.3849916458 92.359397888
 148.28520000  -999.250000 2.3941087723 92.496559143
 148.43760000  -999.250000 2.3922753334 92.633720398
 148.59000000  -999.250000 2.3933315277 92.770881653
 148.74240000  -999.250000 2.3948307037 92.908042908
 148.89480000  -999.250000 2.4036717415 93.045196533
 149.04720000  -999.250000 2.4034872055 93.182357788
 149.19960000  -999.250000 2.4027621746 93.319519043
 149.35200000  -999.250000 2.4022543430 93.456680298
 149.50440000  -999.250000 2.4111487865 93.593841553
 149.65680000  -999.250000 2.4147536755 93.731002808
 149.80920000  -999.250000 2.4225811958 93.868156433
 149.96160000  -999.250000 2.4258463383 94.005317688
 150.11400000  -999.250000 2.4262294769 94.142478943
 150.26640000  -999.250000 2.4203238487 94.279640198
 150.41880000  -999.250000 2.4047887325 94.416801453
 150.57120000  -999.250000 2.3979642391 94.553962708
 150.72360000  -999.250000 2.3935670853 94.691116333
 150.87600000  -999.250000 2.4049446583 94.828277588
 151.02840000  -999.250000 2.4113259315 94.965438843
 151.18080000  -999.250000 2.4105191231 95.102600098
 151.33320000  -999.250000 2.4097125530 95.239761353
 151.48560000  -999.250000 2.4043226242 95.376922607
 151.63800000  -999.250000 2.4025058746 95.514076233
 151.79040000  -999.250000 2.4029457569 95.651237488
 151.94280000  -999.250000 2.4009301662 95.788398743
 152.09520000  -999.250000 2.3997960091 95.925559998
 152.24760000  -999.250000 2.3948342800 96.062721252
 152.40000000  -999.250000 2.3889694214 96.199882507
 152.55240000  -999.250000 2.3838644028 96.337043762
 152.70480000  -999.250000 2.3806626797 96.474197388
 152.85720000  -999.250000 2.3817527294 96.611358643
 153.00960000  -999.250000 2.3738577366 96.748519897
 153.16200000  -999.250000 2.3590166569 96.885681152
 153.31440000  -999.250000 2.3446223736 97.022842407
 153.46680000  -999.250000 2.3474118710 97.160003662
 153.61920000  -999.250000 2.3592083454 97.297157288
 153.77160000  -999.250000 2.3742189407 97.434318542
 153.92400000  -999.250000 2.3734879494 97.571479797
 154.07640000  -999.250000 2.3666684628 97.708641052
 154.22880000  -999.250000 2.3559725285 97.845802307
 154.38120000  -999.250000 2.3535211086 97.982963562
 154.53360000  -999.250000 2.3582320213 98.120117188
 154.68600000  -999.250000 2.3529646397 98.257278442
 154.83840000  -999.250000 2.3556487560 98.394439697
 154.99080000  -999.250000 2.3418185711 98.531600952
 155.14320000  -999.250000 2.3387167454 98.668762207
 155.29560000  -999.250000 2.3326859474 98.805923462
 155.44800000  -999.250000 2.3318021297 98.943077087
 155.60040000  -999.250000 2.3295145035 99.080238342
 155.75280000  -999.250000 2.3260276318 99.217399597
 155.90520000  -999.250000 2.3382081985 99.354560852
 156.05760000  -999.250000 2.3367886543 99.491722107
 156.21000000  -999.250000 2.3157448769 99.628883362
 156.36240000  -999.250000 2.3153336048 99.766036987
 156.51480000  -999.250000 2.3149223328 99.903198242
 156.66720000  -999.250000 2.3145110607 100.04035950
 156.81960000  -999.250000 2.3140995502 100.17752075
 156.97200000  -999.250000 2.3136882782 100.31468201
 157.12440000  -999.250000 2.3132770061 100.45184326
 157.27680000  -999.250000 2.3128657341 100.58899689
 157.42920000  -999.250000 2.3124544621 100.72615814
 157.58160000  -999.250000 2.3120431900 100.86331940
 157.73400000  -999.250000 2.3116316795 101.00048065
 157.88640000  -999.250000 2.3112204075 101.13764191
 158.03880000  -999.250000 2.3108091354 101.27480316
 158.19120000  -999.250000 2.3103978634 101.41195679
 158.34360000  -999.250000 2.3224616051 101.54911804
 158.49600000  -999.250000 2.3633310795 101.68627930
 158.64840000  -999.250000 2.4412055016 101.82344055
 158.80080000  -999.250000 2.4370403290 101.96060181
 158.95320000  -999.250000 2.4328751564 102.09776306
 159.10560000  -999.250000 2.4287099838 102.23491669
 159.25800000  -999.250000 2.4245448112 102.37207794
 159.41040000  -999.250000 2.4203796387 102.50923920
 159.56280000  -999.250000 2.4027054310 102.64640045
 159.71520000  -999.250000 2.3908321857 102.78356171
 159.86760000  -999.250000 2.3884806633 102.92072296
 160.02000000  -999.250000 2.3815813065 103.05787659
 160.17240000  -999.250000 2.3699107170 103.19503784
 160.32480000  -999.250000 2.3567044735 103.33219910
 160.47720000  -999.250000 2.3575289249 103.46936035
 160.62960000  -999.250000 2.3764059544 103.60652161
 160.78200000  -999.250000 2.4025573730 103.74368286
 160.93440000  -999.250000 2.4140226841 103.88083649
 161.08680000  -999.250000 2.3864674568 104.01799774
 161.23920000  -999.250000 2.3767232895 104.15515900
 161.39160000  -999.250000 2.3707838058 104.29232025
 161.54400000  -999.250000 2.4028043747 104.42948151
 161.69640000  -999.250000 2.3990688324 104.56664276
 161.84880000  -999.250000 2.3896307945 104.70379639
 162.00120000  -999.250000 2.3702740669 104.84095764
