# LAS format log file from PETREL
# Project units are specified as depth units
#==================================================================
~Version information
VERS.   2.0:
WRAP.   NO:
#==================================================================
~Well
STRT .m      1.0668000000 :
STOP .m      1939.1376000 :
STEP .m     0.15240000 :
NULL .        -999.250000 :
COMP.           : COMPANY
WELL.  P-129   : WELL
FLD.            : FIELD
LOC.            : LOCATION
SRVC.           : SERVICE COMPANY
DATE.  2014-09-16 16:48:09   : Log Export Date {yyyy-MM-dd HH:mm:ss}
PROV.           : PROVINCE
UWI.      : UNIQUE WELL ID
API.            : API NUMBER
#==================================================================
~Curve
DEPT .m                   : DEPTH
Sonic_despiked .us/ft     : Sonic_despiked
RHOB_despiked .g/cm3      : RHOB_despiked
two-waytime .ms           : two-way time
~Parameter
#==================================================================
~Ascii
 1.0668000000  -999.250000 2.3901498318 -50.00000000
 1.2192000000  -999.250000 2.3901498318 -49.84759903
 1.3716000000  -999.250000 2.3901498318 -49.69520187
 1.5240000000  -999.250000 2.3901498318 -49.54280090
 1.6764000000  -999.250000 2.3901498318 -49.39039993
 1.8288000000  -999.250000 2.3901498318 -49.23799896
 1.9812000000  -999.250000 2.3901498318 -49.08560181
 2.1336000000  -999.250000 2.3901498318 -48.93320084
 2.2860000000  -999.250000 2.3901498318 -48.78079987
 2.4384000000  -999.250000 2.3901498318 -48.62839890
 2.5908000000  -999.250000 2.3901498318 -48.47600174
 2.7432000000  -999.250000 2.3901498318 -48.32360077
 2.8956000000  -999.250000 2.3901498318 -48.17119980
 3.0480000000  -999.250000 2.3901498318 -48.01879883
 3.2004000000  -999.250000 2.3901498318 -47.86640167
 3.3528000000  -999.250000 2.3901498318 -47.71400070
 3.5052000000  -999.250000 2.3901498318 -47.56159973
 3.6576000000  -999.250000 2.3901498318 -47.40919876
 3.8100000000  -999.250000 2.3901498318 -47.25680161
 3.9624000000  -999.250000 2.3901498318 -47.10440063
 4.1148000000  -999.250000 2.3901498318 -46.95199966
 4.2672000000  -999.250000 2.3901498318 -46.79959869
 4.4196000000  -999.250000 2.3901498318 -46.64720154
 4.5720000000  -999.250000 2.3901498318 -46.49480057
 4.7244000000  -999.250000 2.3901498318 -46.34239960
 4.8768000000  -999.250000 2.3901498318 -46.18999863
 5.0292000000  -999.250000 2.3901498318 -46.03760147
 5.1816000000  -999.250000 2.3901498318 -45.88520050
 5.3340000000  -999.250000 2.3901498318 -45.73279953
 5.4864000000  -999.250000 2.3901498318 -45.58039856
 5.6388000000  -999.250000 2.3901498318 -45.42800140
 5.7912000000  -999.250000 2.3901498318 -45.27560043
 5.9436000000  -999.250000 2.3901498318 -45.12319946
 6.0960000000  -999.250000 2.3901498318 -44.97079849
 6.2484000000  -999.250000 2.3901498318 -44.81840134
 6.4008000000  -999.250000 2.3901498318 -44.66600037
 6.5532000000  -999.250000 2.3901498318 -44.51359940
 6.7056000000  -999.250000 2.3901498318 -44.36119843
 6.8580000000  -999.250000 2.3901498318 -44.20880127
 7.0104000000  -999.250000 2.3901498318 -44.05640030
 7.1628000000  -999.250000 2.3901498318 -43.90399933
 7.3152000000  -999.250000 2.3901498318 -43.75159836
 7.4676000000  -999.250000 2.3901498318 -43.59920120
 7.6200000000  -999.250000 2.3901498318 -43.44680023
 7.7724000000  -999.250000 2.3901498318 -43.29439926
 7.9248000000  -999.250000 2.3901498318 -43.14199829
 8.0772000000  -999.250000 2.3901498318 -42.98960114
 8.2296000000  -999.250000 2.3901498318 -42.83720016
 8.3820000000  -999.250000 2.3901498318 -42.68479919
 8.5344000000  -999.250000 2.3901498318 -42.53239822
 8.6868000000  -999.250000 2.3901498318 -42.38000107
 8.8392000000  -999.250000 2.3901498318 -42.22760010
 8.9916000000  -999.250000 2.3901498318 -42.07519913
 9.1440000000  -999.250000 2.3901498318 -41.92279816
 9.2964000000  -999.250000 2.3901498318 -41.77040100
 9.4488000000  -999.250000 2.3901498318 -41.61800003
 9.6012000000  -999.250000 2.3901498318 -41.46559906
 9.7536000000  -999.250000 2.3901498318 -41.31320190
 9.9060000000  -999.250000 2.3901498318 -41.16080093
 10.058400000  -999.250000 2.3901498318 -41.00839996
 10.210800000  -999.250000 2.3901498318 -40.85599899
 10.363200000  -999.250000 2.3901498318 -40.70360184
 10.515600000  -999.250000 2.3901498318 -40.55120087
 10.668000000  -999.250000 2.3901498318 -40.39879990
 10.820400000  -999.250000 2.3901498318 -40.24639893
 10.972800000  -999.250000 2.3901498318 -40.09400177
 11.125200000  -999.250000 2.3901498318 -39.94160080
 11.277600000  -999.250000 2.3901498318 -39.78919983
 11.430000000  -999.250000 2.3901498318 -39.63679886
 11.582400000  -999.250000 2.3901498318 -39.48440170
 11.734800000  -999.250000 2.3901498318 -39.33200073
 11.887200000  -999.250000 2.3901498318 -39.17959976
 12.039600000  -999.250000 2.3901498318 -39.02719879
 12.192000000  -999.250000 2.3901498318 -38.87480164
 12.344400000  -999.250000 2.3901498318 -38.72240067
 12.496800000  -999.250000 2.3901498318 -38.56999969
 12.649200000  -999.250000 2.3901498318 -38.41759872
 12.801600000  -999.250000 2.3901498318 -38.26520157
 12.954000000  -999.250000 2.3901498318 -38.11280060
 13.106400000  -999.250000 2.3901498318 -37.96039963
 13.258800000  -999.250000 2.3901498318 -37.80799866
 13.411200000  -999.250000 2.3901498318 -37.65560150
 13.563600000  -999.250000 2.3901498318 -37.50320053
 13.716000000  -999.250000 2.3901498318 -37.35079956
 13.868400000  -999.250000 2.3901498318 -37.19839859
 14.020800000  -999.250000 2.3901498318 -37.04600143
 14.173200000  -999.250000 2.3901498318 -36.89360046
 14.325600000  -999.250000 2.3901498318 -36.74119949
 14.478000000  -999.250000 2.3901498318 -36.58879852
 14.630400000  -999.250000 2.3901498318 -36.43640137
 14.782800000  -999.250000 2.3901498318 -36.28400040
 14.935200000  -999.250000 2.3901498318 -36.13159943
 15.087600000  -999.250000 2.3901498318 -35.97919846
 15.240000000  -999.250000 2.3901498318 -35.82680130
 15.392400000  -999.250000 2.3901498318 -35.67440033
 15.544800000  -999.250000 2.3901498318 -35.52199936
 15.697200000  -999.250000 2.3901498318 -35.36959839
 15.849600000  -999.250000 2.3901498318 -35.21720123
 16.002000000  -999.250000 2.3901498318 -35.06480026
 16.154400000  -999.250000 2.3901498318 -34.91239929
 16.306800000  -999.250000 2.3901498318 -34.75999832
 16.459200000  -999.250000 2.3901498318 -34.60760117
 16.611600000  -999.250000 2.3901498318 -34.45520020
 16.764000000  -999.250000 2.3901498318 -34.30279922
 16.916400000  -999.250000 2.3901498318 -34.15039825
 17.068800000  -999.250000 2.3901498318 -33.99800110
 17.221200000  -999.250000 2.3901498318 -33.84560013
 17.373600000  -999.250000 2.3901498318 -33.69319916
 17.526000000  -999.250000 2.3901498318 -33.54079819
 17.678400000  -999.250000 2.3901498318 -33.38840103
 17.830800000  -999.250000 2.3901498318 -33.23600006
 17.983200000  -999.250000 2.3901498318 -33.08359909
 18.135600000  -999.250000 2.3901498318 -32.93119812
 18.288000000  -999.250000 2.3901498318 -32.77880096
 18.440400000  -999.250000 2.3901498318 -32.62639999
 18.592800000  -999.250000 2.3901498318 -32.47399902
 18.745200000  -999.250000 2.3901498318 -32.32160187
 18.897600000  -999.250000 2.3901498318 -32.16920090
 19.050000000  -999.250000 2.3901498318 -32.01679993
 19.202400000  -999.250000 2.3901498318 -31.86440086
 19.354800000  -999.250000 2.3901498318 -31.71199989
 19.507200000  -999.250000 2.3901498318 -31.55960083
 19.659600000  -999.250000 2.3901498318 -31.40719986
 19.812000000  -999.250000 2.3901498318 -31.25480080
 19.964400000  -999.250000 2.3901498318 -31.10239983
 20.116800000  -999.250000 2.3901498318 -30.95000076
 20.269200000  -999.250000 2.3901498318 -30.79759979
 20.421600000  -999.250000 2.3901498318 -30.64520073
 20.574000000  -999.250000 2.3901498318 -30.49279976
 20.726400000  -999.250000 2.3901498318 -30.34040070
 20.878800000  -999.250000 2.3901498318 -30.18799973
 21.031200000  -999.250000 2.3901498318 -30.03560066
 21.183600000  -999.250000 2.3901498318 -29.88319969
 21.336000000  -999.250000 2.3901498318 -29.73080063
 21.488400000  -999.250000 2.3901498318 -29.57839966
 21.640800000  -999.250000 2.3901498318 -29.42600060
 21.793200000  -999.250000 2.3901498318 -29.27359962
 21.945600000  -999.250000 2.3901498318 -29.12120056
 22.098000000  -999.250000 2.3901498318 -28.96879959
 22.250400000  -999.250000 2.3901498318 -28.81640053
 22.402800000  -999.250000 2.3901498318 -28.66399956
 22.555200000  -999.250000 2.3901498318 -28.51160049
 22.707600000  -999.250000 2.3901498318 -28.35919952
 22.860000000  -999.250000 2.3901498318 -28.20680046
 23.012400000  -999.250000 2.3901498318 -28.05439949
 23.164800000  -999.250000 2.3901498318 -27.90200043
 23.317200000  -999.250000 2.3901498318 -27.74959946
 23.469600000  -999.250000 2.3901498318 -27.59720039
 23.622000000  -999.250000 2.3901498318 -27.44479942
 23.774400000  -999.250000 2.3901498318 -27.29240036
 23.926800000  -999.250000 2.3901498318 -27.13999939
