# LAS format log file from PETREL
# Project units are specified as depth units
#==================================================================
~Version information
VERS.   2.0:
WRAP.   NO:
#==================================================================
~Well
STRT .m      1.0668000000 :
STOP .m      1939.1376000 :
STEP .m     0.15240000 :
NULL .        -999.250000 :
COMP.           : COMPANY
WELL.  P-129   : WELL
FLD.            : FIELD
LOC.            : LOCATION
SRVC.           : SERVICE COMPANY
DATE.  2014-09-16 16:48:09   : Log Export Date {yyyy-MM-dd HH:mm:ss}
PROV.           : PROVINCE
UWI.      : UNIQUE WELL ID
API.            : API NUMBER
#==================================================================
~Curve
DEPT .m                   : DEPTH
Sonic_despiked .us/ft     : Sonic_despiked
RHOB_despiked .g/cm3      : RHOB_despiked
two-waytime .ms           : two-way time
~Parameter
#==================================================================
~Ascii
# ...
 1519.8852000 59.244407654 2.5767333508 716.52734375
 1520.0376000 59.252220154 2.5641582012 716.58831787
 1520.1900000 59.260032654 2.5515830517 716.64929199
 1520.3424000 59.267848969 2.5390081406 716.71026611
 1520.4948000 59.275661469 2.4485723972 716.77117920
 1520.6472000 59.283477783 2.4449901581 716.83215332
 1520.7996000 59.291290283 2.4414079189 716.89312744
 1520.9520000 59.299102783 2.4378256798 716.95410156
 1521.1044000 59.306919098 2.4342434406 717.01501465
 1521.2568000 59.314731598 2.4306612015 717.07598877
 1521.4092000 59.322544098 2.4270789623 717.13696289
 1521.5616000 59.330360413 2.4234969616 717.19793701
 1521.7140000 59.338172913 2.4199147224 717.25885010
 1521.8664000 59.345989227 2.4163324833 717.31982422
 1522.0188000 59.353801727 2.4127502441 717.38079834
 1522.1712000 59.477359772 2.4091680050 717.44177246
 1522.3236000 59.600917816 2.4055857658 717.50274658
 1522.4760000 59.724472046 2.4020035267 717.56365967
 1522.6284000 59.729747772 2.4027390480 717.62463379
 1522.7808000 59.735023499 2.4034745693 717.68560791
 1522.9332000 59.740303040 2.4042100906 717.74658203
 1523.0856000 59.745578766 2.4049458504 717.80749512
 1523.2380000 59.750854492 2.4056813717 717.86846924
 1523.3904000 59.756134033 2.4105632305 717.92944336
 1523.5428000 59.761409760 2.4181284904 717.99041748
 1523.6952000 59.766685486 2.4270365238 718.05133057
 1523.8476000 59.771961212 2.4719474316 718.11230469
 1524.0000000 59.777236938 2.4878463745 718.17327881
 1524.1524000 59.782516479 2.4761629105 718.23425293
 1524.3048000 59.787792206 2.4644794464 718.29522705
 1524.4572000 59.578510284 2.4527957439 718.35614014
 1524.6096000 59.567283630 2.4411122799 718.41711426
 1524.7620000 59.556053162 2.4294288158 718.47808838
 1524.9144000 59.544826508 2.4177453518 718.53906250
 1525.0668000 59.533599854 2.4823315144 718.59997559
 1525.2192000 59.522373199 2.4999411106 718.66094971
 1525.3716000 59.511142731 2.5175509453 718.72192383
 1525.5240000 59.499916077 2.5351605415 718.78289795
 1525.6764000 59.282649994 2.5527703762 718.84381104
 1525.8288000 59.261608124 2.4950544834 718.90478516
 1525.9812000 59.240570068 2.5164775848 718.96575928
 1526.1336000 59.508453369 2.5379006863 719.02673340
 1526.2860000 59.499450684 2.5593237877 719.08770752
 1526.4384000 59.490451813 2.5807468891 719.14862061
 1526.5908000 59.481452942 2.6021699905 719.20959473
 1526.7432000 59.472450256 2.4571585655 719.27056885
 1526.8956000 59.463447571 2.4449434280 719.33154297
 1527.0480000 59.454448700 2.4327285290 719.39245605
 1527.2004000 59.445449829 2.4537892342 719.45343018
 1527.3528000 59.436447144 2.4748501778 719.51440430
 1527.5052000 59.427444458 2.4329547882 719.57537842
 1527.6576000 59.418445587 2.4327416420 719.63629150
 1527.8100000 59.409446716 2.4325282574 719.69726563
 1527.9624000 59.400444031 2.4323151112 719.75823975
 1528.1148000 59.391441345 2.4405233860 719.81921387
 1528.2672000 59.382442474 2.4487316608 719.88018799
 1528.4196000 59.663810730 2.4569399357 719.94110107
 1528.5720000 59.335582733 2.4651482105 720.00207520
 1528.7244000 59.338230133 2.4733564854 720.06304932
 1528.8768000 59.340873718 2.4815647602 720.12402344
 1529.0292000 59.343521118 2.5252382755 720.18493652
 1529.1816000 59.346164703 2.5379657745 720.24591064
 1529.3340000 59.297504425 2.5326881409 720.30688477
 1529.4864000 59.248840332 2.5306534767 720.36785889
 1529.6388000 59.200180054 2.5534839630 720.42877197
 1529.7912000 59.151515961 2.5692172050 720.48974609
 1529.9436000 59.102855682 2.5765793324 720.55072021
 1530.0960000 59.054191589 2.5495104790 720.61169434
 1530.2484000 59.005531311 2.5137224197 720.67266846
 1530.4008000 58.956867218 2.5026190281 720.73358154
 1530.5532000 58.908206940 2.5274636745 720.79455566
 1530.7056000 58.956310272 2.5567195415 720.85552979
 1530.8580000 59.004417419 2.5863595009 720.91650391
 1531.0104000 59.052520752 2.6552822590 720.97741699
 1531.1628000 59.100627899 2.6481604576 721.03839111
 1531.3152000 59.148731232 2.6410386562 721.09936523
 1531.4676000 59.196838379 2.6339168549 721.16033936
 1531.6200000 59.244941711 2.6267952919 721.22125244
 1531.7724000 59.293048859 2.6196734905 721.28222656
 1531.9248000 59.289924622 2.6125516891 721.34320068
 1532.0772000 59.286800385 2.6054298878 721.40417480
 1532.2296000 59.283672333 2.5514538288 721.46514893
 1532.3820000 59.280548096 2.5489196777 721.52606201
 1532.5344000 59.277423859 2.5842874050 721.58703613
 1532.6868000 59.274299622 2.5751876831 721.64801025
 1532.8392000 59.271175385 2.5382449627 721.70898438
 1532.9916000 59.268051147 2.5360226631 721.76989746
 1533.1440000 59.264926910 2.5950565338 721.83087158
 1533.2964000 59.267642975 2.6422553062 721.89184570
 1533.4488000 59.270362854 2.6646375656 721.95281982
 1533.6012000 59.273078918 2.6683011055 722.01373291
 1533.7536000 59.275794983 2.6664748192 722.07470703
 1533.9060000 59.278511047 2.6646487713 722.13568115
 1534.0584000 59.281227112 2.6628224850 722.19665527
 1534.2108000 59.283946991 2.6517264843 722.25762939
 1534.3632000 59.286663055 2.6472744942 722.31854248
 1534.5156000 59.289379120 2.6518545151 722.37951660
 1534.6680000 59.292098999 2.6701664925 722.44049072
 1534.8204000 59.294815063 2.6682350636 722.50146484
 1534.9728000 59.297531128 2.6663033962 722.56237793
 1535.1252000 59.300247192 2.6643719673 722.62335205
 1535.2776000 59.302963257 2.6002373695 722.68432617
 1535.4300000 59.305683136 2.6010758877 722.74530029
 1535.5824000 59.308399200 2.6019144058 722.80621338
 1535.7348000 59.291187286 2.6027529240 722.86718750
 1535.8872000 59.289630890 2.6270990372 722.92816162
 1536.0396000 59.288074493 2.6350731850 722.98913574
 1536.1920000 59.286518097 2.6416006088 723.05010986
 1536.3444000 59.284957886 2.6366550922 723.11102295
 1536.4968000 59.283401489 2.6094434261 723.17199707
 1536.6492000 59.281845093 2.5944988728 723.23297119
 1536.8016000 59.280288696 2.6017394066 723.29394531
 1536.9540000 59.278732300 2.6125800610 723.35485840
 1537.1064000 59.309436798 2.6107990742 723.41583252
 1537.2588000 59.311466217 2.5925762653 723.47680664
 1537.4112000 59.259117126 2.5931541920 723.53778076
 1537.5636000 59.256202698 2.6012258530 723.59869385
 1537.7160000 59.253288269 2.6092972755 723.65966797
 1537.8684000 59.250370026 2.6173689365 723.72064209
 1538.0208000 59.247455597 2.6254403591 723.78161621
 1538.1732000 59.244541168 2.6335120201 723.84259033
 1538.3256000 59.241626740 2.6415834427 723.90350342
 1538.4780000 59.238708496 2.6496551037 723.96447754
 1538.6304000 59.235794067 2.6902258396 724.02545166
 1538.7828000 59.112281799 2.6876411438 724.08642578
 1538.9352000 59.389152527 2.6513628960 724.14733887
 1539.0876000 59.178726196 2.6320769787 724.20831299
 1539.2400000 59.196048737 2.6323614120 724.26928711
 1539.3924000 59.207324982 2.6588077545 724.33026123
 1539.5448000 59.218597412 2.6625275612 724.39117432
 1539.6972000 59.229873657 2.6662473679 724.45214844
 1539.8496000 59.103729248 2.6699671745 724.51312256
 1540.0020000 59.110397339 2.6736869812 724.57409668
 1540.1544000 59.117065430 2.6774067879 724.63500977
 1540.3068000 59.123733521 2.6811268330 724.69598389
 1540.4592000 59.130401611 2.6848466396 724.75695801
 1540.6116000 59.137069702 2.6885664463 724.81793213
 1540.7640000 59.143737793 2.6922862530 724.87890625
 1540.9164000 59.150405884 2.6960060596 724.93981934
 1541.0688000 59.197135925 2.6997258663 725.00079346
 1541.2212000 59.243865967 2.6746768951 725.06176758
 1541.3736000 59.123126984 2.6516149044 725.12274170
 1541.5260000 59.114032745 2.6520431042 725.18365479
 1541.6784000 59.104942322 2.6749446392 725.24462891
 1541.8308000 59.095848083 2.6930503845 725.30560303
 1541.9832000 59.122535706 2.6921966076 725.36657715
 1542.1356000 59.156894684 2.6598477364 725.42749023
 1542.2880000 59.191249847 2.6200864315 725.48846436
 1542.4404000 59.225608826 2.6234726906 725.54943848
 1542.5928000 59.259963989 2.6268591881 725.61041260
 1542.7452000 59.294322968 2.6455144882 725.67138672
