# LAS format log file from PETREL
# Project units are specified as depth units
#==================================================================
~Version information
VERS.   2.0:
WRAP.   NO:
#==================================================================
~Well
STRT .m      1.0668000000 :
STOP .m      1939.1376000 :
STEP .m     0.15240000 :
NULL .        -999.250000 :
COMP.           : COMPANY
WELL.  P-129   : WELL
FLD.            : FIELD
LOC.            : LOCATION
SRVC.           : SERVICE COMPANY
DATE.  2014-09-16 16:48:09   : Log Export Date {yyyy-MM-dd HH:mm:ss}
PROV.           : PROVINCE
UWI.      : UNIQUE WELL ID
API.            : API NUMBER
#==================================================================
~Curve
DEPT .m                   : DEPTH
Sonic_despiked .us/ft     : Sonic_despiked
RHOB_despiked .g/cm3      : RHOB_despiked
two-waytime .ms           : two-way time
~Parameter
#==================================================================
~Ascii
# ...
 1657.9596000 59.111022949 2.5196866989 771.75714111
 1658.1120000 59.223648071 2.5286517143 771.81805420
 1658.2644000 59.216472626 2.5376167297 771.87902832
 1658.4168000 59.209293365 2.5465817451 771.94000244
 1658.5692000 59.202117920 2.5555467606 772.00097656
 1658.7216000 59.194938660 2.5645117760 772.06188965
 1658.8740000 59.187763214 2.5734767914 772.12286377
 1659.0264000 59.284313202 2.5824418068 772.18383789
 1659.1788000 59.294425964 2.5914068222 772.24481201
 1659.3312000 59.304538727 2.6366267204 772.30578613
 1659.4836000 59.314647675 2.6324915886 772.36669922
 1659.6360000 59.324760437 2.6467142105 772.42767334
 1659.7884000 59.334869385 2.6771979332 772.48864746
 1659.9408000 59.344982147 2.7058687210 772.54962158
 1660.0932000 59.278690338 2.7134952545 772.61053467
 1660.2456000 59.212394714 2.6909573078 772.67150879
 1660.3980000 59.146102905 2.6668848991 772.73248291
 1660.5504000 59.079811096 2.6547880173 772.79345703
 1660.7028000 59.081054688 2.6360681057 772.85437012
 1660.8552000 59.082302094 2.6019229889 772.91534424
 1661.0076000 59.083545685 2.5498456955 772.97631836
 1661.1600000 59.084789276 2.5452666283 773.03729248
 1661.3124000 59.086032867 2.5406873226 773.09826660
 1661.4648000 59.087280273 2.5361082554 773.15917969
 1661.6172000 59.088523865 2.6430602074 773.22015381
 1661.7696000 59.123348236 2.6468973160 773.28112793
 1661.9220000 59.158172607 2.6507341862 773.34210205
 1662.0744000 59.192996979 2.6545710564 773.40301514
 1662.2268000 59.227821350 2.6584081650 773.46398926
 1662.3792000 59.262649536 2.6622452736 773.52496338
 1662.5316000 59.297473907 2.6660821438 773.58593750
 1662.6840000 59.332298279 2.6519210339 773.64685059
 1662.8364000 59.367122650 2.6660985947 773.70782471
 1662.9888000 59.379619598 2.6739039421 773.76879883
 1663.1412000 59.392112732 2.6686725616 773.82977295
 1663.2936000 59.404609680 2.6637339592 773.89074707
 1663.4460000 59.417102814 2.6587953568 773.95166016
 1663.5984000 59.429599762 2.6538569927 774.01263428
 1663.7508000 59.442096710 2.6489183903 774.07360840
 1663.9032000 59.454589844 2.6439797878 774.13458252
 1664.0556000 59.467086792 2.6088078022 774.19549561
 1664.2080000 59.479579926 2.5685627460 774.25646973
 1664.3604000 59.492076874 2.5522971153 774.31744385
 1664.5128000 59.504570007 2.4981915951 774.37841797
 1664.6652000 59.517066956 2.4982769489 774.43933105
 1664.8176000 59.637813568 2.5562293530 774.50030518
 1664.9700000 59.758556366 2.6150798798 774.56127930
 1665.1224000 59.879302979 2.6151084900 774.62225342
 1665.2748000 60.000049591 2.5576658249 774.68322754
 1665.4272000 59.987537384 2.5355427265 774.74414063
 1665.5796000 59.975025177 2.4896667004 774.80511475
 1665.7320000 59.962516785 2.4877586365 774.86608887
 1665.8844000 59.950004578 2.4998137951 774.92706299
 1666.0368000 59.937492371 2.5559008121 774.98797607
 1666.1892000 59.924980164 2.5450775623 775.04895020
 1666.3416000 59.912467957 2.5188419819 775.10992432
 1666.4940000 59.899955750 2.4732336998 775.17089844
 1666.6464000 59.887447357 2.4594979286 775.23181152
 1666.7988000 59.874935150 2.4457621574 775.29278564
 1666.9512000 59.862422943 2.4320263863 775.35375977
 1667.1036000 59.849910736 2.4182906151 775.41473389
 1667.2560000 59.837398529 2.4213526249 775.47570801
 1667.4084000 59.824890137 2.4109764099 775.53662109
 1667.5608000 59.812377930 2.4137523174 775.59759521
 1667.7132000 59.799865723 2.4165282249 775.65856934
 1667.8656000 59.787353516 2.4193041325 775.71954346
 1668.0180000 59.774841309 2.4220800400 775.78045654
 1668.1704000 59.762332916 2.4248559475 775.84143066
 1668.3228000 59.749820709 2.4276318550 775.90240479
 1668.4752000 59.737308502 2.4501044750 775.96337891
 1668.6276000 59.724796295 2.4620437622 776.02429199
 1668.7800000 59.712284088 2.4338927269 776.08526611
 1668.9324000 59.699771881 2.4338161945 776.14624023
 1669.0848000 59.687263489 2.4324884415 776.20721436
 1669.2372000 59.674751282 2.4357969761 776.26818848
 1669.3896000 59.662239075 2.4091727734 776.32910156
 1669.5420000 59.638599396 2.4100897312 776.39007568
 1669.6944000 59.625690460 2.4710981846 776.45104980
 1669.8468000 59.612781525 2.5206527710 776.51202393
 1669.9992000 59.949810028 2.5008182526 776.57293701
 1670.1516000 59.948188782 2.4535527229 776.63391113
 1670.3040000 59.946567535 2.4690330029 776.69488525
 1670.4564000 59.944946289 2.5268342495 776.75585938
 1670.6088000 59.618408203 2.4818360806 776.81677246
 1670.7612000 59.698497772 2.4591612816 776.87774658
 1670.9136000 59.745498657 2.4364862442 776.93872070
 1671.0660000 59.792495728 2.4138114452 776.99969482
 1671.2184000 59.839496613 2.4326651096 777.06066895
 1671.3708000 59.886497498 2.4515190125 777.12158203
 1671.5232000 59.671566010 2.4703726768 777.18255615
 1671.6756000 59.456630707 2.6239886284 777.24353027
 1671.8280000 59.241699219 2.6281495094 777.30450439
 1671.9804000 59.176441193 2.6323103905 777.36541748
 1672.1328000 59.111183167 2.6364712715 777.42639160
 1672.2852000 59.045925140 2.6406319141 777.48736572
 1672.4376000 58.980670929 2.6447927952 777.54833984
 1672.5900000 58.915412903 2.6489536762 777.60925293
 1672.7424000 58.850154877 2.6531145573 777.67022705
 1672.8948000 58.784896851 2.5985295773 777.73120117
 1673.0472000 58.835464478 2.5453031063 777.79217529
 1673.1996000 58.886032104 2.4610073566 777.85314941
 1673.3520000 58.936599731 2.4667942524 777.91406250
 1673.5044000 58.987167358 2.4725813866 777.97503662
 1673.6568000 59.037734985 2.4783682823 778.03601074
 1673.8092000 59.088302612 2.5836210251 778.09698486
 1673.9616000 59.138870239 2.6547279358 778.15789795
 1674.1140000 59.189437866 2.6496810913 778.21887207
 1674.2664000 59.240005493 2.6446344852 778.27984619
 1674.4188000 59.290573120 2.6395876408 778.34082031
 1674.5712000 59.341140747 2.6345410347 778.40173340
 1674.7236000 58.777935028 2.6294941902 778.46270752
 1674.8760000 58.777355194 2.6244475842 778.52368164
 1675.0284000 58.776775360 2.6194007397 778.58465576
 1675.1808000 58.776195526 2.6143541336 778.64562988
 1675.3332000 58.775611877 2.6093072891 778.70654297
 1675.4856000 58.775032043 2.5533771515 778.76751709
 1675.6380000 58.774452209 2.5622098446 778.82849121
 1675.7904000 58.773872375 2.6231870651 778.88946533
 1675.9428000 58.773292542 2.6578438282 778.95037842
 1676.0952000 58.772712708 2.6602308750 779.01135254
 1676.2476000 58.833835602 2.6548712254 779.07232666
 1676.4000000 58.836059570 2.6394205093 779.13330078
 1676.5524000 59.333454132 2.6188647747 779.19421387
 1676.7048000 59.356311798 2.5771303177 779.25518799
 1676.8572000 59.379165649 2.5730714798 779.31616211
 1677.0096000 59.402023315 2.5938544273 779.37713623
 1677.1620000 59.424880981 2.6264579296 779.43811035
 1677.3144000 59.447738647 2.6307523251 779.49902344
 1677.4668000 59.470592499 2.6118640900 779.55999756
 1677.6192000 59.493450165 2.5963761806 779.62097168
 1677.7716000 59.516307831 2.5943839550 779.68194580
 1677.9240000 59.539161682 2.5974705219 779.74285889
 1678.0764000 59.562019348 2.5953440666 779.80383301
 1678.2288000 59.584877014 2.5527760983 779.86480713
 1678.3812000 59.607730865 2.4694368839 779.92578125
 1678.5336000 59.630588531 2.4648478031 779.98669434
 1678.6860000 59.653446198 2.4602584839 780.04766846
 1678.8384000 59.676303864 2.4556691647 780.10864258
 1678.9908000 59.699157715 2.4510800838 780.16961670
 1679.1432000 59.722015381 2.4464907646 780.23052979
 1679.2956000 59.102371216 2.4419016838 780.29150391
 1679.4480000 59.109931946 2.5401189327 780.35247803
 1679.6004000 59.476768494 2.5505402088 780.41345215
 1679.7528000 59.843605042 2.4682502747 780.47442627
 1679.9052000 59.847007751 2.4434461594 780.53533936
 1680.0576000 59.850414276 2.4479484558 780.59631348
 1680.2100000 59.853816986 2.4524509907 780.65728760
 1680.3624000 59.857223511 2.4569532871 780.71826172
 1680.5148000 59.860626221 2.4614555836 780.77917480
 1680.6672000 59.864032745 2.4659578800 780.84014893
 1680.8196000 59.867435455 2.4704604149 780.90112305
