# LAS format log file from PETREL
# Project units are specified as depth units
#==================================================================
~Version information
VERS.   2.0:
WRAP.   NO:
#==================================================================
~Well
STRT .m      1.0668000000 :
STOP .m      1939.1376000 :
STEP .m     0.15240000 :
NULL .        -999.250000 :
COMP.           : COMPANY
WELL.  P-129   : WELL
FLD.            : FIELD
LOC.            : LOCATION
SRVC.           : SERVICE COMPANY
DATE.  2014-09-16 16:48:09   : Log Export Date {yyyy-MM-dd HH:mm:ss}
PROV.           : PROVINCE
UWI.      : UNIQUE WELL ID
API.            : API NUMBER
#==================================================================
~Curve
DEPT .m                   : DEPTH
Sonic_despiked .us/ft     : Sonic_despiked
RHOB_despiked .g/cm3      : RHOB_despiked
two-waytime .ms           : two-way time
~Parameter
#==================================================================
~Ascii
# ...
 1773.0216000 59.373577118 2.7027249336 817.06237793
 1773.1740000 59.358715057 2.7070398331 817.12182617
 1773.3264000 59.343852997 2.7110159397 817.18127441
 1773.4788000 59.328987122 2.7041213512 817.24066162
 1773.6312000 59.314125061 2.6894693375 817.30010986
 1773.7836000 59.299263000 2.6864097118 817.35955811
 1773.9360000 59.284397125 2.6834661961 817.41900635
 1774.0884000 59.269535065 2.6834189892 817.47839355
 1774.2408000 59.254673004 2.6675283909 817.53784180
 1774.3932000 59.239807129 2.6588439941 817.59729004
 1774.5456000 59.224945068 2.6483521461 817.65673828
 1774.6980000 59.380123138 2.6415598392 817.71618652
 1774.8504000 59.371799469 2.6491022110 817.77557373
 1775.0028000 59.363475800 2.6633105278 817.83502197
 1775.1552000 59.355152130 2.6682171822 817.89447021
 1775.3076000 59.387702942 2.6610517502 817.95391846
 1775.4600000 59.420253754 2.6368374825 818.01336670
 1775.6124000 59.452804565 2.6122701168 818.07275391
 1775.7648000 59.485355377 2.5850286484 818.13220215
 1775.9172000 59.517910004 2.5745639801 818.19165039
 1776.0696000 59.550460815 2.5857336521 818.25109863
 1776.2220000 59.583011627 2.5874097347 818.31054688
 1776.3744000 59.345092773 2.5649404526 818.36993408
 1776.5268000 59.510780334 2.5551218987 818.42938232
 1776.6792000 59.672496796 2.5453031063 818.48883057
 1776.8316000 59.907558441 2.5354845524 818.54827881
 1776.9840000 59.926506042 2.5787513256 818.60772705
 1777.1364000 59.945453644 2.5945787430 818.66711426
 1777.2888000 59.964397430 2.5670056343 818.72656250
 1777.4412000 59.983345032 2.5605549812 818.78601074
 1777.5936000 60.002292633 2.5541043282 818.84545898
 1777.7460000 60.021240234 2.5476534367 818.90490723
 1777.8984000 60.040184021 2.5412027836 818.96429443
 1778.0508000 60.059131622 2.5347521305 819.02374268
 1778.2032000 60.078079224 2.5421812534 819.08319092
 1778.3556000 59.747734070 2.5379655361 819.14263916
 1778.5080000 59.920021057 2.5337500572 819.20208740
 1778.6604000 59.936458588 2.5295343399 819.26147461
 1778.8128000 59.952896118 2.5524837971 819.32092285
 1778.9652000 59.969333649 2.5355536938 819.38037109
 1779.1176000 59.985771179 2.5214979649 819.43981934
 1779.2700000 60.002212524 2.5365135670 819.49926758
 1779.4224000 60.018650055 2.5712757111 819.55865479
 1779.5748000 60.035087585 2.6011459827 819.61810303
 1779.7272000 60.051525116 2.5979256630 819.67755127
 1779.8796000 60.067962646 2.5702810287 819.73699951
 1780.0320000 59.940597534 2.5197989941 819.79644775
 1780.1844000 59.813236237 2.5277314186 819.85583496
 1780.3368000 59.826843262 2.5356636047 819.91528320
 1780.4892000 59.840450287 2.5435960293 819.97473145
 1780.6416000 60.089263916 2.5515282154 820.03417969
 1780.7940000 60.011512756 2.5801703930 820.09362793
 1780.9464000 59.933761597 2.5925188065 820.15301514
 1781.0988000 59.856014252 2.5818402767 820.21246338
 1781.2512000 59.778263092 2.5689351559 820.27191162
 1781.4036000 60.174674988 2.5470333099 820.33135986
 1781.5560000 60.191757202 2.5441281796 820.39080811
 1781.7084000 60.148658752 2.5412230492 820.45019531
 1781.8608000 60.105564117 2.5383181572 820.50964355
 1782.0132000 60.062465668 2.5354130268 820.56909180
 1782.1656000 59.875057220 2.5325078964 820.62854004
 1782.3180000 59.795883179 2.5547091961 820.68798828
 1782.4704000 60.023105621 2.5202348232 820.74737549
 1782.6228000 60.046215057 2.5297803879 820.80682373
 1782.7752000 60.069320679 2.5393259525 820.86627197
 1782.9276000 60.092430115 2.5488715172 820.92572021
 1783.0800000 60.115539551 2.5584170818 820.98516846
 1783.2324000 60.065891266 2.5679626465 821.04455566
 1783.3848000 60.016239166 2.5775082111 821.10400391
 1783.5372000 59.966590881 2.5870537758 821.16345215
 1783.6896000 59.916942596 2.5965993404 821.22290039
 1783.8420000 59.867294312 2.6061449051 821.28234863
 1783.9944000 59.817642212 2.6222431660 821.34173584
 1784.1468000 59.767993927 2.6383414268 821.40118408
 1784.2992000 59.718345642 2.6544396877 821.46063232
 1784.4516000 59.668697357 2.6705379486 821.52008057
 1784.6040000 59.619045258 2.6366786957 821.57952881
 1784.7564000 59.569396973 2.6456279755 821.63891602
 1784.9088000 59.519748688 2.6703238487 821.69836426
 1785.0612000 59.488288879 2.6826529503 821.75781250
 1785.2136000 59.456829071 2.6478877068 821.81726074
 1785.3660000 59.425369263 2.6332554817 821.87670898
 1785.5184000 59.393909454 2.6279318333 821.93609619
 1785.6708000 59.362449646 2.6295611858 821.99554443
 1785.8232000 59.330989838 2.6209135056 822.05499268
 1785.9756000 59.299530029 2.6142470837 822.11444092
 1786.1280000 59.268070221 2.6507434845 822.17388916
 1786.2804000 59.236610413 2.6503653526 822.23327637
 1786.4328000 59.328926086 2.6047902107 822.29272461
 1786.5852000 59.421245575 2.5807492733 822.35217285
 1786.7376000 59.513561249 2.6272289753 822.41162109
 1786.8900000 59.605880737 2.6414608955 822.47106934
 1787.0424000 59.414531708 2.6556930542 822.53045654
 1787.1948000 59.265396118 2.6699249744 822.58990479
 1787.3472000 59.116256714 2.6841571331 822.64935303
 1787.4996000 59.158702850 2.6983890533 822.70880127
 1787.6520000 59.201152802 2.6541893482 822.76824951
 1787.8044000 59.243598938 2.6293618679 822.82763672
 1787.9568000 59.286048889 2.6065125465 822.88708496
 1788.1092000 59.328495026 2.5999903679 822.94653320
 1788.2616000 59.370941162 2.6374785900 823.00598145
 1788.4140000 59.413391113 2.6838390827 823.06542969
 1788.5664000 59.455837250 2.6841776371 823.12481689
 1788.7188000 59.498287201 2.6845161915 823.18426514
 1788.8712000 59.540733337 2.6848547459 823.24371338
 1789.0236000 59.400745392 2.6250979900 823.30316162
 1789.1760000 59.260753632 2.6219754219 823.36260986
 1789.3284000 59.120765686 2.6188528538 823.42199707
 1789.4808000 58.980773926 2.6157305241 823.48144531
 1789.6332000 58.987140656 2.6126079559 823.54089355
 1789.7856000 58.993503571 2.6333389282 823.60034180
 1789.9380000 58.999870300 2.6537566185 823.65979004
 1790.0904000 59.006237030 2.6563851833 823.71917725
 1790.2428000 59.012603760 2.6744349003 823.77862549
 1790.3952000 59.018966675 2.6825006008 823.83807373
 1790.5476000 59.025333405 2.6761136055 823.89752197
 1790.7000000 59.031700134 2.6536874771 823.95697021
 1790.8524000 59.038066864 2.6467006207 824.01635742
 1791.0048000 59.044429779 2.6464643478 824.07580566
 1791.1572000 59.050796509 2.6448571682 824.13525391
 1791.3096000 59.057163239 2.6449444294 824.19470215
 1791.4620000 59.063529968 2.6450316906 824.25415039
 1791.6144000 59.069892883 2.6451189518 824.31353760
 1791.7668000 59.076259613 2.7088088989 824.37298584
 1791.9192000 59.082626343 2.7008714676 824.43243408
 1792.0716000 59.088993073 2.6929342747 824.49188232
 1792.2240000 59.095355988 2.6630914211 824.55133057
 1792.3764000 59.101722717 2.6295144558 824.61071777
 1792.5288000 58.867294312 2.6179060936 824.67016602
 1792.6812000 58.861618042 2.6180906296 824.72961426
 1792.8336000 58.855945587 2.6299982071 824.78906250
 1792.9860000 58.850273132 2.6321344376 824.84851074
 1793.1384000 58.844596863 2.6342706680 824.90789795
 1793.2908000 58.838924408 2.6765305996 824.96734619
 1793.4432000 58.833248138 2.6956973076 825.02679443
 1793.5956000 58.827575684 2.7148640156 825.08624268
 1793.7480000 58.714416504 2.6810176373 825.14569092
 1793.9004000 58.760963440 2.6580946445 825.20507813
 1794.0528000 58.807506561 2.6211390495 825.26452637
 1794.2052000 58.854053497 2.6218323708 825.32397461
 1794.3576000 58.900600433 2.6335890293 825.38342285
 1794.5100000 58.947143555 2.6453456879 825.44287109
 1794.6624000 58.993690491 2.6571021080 825.50225830
 1794.8148000 58.795497894 2.6688587666 825.56170654
 1794.9672000 58.897930145 2.6806154251 825.62115479
 1795.1196000 59.000362396 2.7272908688 825.68060303
 1795.2720000 59.102794647 2.7293512821 825.74005127
 1795.4244000 59.054912567 2.7273569107 825.79943848
 1795.5768000 59.007034302 2.7253625393 825.85888672
 1795.7292000 58.959156036 2.7233679295 825.91833496
 1795.8816000 58.911273956 2.7213735580 825.97778320
