# LAS format log file from PETREL
# Project units are specified as depth units
#==================================================================
~Version information
VERS.   2.0:
WRAP.   NO:
#==================================================================
~Well
STRT .m      1.0668000000 :
STOP .m      1939.1376000 :
STEP .m     0.15240000 :
NULL .        -999.250000 :
COMP.           : COMPANY
WELL.  P-129   : WELL
FLD.            : FIELD
LOC.            : LOCATION
SRVC.           : SERVICE COMPANY
DATE.  2014-09-16 16:48:09   : Log Export Date {yyyy-MM-dd HH:mm:ss}
PROV.           : PROVINCE
UWI.      : UNIQUE WELL ID
API.            : API NUMBER
#==================================================================
~Curve
DEPT .m                   : DEPTH
Sonic_despiked .us/ft     : Sonic_despiked
RHOB_despiked .g/cm3      : RHOB_despiked
two-waytime .ms           : two-way time
~Parameter
#==================================================================
~Ascii
# ...
 898.55040000 70.963722229 2.7435278893 455.34194946
 898.70280000 70.973800659 2.7339358330 455.41256714
 898.85520000 70.983879089 2.7243440151 455.48318481
 899.00760000 70.993965149 2.6993873119 455.55380249
 899.16000000 71.004043579 2.6861908436 455.62438965
 899.31240000 71.014122009 2.6984350681 455.69500732
 899.46480000 71.024208069 2.6989049911 455.76562500
 899.61720000 71.034286499 2.7147068977 455.83624268
 899.76960000 71.044364929 2.7195835114 455.90682983
 899.92200000 71.054450989 2.7300293446 455.97744751
 900.07440000 71.064529419 2.7359418869 456.04806519
 900.22680000 71.013816833 2.7397277355 456.11868286
 900.37920000 70.963096619 2.7435138226 456.18930054
 900.53160000 70.252937317 2.7472996712 456.25988770
 900.68400000 70.156021118 2.7260496616 456.33050537
 900.83640000 70.059104919 2.7152237892 456.40112305
 900.98880000 69.962188721 2.7173211575 456.47174072
 901.14120000 69.865272522 2.7176342010 456.54174805
 901.29360000 69.768356323 2.7083954811 456.61114502
 901.44600000 69.671440125 2.7067229748 456.68051147
 901.59840000 69.574523926 2.6985661983 456.74990845
 901.75080000 69.477607727 2.7024056911 456.81930542
 901.90320000 69.517990112 2.6920721531 456.88867188
 902.05560000 69.770729065 2.6824700832 456.95806885
 902.20800000 69.731216431 2.6645097733 457.02746582
 902.36040000 69.691703796 2.6526119709 457.09686279
 902.51280000 69.652191162 2.6462559700 457.16622925
 902.66520000 69.612670898 2.6441712379 457.23562622
 902.81760000 69.573158264 2.6347520351 457.30502319
 902.97000000 69.533645630 2.6172852516 457.37438965
 903.12240000 69.494132996 2.6066713333 457.44378662
 903.27480000 69.454620361 2.6068699360 457.51318359
 903.42720000 69.415107727 2.6049289703 457.58255005
 903.57960000 69.375595093 2.6031022072 457.65194702
 903.73200000 69.336074829 2.6023080349 457.72134399
 903.88440000 69.296562195 2.6051611900 457.79071045
 904.03680000 69.257049561 2.5974214077 457.86010742
 904.18920000 69.217536926 2.5939419270 457.92950439
 904.34160000 69.022537231 2.5997228622 457.99887085
 904.49400000 69.052291870 2.6061589718 458.06826782
 904.64640000 69.082046509 2.6131861210 458.13766479
 904.79880000 69.111801147 2.6101324558 458.20706177
 904.95120000 69.141555786 2.6233615875 458.27642822
 905.10360000 69.171310425 2.6240680218 458.34582520
 905.25600000 69.201065063 2.6232433319 458.41522217
 905.40840000 69.213394165 2.6064043045 458.48458862
 905.56080000 69.225730896 2.5893955231 458.55398560
 905.71320000 69.238059998 2.5926604271 458.62338257
 905.86560000 69.250389099 2.6017127037 458.69274902
 906.01800000 69.212440491 2.6158125401 458.76214600
 906.17040000 69.174484253 2.6144979000 458.83154297
 906.32280000 69.136535645 2.6112208366 458.90090942
 906.47520000 69.098579407 2.6064002514 458.97030640
 906.62760000 69.060630798 2.6005229950 459.03970337
 906.78000000 69.022674561 2.5820238590 459.10906982
 906.93240000 68.984725952 2.5646760464 459.17846680
 907.08480000 69.251861572 2.5506553650 459.24786377
 907.23720000 69.252044678 2.5516974926 459.31726074
 907.38960000 69.252235413 2.5476682186 459.38662720
 907.54200000 69.252418518 2.5425992012 459.45602417
 907.69440000 69.252601624 2.5429217815 459.52542114
 907.84680000 69.279464722 2.5432443619 459.59478760
 907.99920000 69.320129395 2.5435671806 459.66418457
 908.15160000 69.360794067 2.5438897610 459.73358154
 908.30400000 69.341049194 2.5442123413 459.80294800
 908.45640000 69.321311951 2.5480418205 459.87234497
 908.60880000 69.301567078 2.5446674824 459.94174194
 908.76120000 69.281829834 2.5453696251 460.01110840
 908.91360000 69.262084961 2.5460715294 460.08050537
 909.06600000 69.242347717 2.5467734337 460.14990234
 909.21840000 69.222602844 2.5474755764 460.21929932
 909.37080000 69.202865601 2.5595526695 460.28866577
 909.52320000 69.183120728 2.5673234463 460.35806274
 909.67560000 69.163375854 2.5867562294 460.42745972
 909.82800000 69.143638611 2.5960149765 460.49682617
 909.98040000 69.123893738 2.5900447369 460.56622314
 910.13280000 69.104156494 2.5665810108 460.63562012
 910.28520000 69.084411621 2.5479464531 460.70498657
 910.43760000 69.064674377 2.5470275879 460.77438354
 910.59000000 69.044929504 2.5548927784 460.84378052
 910.74240000 69.232360840 2.5626997948 460.91314697
 910.89480000 69.138237000 2.5662729740 460.98254395
 911.04720000 69.492149353 2.5607061386 461.05194092
 911.19960000 69.470413208 2.5530152321 461.12130737
 911.35200000 69.448677063 2.5474994183 461.19070435
 911.50440000 69.426940918 2.5311489105 461.26010132
 911.65680000 69.405212402 2.5276956558 461.32949829
 911.80920000 69.383476257 2.5242424011 461.39886475
 911.96160000 69.361740112 2.5207891464 461.46826172
 912.11400000 69.340003967 2.5173358917 461.53765869
 912.26640000 69.318267822 2.5384330750 461.60702515
 912.41880000 69.350891113 2.5719308853 461.67642212
 912.57120000 69.383514404 2.5999698639 461.74581909
 912.72360000 69.416137695 2.5971682072 461.81518555
 912.87600000 69.448760986 2.5943665504 461.88458252
 913.02840000 69.481391907 2.5915648937 461.95397949
 913.18080000 69.514015198 2.5887629986 462.02334595
 913.33320000 69.546638489 2.5859613419 462.09274292
 913.48560000 69.579261780 2.5831596851 462.16213989
 913.63800000 69.611885071 2.5803580284 462.23150635
 913.79040000 69.644508362 2.5751750469 462.30090332
 913.94280000 69.677131653 2.6040387154 462.37030029
 914.09520000 69.709754944 2.6039969921 462.43969727
 914.24760000 69.742385864 2.6039555073 462.50906372
 914.40000000 69.775009155 2.6039137840 462.57846069
 914.55240000 69.807632446 2.6038720608 462.64785767
 914.70480000 69.840255737 2.6038303375 462.71722412
 914.85720000 69.872879028 2.6037888527 462.78662109
 915.00960000 69.894569397 2.6037471294 462.85601807
 915.16200000 69.916259766 2.5565896034 462.92538452
 915.31440000 69.937942505 2.5234725475 462.99478149
 915.46680000 69.959632874 2.5247097015 463.06417847
 915.61920000 69.981323242 2.5259468555 463.13354492
 915.77160000 70.003013611 2.5271840096 463.20294189
 915.92400000 70.024703979 2.5284211636 463.27233887
 916.07640000 70.046394348 2.5379376411 463.34173584
 916.22880000 70.068077087 2.5363450050 463.41110229
 916.38120000 70.089767456 2.5350432396 463.48049927
 916.53360000 70.111457825 2.5337417126 463.54989624
 916.68600000 70.176490784 2.5324399471 463.61926270
 916.83840000 70.241523743 2.5311381817 463.68865967
 916.99080000 70.306556702 2.5298366547 463.75805664
 917.14320000 70.371597290 2.5285348892 463.82742310
 917.29560000 70.436630249 2.5232079029 463.89682007
 917.44800000 70.501663208 2.5256266594 463.96621704
 917.60040000 71.129310608 2.5280456543 464.03558350
 917.75280000 71.365890503 2.5304644108 464.10498047
 917.90520000 71.291107178 2.5644314289 464.17437744
 918.05760000 71.123970032 2.5801141262 464.24374390
 918.21000000 70.956832886 2.5653753281 464.31314087
 918.36240000 70.789688110 2.5621333122 464.38253784
 918.51480000 70.622550964 2.5732789040 464.45193481
 918.66720000 71.698410034 2.5911896229 464.52130127
 918.81960000 71.779869080 2.5974462032 464.59069824
 918.97200000 71.861328125 2.5969269276 464.66009521
 919.12440000 71.942787170 2.5964076519 464.72946167
 919.27680000 72.024246216 2.5958883762 464.79885864
 919.42920000 72.105712891 2.5953691006 464.86825562
 919.58160000 72.187171936 2.5948498249 464.93762207
 919.73400000 72.268630981 2.5912365913 465.00701904
 919.88640000 72.350090027 2.5902016163 465.07641602
 920.03880000 72.431549072 2.5891666412 465.14578247
 920.19120000 72.513008118 2.5881316662 465.21517944
 920.34360000 72.594474792 2.5870966911 465.28457642
 920.49600000 72.675933838 2.5860617161 465.35397339
 920.64840000 72.757392883 2.5664925575 465.42333984
 920.80080000 72.744804382 2.5300145149 465.49273682
 920.95320000 72.732215881 2.5064842701 465.56213379
 921.10560000 72.719627380 2.5092456341 465.63150024
 921.25800000 72.497749329 2.5120069981 465.70089722
 921.41040000 72.508712769 2.5147683620 465.77029419
