# LAS format log file from PETREL
# Project units are specified as depth units
#==================================================================
~Version information
VERS.   2.0:
WRAP.   NO:
#==================================================================
~Well
STRT .m      1.0668000000 :
STOP .m      1939.1376000 :
STEP .m     0.15240000 :
NULL .        -999.250000 :
COMP.           : COMPANY
WELL.  P-129   : WELL
FLD.            : FIELD
LOC.            : LOCATION
SRVC.           : SERVICE COMPANY
DATE.  2014-09-16 16:48:09   : Log Export Date {yyyy-MM-dd HH:mm:ss}
PROV.           : PROVINCE
UWI.      : UNIQUE WELL ID
API.            : API NUMBER
#==================================================================
~Curve
DEPT .m                   : DEPTH
Sonic_despiked .us/ft     : Sonic_despiked
RHOB_despiked .g/cm3      : RHOB_despiked
two-waytime .ms           : two-way time
~Parameter
#==================================================================
~Ascii
# ...
 760.47600000 51.864589691 2.9757776260 396.47061157
 760.62840000 51.685970306 2.9783179760 396.52206421
 760.78080000 51.678234100 2.9815845490 396.57351685
 760.93320000 51.670494080 2.9809732437 396.62496948
 761.08560000 51.662757874 2.9798190594 396.67642212
 761.23800000 51.655021667 2.9786646366 396.72787476
 761.39040000 51.647285461 2.9725029469 396.77932739
 761.54280000 51.639549255 2.9610648155 396.83081055
 761.69520000 51.631809235 2.9587914944 396.88226318
 761.84760000 51.624073029 2.9600434303 396.93371582
 762.00000000 51.789077759 2.9681260586 396.98516846
 762.15240000 51.846546173 2.9754228592 397.03662109
 762.30480000 51.816810608 2.9755373001 397.08807373
 762.45720000 51.787075043 2.9756515026 397.13952637
 762.60960000 51.715007782 2.9757659435 397.19097900
 762.76200000 51.692520142 2.9756569862 397.24243164
 762.91440000 51.590259552 2.9752295017 397.29388428
 763.06680000 51.774147034 2.9748020172 397.34533691
 763.21920000 51.773258209 2.9743745327 397.39678955
 763.37160000 51.772369385 2.9547908306 397.44824219
 763.52400000 51.771480560 2.9540929794 397.49969482
 763.67640000 51.651638031 2.9533951283 397.55114746
 763.82880000 51.565193176 2.9526972771 397.60260010
 763.98120000 51.492408752 2.9519994259 397.65405273
 764.13360000 51.563369751 2.9513015747 397.70550537
 764.28600000 51.543712616 2.9661533833 397.75695801
 764.43840000 51.524055481 2.9696044922 397.80841064
 764.59080000 51.504398346 2.9761960506 397.85986328
 764.74320000 51.484741211 2.9631466866 397.91131592
 764.89560000 51.465084076 2.9572484493 397.96279907
 765.04800000 51.499938965 2.9512948990 398.01425171
 765.20040000 51.534790039 2.9524443150 398.06570435
 765.35280000 51.569644928 2.9623832703 398.11715698
 765.50520000 51.557704926 2.9600024223 398.16860962
 765.65760000 51.545768738 2.9611864090 398.22006226
 765.81000000 51.533828735 2.9707965851 398.27151489
 765.96240000 51.521892548 2.9759178162 398.32296753
 766.11480000 51.509952545 2.9704332352 398.37442017
 766.26720000 51.498016357 2.9532523155 398.42587280
 766.41960000 51.486076355 2.9508502483 398.47732544
 766.57200000 51.551868439 2.9635169506 398.52877808
 766.72440000 51.476345062 2.9722554684 398.58023071
 766.87680000 51.458568573 2.9684469700 398.63168335
 767.02920000 51.485240936 2.9586734772 398.68313599
 767.18160000 51.485584259 2.9689154625 398.73458862
 767.33400000 51.485927582 2.9664330482 398.78604126
 767.48640000 51.486274719 2.9639506340 398.83749390
 767.63880000 51.486618042 2.9614682198 398.88894653
 767.79120000 51.486961365 2.9656069279 398.94039917
 767.94360000 51.487304688 2.9647798538 398.99185181
 768.09600000 51.464298248 2.9639527798 399.04330444
 768.24840000 51.441291809 2.9631257057 399.09478760
 768.40080000 51.418285370 2.9622986317 399.14624023
 768.55320000 51.395278931 2.9614713192 399.19769287
 768.70560000 51.372272491 2.9606442451 399.24914551
 768.85800000 51.339881897 2.9598171711 399.30059814
 769.01040000 51.345172882 2.9621136189 399.35205078
 769.16280000 51.350463867 2.9681017399 399.40350342
 769.31520000 51.355758667 2.9739990234 399.45495605
 769.46760000 51.361049652 2.9675378799 399.50640869
 769.62000000 51.366340637 2.9596066475 399.55786133
 769.77240000 51.371631622 2.9554700851 399.60931396
 769.92480000 51.340534210 2.9633488655 399.66076660
 770.07720000 51.346904755 2.9773664474 399.71221924
 770.22960000 51.343940735 2.9796621799 399.76367188
 770.38200000 51.346523285 2.9819579124 399.81512451
 770.53440000 51.344966888 2.9771294594 399.86657715
 770.68680000 51.341163635 2.9684264660 399.91802979
 770.83920000 51.341163635 2.9670014381 399.96948242
 770.99160000 51.339939117 2.9732103348 400.02093506
 771.14400000 51.338714600 2.9756762981 400.07238770
 771.29640000 51.375446320 2.9690647125 400.12384033
 771.44880000 51.429363251 2.9592552185 400.17529297
 771.60120000 51.378223419 2.9565541744 400.22677612
 771.75360000 51.358020782 2.9699854851 400.27822876
 771.90600000 51.361389160 2.9683313370 400.32968140
 772.05840000 51.364753723 2.9631731510 400.38113403
 772.21080000 51.368122101 2.9544208050 400.43258667
 772.36320000 51.371490479 2.9600610733 400.48403931
 772.51560000 51.374858856 2.9800086021 400.53549194
 772.66800000 51.378227234 2.9797544479 400.58694458
 772.82040000 51.381591797 2.9795002937 400.63839722
 772.97280000 51.384960175 2.9792459011 400.68984985
 773.12520000 51.388328552 2.9789917469 400.74130249
 773.27760000 51.391693115 2.9787375927 400.79275513
 773.43000000 51.395061493 2.9784834385 400.84420776
 773.58240000 51.398429871 2.9782292843 400.89566040
 773.73480000 51.432609558 2.9779748917 400.94711304
 773.88720000 51.434982300 2.9777207375 400.99856567
 774.03960000 51.437358856 2.9774665833 401.05001831
 774.19200000 51.439731598 2.9748673439 401.10147095
 774.34440000 51.442108154 2.9634938240 401.15292358
 774.49680000 51.444480896 2.9501347542 401.20437622
 774.64920000 51.446857452 2.9487864971 401.25582886
 774.80160000 51.449230194 2.9474382401 401.30728149
 774.95400000 51.447788239 2.9460899830 401.35876465
 775.10640000 51.446342468 2.9447417259 401.41021729
 775.25880000 51.444900513 2.9433934689 401.46166992
 775.41120000 51.443454742 2.9420452118 401.51312256
 775.56360000 51.442012787 2.9406967163 401.56457520
 775.71600000 51.440567017 2.9393484592 401.61602783
 775.86840000 51.439125061 2.9380002022 401.66748047
 776.02080000 51.437679291 2.9366519451 401.71893311
 776.17320000 51.436237335 2.9353036880 401.77038574
 776.32560000 51.434795380 2.9339554310 401.82183838
 776.47800000 51.433349609 2.9480605125 401.87329102
 776.63040000 51.431907654 2.9502515793 401.92474365
 776.78280000 51.430461884 2.9548833370 401.97619629
 776.93520000 51.429019928 2.9669804573 402.02764893
 777.08760000 51.427574158 2.9718070030 402.07910156
 777.24000000 51.426132202 2.9715769291 402.13055420
 777.39240000 51.424686432 2.9716274738 402.18200684
 777.54480000 51.423244476 2.9678540230 402.23345947
 777.69720000 51.423244476 2.9625201225 402.28491211
 777.84960000 51.461685181 2.9664335251 402.33636475
 778.00200000 51.393325806 2.9676928520 402.38781738
 778.15440000 51.385055542 2.9689524174 402.43927002
 778.30680000 51.376785278 2.9702117443 402.49075317
 778.45920000 51.368515015 2.9714713097 402.54220581
 778.61160000 51.360244751 2.9590337276 402.59365845
 778.76400000 51.373546600 2.9575536251 402.64511108
 778.91640000 51.386852264 2.9560737610 402.69656372
 779.06880000 51.400154114 2.9545936584 402.74801636
 779.22120000 51.413459778 2.9531137943 402.79946899
 779.37360000 51.426761627 2.9502949715 402.85092163
 779.52600000 51.394828796 2.9486811161 402.90237427
 779.67840000 51.400592804 2.9470672607 402.95382690
 779.83080000 51.406356812 2.9454534054 403.00527954
 779.98320000 51.412120819 2.9438395500 403.05673218
 780.13560000 51.417884827 2.9422256947 403.10818481
 780.28800000 51.423648834 2.9314904213 403.15963745
 780.44040000 51.429412842 2.9334745407 403.21109009
 780.59280000 51.365512848 2.9354586601 403.26254272
 780.74520000 51.379531860 2.9374427795 403.31399536
 780.89760000 51.393547058 2.9394268990 403.36544800
 781.05000000 51.324989319 2.9551925659 403.41690063
 781.20240000 51.277187347 2.9464581013 403.46835327
 781.35480000 51.277187347 2.9353621006 403.51980591
 781.50720000 51.272197723 2.9359500408 403.57125854
 781.65960000 51.257205963 2.9495432377 403.62274170
 781.81200000 51.312019348 2.9548666477 403.67419434
 781.96440000 51.313323975 2.9554865360 403.72564697
 782.11680000 51.314624786 2.9499373436 403.77709961
 782.26920000 51.315929413 2.9462251663 403.82855225
 782.42160000 51.317234039 2.9374017715 403.88000488
 782.57400000 51.318538666 2.9363760948 403.93145752
 782.72640000 51.319839478 2.9322562218 403.98291016
 782.87880000 51.321144104 2.9413974285 404.03436279
 783.03120000 51.254608154 2.9460623264 404.08581543
 783.18360000 51.247428894 2.9486274719 404.13726807
 783.33600000 51.240253448 2.9606554508 404.18872070
