# LAS format log file from PETREL
# Project units are specified as depth units
#==================================================================
~Version information
VERS.   2.0:
WRAP.   NO:
#==================================================================
~Well
STRT .m      20.100000000 :
STOP .m      2623.3000000 :
STEP .m     0.10000000 :
NULL .        -999.250000 :
COMP.           : COMPANY
WELL.  P-130   : WELL
FLD.            : FIELD
LOC.            : LOCATION
SRVC.           : SERVICE COMPANY
DATE.  2014-09-16 16:48:38   : Log Export Date {yyyy-MM-dd HH:mm:ss}
PROV.           : PROVINCE
UWI.      : UNIQUE WELL ID
API.            : API NUMBER
#==================================================================
~Curve
DEPT .m                   : DEPTH
Sonic_despiked .us/ft     : Sonic_despiked
RHOB_despiked .g/cm3      : RHOB_despiked
two-waytime .ms           : two-way time
~Parameter
#==================================================================
~Ascii
# ...
 714.70000000 86.910522461 2.7039990425 343.45251465
 714.80000000 86.935554504 2.6960470676 343.50970459
 714.90000000 86.960578918 2.6902370453 343.56689453
 715.00000000 86.985610962 2.6860470772 343.62405396
 715.10000000 87.159736633 2.6828248501 343.68124390
 715.20000000 87.193534851 2.6807699203 343.73843384
 715.30000000 86.998085022 2.6807439327 343.79562378
 715.40000000 86.982437134 2.6832289696 343.85281372
 715.50000000 86.966781616 2.6876039505 343.91000366
 715.60000000 86.951133728 2.6928460598 343.96716309
 715.70000000 87.324798584 2.6972870827 344.02435303
 715.80000000 87.231285095 2.6996121407 344.08154297
 715.90000000 87.137763977 2.6990680695 344.13873291
 716.00000000 87.044250488 2.6953368187 344.19592285
 716.10000000 86.950737000 2.6899690628 344.25311279
 716.20000000 86.857223511 2.6842339039 344.31027222
 716.30000000 86.763702393 2.6795210838 344.36746216
 716.40000000 86.670188904 2.6764168739 344.42465210
 716.50000000 86.703582764 2.6748631001 344.48184204
 716.60000000 86.736976624 2.6743199825 344.53903198
 716.70000000 86.770370483 2.6736159325 344.59622192
 716.80000000 86.803764343 2.6718702316 344.65338135
 716.90000000 86.837158203 2.6687328815 344.71057129
 717.00000000 86.870552063 2.6647820473 344.76776123
 717.10000000 86.903945923 2.6658439636 344.82495117
 717.20000000 86.937339783 2.6669058800 344.88214111
 717.30000000 86.970733643 2.6679677963 344.93933105
 717.40000000 87.004127502 2.6690297127 344.99649048
 717.50000000 87.037521362 2.6700916290 345.05368042
 717.60000000 87.070915222 2.6711533070 345.11087036
 717.70000000 87.104309082 2.6722152233 345.16806030
 717.80000000 87.137702942 2.6732771397 345.22525024
 717.90000000 87.171104431 2.6743390560 345.28244019
 718.00000000 87.204498291 2.6754009724 345.33959961
 718.10000000 87.237892151 2.6853621006 345.39678955
 718.20000000 87.271286011 2.6915769577 345.45397949
 718.30000000 87.304679871 2.6922039986 345.51116943
 718.40000000 87.338073730 2.6877930164 345.56835938
 718.50000000 87.371467590 2.6799318790 345.62554932
 718.60000000 87.404861450 2.6712100506 345.68270874
 718.70000000 87.438255310 2.6707854271 345.73989868
 718.80000000 87.471649170 2.6703608036 345.79708862
 718.90000000 87.505043030 2.6699361801 345.85427856
 719.00000000 87.538436890 2.6695117950 345.91146851
 719.10000000 87.571830750 2.6690871716 345.96865845
 719.20000000 87.605224609 2.6686625481 346.02581787
 719.30000000 88.156829834 2.6682379246 346.08300781
 719.40000000 88.708427429 2.6766440868 346.14019775
 719.50000000 88.788879395 2.6850950718 346.19738770
 719.60000000 88.869323730 2.6923258305 346.25457764
 719.70000000 88.949775696 2.6922659874 346.31176758
 719.80000000 89.030227661 2.6922061443 346.36892700
 719.90000000 89.110671997 2.6921465397 346.42611694
 720.00000000 89.191123962 2.6920866966 346.48330688
 720.10000000 89.271575928 2.6920268536 346.54049683
 720.20000000 89.352020264 2.6919670105 346.59091187
 720.30000000 89.432472229 2.6919071674 346.64135742
 720.40000000 89.277343750 2.6918475628 346.69177246
 720.50000000 89.122215271 2.6917877197 346.74221802
 720.60000000 88.967094421 2.6917278767 346.79263306
 720.70000000 88.811965942 2.6916680336 346.84307861
 720.80000000 88.656837463 2.6916081905 346.89349365
 720.90000000 88.501716614 2.6915485859 346.94393921
 721.00000000 88.346588135 2.6914887428 346.99435425
 721.10000000 88.084297180 2.6914288998 347.04479980
 721.20000000 88.105278015 2.6909618378 347.09521484
 721.30000000 88.126258850 2.6907389164 347.14566040
 721.40000000 88.147239685 2.6896622181 347.19607544
 721.50000000 88.309852600 2.6873340607 347.24652100
 721.60000000 88.472465515 2.6840429306 347.29693604
 721.70000000 88.635078430 2.6801540852 347.34738159
 721.80000000 88.797691345 2.6761009693 347.39779663
 721.90000000 88.933815002 2.6724209785 347.44824219
 722.00000000 89.069931030 2.6699390411 347.49865723
 722.10000000 89.206054688 2.6698279381 347.54907227
 722.20000000 89.342170715 2.6721041203 347.59951782
 722.30000000 89.478294373 2.6760489941 347.64993286
 722.40000000 89.614410400 2.6797227859 347.70037842
 722.50000000 89.750534058 2.6811621189 347.75079346
 722.60000000 89.886650085 2.6797571182 347.80123901
 722.70000000 90.022773743 2.6763219833 347.85165405
 722.80000000 90.158889771 2.6732070446 347.90209961
 722.90000000 90.295013428 2.6718950272 347.95251465
 723.00000000 90.431129456 2.6728181839 348.00296021
 723.10000000 90.567253113 2.6746931076 348.05337524
 723.20000000 90.703369141 2.6758911610 348.10382080
 723.30000000 90.711082458 2.6752119064 348.15423584
 723.40000000 90.718795776 2.6725540161 348.20468140
 723.50000000 90.726509094 2.6690421104 348.25509644
 723.60000000 90.734222412 2.6658391953 348.30554199
 723.70000000 90.741928101 2.6638209820 348.35595703
 723.80000000 90.749641418 2.6625609398 348.40640259
 723.90000000 90.757354736 2.6611030102 348.45681763
 724.00000000 90.765068054 2.6611742973 348.50726318
 724.10000000 90.772781372 2.6612458229 348.55767822
 724.20000000 90.780494690 2.6613171101 348.60809326
 724.30000000 90.788208008 2.6613886356 348.65853882
 724.40000000 90.795921326 2.6614599228 348.70895386
 724.50000000 90.803634644 2.6615312099 348.75939941
 724.60000000 90.811347961 2.6616027355 348.80981445
 724.70000000 90.819053650 2.6616740227 348.86026001
 724.80000000 90.826766968 2.6617453098 348.91067505
 724.90000000 90.834480286 2.6618168354 348.96112061
 725.00000000 90.842193604 2.6618881226 349.01153564
 725.10000000 90.849906921 2.6619596481 349.06198120
 725.20000000 90.857620239 2.6620309353 349.11239624
 725.30000000 90.865333557 2.6675281525 349.16284180
 725.40000000 90.873046875 2.6733748913 349.21325684
 725.50000000 90.880760193 2.6781249046 349.26370239
 725.60000000 90.888465881 2.6800210476 349.31411743
 725.70000000 90.896179199 2.6792008877 349.36456299
 725.80000000 90.903892517 2.6761009693 349.41497803
 725.90000000 90.911605835 2.6713190079 349.46542358
 726.00000000 90.919319153 2.6657781601 349.51583862
 726.10000000 90.927032471 2.6663625240 349.56628418
 726.20000000 90.934745789 2.6669468880 349.61669922
 726.30000000 90.942459106 2.6675312519 349.66711426
 726.40000000 90.950172424 2.6681156158 349.71755981
 726.50000000 90.957878113 2.6686997414 349.76797485
 726.60000000 90.965591431 2.6692841053 349.81842041
 726.70000000 90.973304749 2.6698684692 349.86883545
 726.80000000 90.981018066 2.6704528332 349.91928101
 726.90000000 90.988731384 2.6797041893 349.96969604
 727.00000000 90.996444702 2.6861240864 350.02014160
 727.10000000 91.004158020 2.6889970303 350.07055664
 727.20000000 91.011871338 2.6886818409 350.12100220
 727.30000000 91.019584656 2.6875391006 350.17141724
 727.40000000 91.027297974 2.6869230270 350.22186279
 727.50000000 91.035003662 2.6875271797 350.27227783
 727.60000000 91.042716980 2.6888468266 350.32272339
 727.70000000 91.050430298 2.6902010441 350.37313843
 727.80000000 91.058143616 2.6911110878 350.42358398
 727.90000000 91.065856934 2.6917090416 350.47399902
 728.00000000 90.967689514 2.6926360130 350.52444458
 728.10000000 90.869522095 2.6947839260 350.57485962
 728.20000000 90.771347046 2.6987819672 350.62527466
 728.30000000 90.673179626 2.7041268349 350.67572021
 728.40000000 90.575004578 2.7043814659 350.72613525
 728.50000000 90.476837158 2.7046360970 350.77658081
 728.60000000 90.477226257 2.7048909664 350.82699585
 728.70000000 90.477622986 2.7051455975 350.87744141
 728.80000000 90.478012085 2.7054002285 350.92785645
 728.90000000 90.478408813 2.7056550980 350.97830200
 729.00000000 90.478797913 2.7059097290 351.02871704
 729.10000000 90.479187012 2.7061643600 351.07916260
 729.20000000 90.479583740 2.7064189911 351.12957764
 729.30000000 90.479972839 2.7066736221 351.18002319
 729.40000000 90.480369568 2.7069284916 351.23043823
 729.50000000 90.480758667 2.7071831226 351.28088379
 729.60000000 90.481147766 2.7049508095 351.33129883
 729.70000000 90.481544495 2.7041368484 351.38174438
