# LAS format log file from PETREL
# Project units are specified as depth units
#==================================================================
~Version information
VERS.   2.0:
WRAP.   NO:
#==================================================================
~Well
STRT .m      20.100000000 :
STOP .m      2623.3000000 :
STEP .m     0.10000000 :
NULL .        -999.250000 :
COMP.           : COMPANY
WELL.  P-130   : WELL
FLD.            : FIELD
LOC.            : LOCATION
SRVC.           : SERVICE COMPANY
DATE.  2014-09-16 16:48:38   : Log Export Date {yyyy-MM-dd HH:mm:ss}
PROV.           : PROVINCE
UWI.      : UNIQUE WELL ID
API.            : API NUMBER
#==================================================================
~Curve
DEPT .m                   : DEPTH
Sonic_despiked .us/ft     : Sonic_despiked
RHOB_despiked .g/cm3      : RHOB_despiked
two-waytime .ms           : two-way time
~Parameter
#==================================================================
~Ascii
# ...
 186.20000000 74.787673950  -999.250000 56.887580872
 186.30000000 74.802452087  -999.250000 56.937091827
 186.40000000 74.817230225  -999.250000 56.986606598
 186.50000000 74.832008362  -999.250000 57.036117554
 186.60000000 74.846786499  -999.250000 57.085632324
 186.70000000 74.861572266  -999.250000 57.135143280
 186.80000000 74.876350403  -999.250000 57.184658051
 186.90000000 74.891128540  -999.250000 57.234169006
 187.00000000 74.905906677  -999.250000 57.283683777
 187.10000000 74.920684814  -999.250000 57.333194733
 187.20000000 74.935470581  -999.250000 57.382709503
 187.30000000 74.950248718  -999.250000 57.432220459
 187.40000000 74.965026855  -999.250000 57.481735229
 187.50000000 74.979804993  -999.250000 57.531246185
 187.60000000 74.994583130  -999.250000 57.580760956
 187.70000000 75.009368896  -999.250000 57.630271912
 187.80000000 75.024147034  -999.250000 57.679786682
 187.90000000 75.038925171  -999.250000 57.729301453
 188.00000000 75.053703308  -999.250000 57.778812408
 188.10000000 75.068481445  -999.250000 57.828327179
 188.20000000 75.083259583  -999.250000 57.877838135
 188.30000000 75.098045349  -999.250000 57.927352905
 188.40000000 75.112823486  -999.250000 57.976863861
 188.50000000 75.127601624  -999.250000 58.026378632
 188.60000000 75.142379761  -999.250000 58.075889587
 188.70000000 75.157157898  -999.250000 58.125404358
 188.80000000 75.171943665  -999.250000 58.174915314
 188.90000000 75.186721802  -999.250000 58.224430084
 189.00000000 75.201499939  -999.250000 58.273941040
 189.10000000 75.216278076  -999.250000 58.323455811
 189.20000000 75.231056213  -999.250000 58.372966766
 189.30000000 75.245841980  -999.250000 58.422481537
 189.40000000 75.260620117  -999.250000 58.471992493
 189.50000000 75.275398254  -999.250000 58.521507263
 189.60000000 75.290176392  -999.250000 58.571018219
 189.70000000 75.304954529  -999.250000 58.620532990
 189.80000000 75.319740295  -999.250000 58.670043945
 189.90000000 75.334518433  -999.250000 58.719558716
 190.00000000 75.349296570  -999.250000 58.769069672
 190.10000000 75.364074707  -999.250000 58.818584442
 190.20000000 75.378852844  -999.250000 58.868095398
 190.30000000 75.393638611  -999.250000 58.917610168
 190.40000000 75.408416748  -999.250000 58.967121124
 190.50000000 75.423194885  -999.250000 59.016635895
 190.60000000 75.087173462  -999.250000 59.066146851
 190.70000000 75.303153992  -999.250000 59.115661621
 190.80000000 75.519134521  -999.250000 59.165176392
 190.90000000 75.443252563  -999.250000 59.214687347
 191.00000000 75.367378235  -999.250000 59.264202118
 191.10000000 75.291496277  -999.250000 59.313713074
 191.20000000 75.215614319  -999.250000 59.363227844
 191.30000000 75.139739990  -999.250000 59.412738800
 191.40000000 75.063858032  -999.250000 59.462253571
 191.50000000 74.696113586  -999.250000 59.511764526
 191.60000000 74.328376770  -999.250000 59.561279297
 191.70000000 73.960632324  -999.250000 59.610790253
 191.80000000 73.592895508  -999.250000 59.660305023
 191.90000000 73.225151062  -999.250000 59.709815979
 192.00000000 73.192649841  -999.250000 59.759330750
 192.10000000 73.160148621  -999.250000 59.808841705
 192.20000000 73.127639771  -999.250000 59.858356476
 192.30000000 73.095138550  -999.250000 59.907867432
 192.40000000 73.062637329  -999.250000 59.957382202
 192.50000000 73.030136108  -999.250000 60.006893158
 192.60000000 72.997634888  -999.250000 60.056407928
 192.70000000 72.965133667  -999.250000 60.105918884
 192.80000000 72.932624817  -999.250000 60.155433655
 192.90000000 72.900123596  -999.250000 60.204944611
 193.00000000 72.867622375  -999.250000 60.254459381
 193.10000000 72.835121155  -999.250000 60.303970337
 193.20000000 72.802619934  -999.250000 60.353485107
 193.30000000 72.770111084  -999.250000 60.402996063
 193.40000000 72.737609863  -999.250000 60.452510834
 193.50000000 72.705108643  -999.250000 60.502021790
 193.60000000 72.672607422  -999.250000 60.551536560
 193.70000000 72.640106201  -999.250000 60.601051331
 193.80000000 72.607604980  -999.250000 60.650562286
 193.90000000 72.575096130  -999.250000 60.700077057
 194.00000000 72.542594910  -999.250000 60.749588013
 194.10000000 72.510093689  -999.250000 60.799102783
 194.20000000 72.209289551  -999.250000 60.848613739
 194.30000000 72.190032959  -999.250000 60.898128510
 194.40000000 72.170776367  -999.250000 60.947639465
 194.50000000 72.151512146  -999.250000 60.997154236
 194.60000000 72.132255554  -999.250000 61.046665192
 194.70000000 72.112998962  -999.250000 61.096179962
 194.80000000 72.093742371  -999.250000 61.145690918
 194.90000000 72.074478149  -999.250000 61.195205688
 195.00000000 72.055221558  -999.250000 61.244716644
 195.10000000 72.035964966  -999.250000 61.294231415
 195.20000000 71.988555908  -999.250000 61.343742371
 195.30000000 71.996459961  -999.250000 61.393257141
 195.40000000 72.004364014  -999.250000 61.442768097
 195.50000000 72.012268066  -999.250000 61.492282867
 195.60000000 72.020172119  -999.250000 61.541793823
 195.70000000 72.028076172  -999.250000 61.591308594
 195.80000000 72.035980225  -999.250000 61.640819550
 195.90000000 72.043884277  -999.250000 61.690334320
 196.00000000 72.051788330  -999.250000 61.739845276
 196.10000000 72.059684753  -999.250000 61.789360046
 196.20000000 72.067588806  -999.250000 61.838871002
 196.30000000 72.075492859  -999.250000 61.888385773
 196.40000000 72.083396912  -999.250000 61.937896729
 196.50000000 72.091300964  -999.250000 61.987411499
 196.60000000 72.099205017  -999.250000 62.036926270
 196.70000000 72.107109070  -999.250000 62.086437225
 196.80000000 72.115013123  -999.250000 62.135951996
 196.90000000 72.122917175  -999.250000 62.185462952
 197.00000000 72.130821228  -999.250000 62.234977722
 197.10000000 72.138725281  -999.250000 62.284488678
 197.20000000 72.146629333  -999.250000 62.334003448
 197.30000000 72.154533386  -999.250000 62.383514404
 197.40000000 72.162437439  -999.250000 62.433029175
 197.50000000 72.170341492  -999.250000 62.482540131
 197.60000000 72.178245544  -999.250000 62.532054901
 197.70000000 72.186149597  -999.250000 62.581565857
 197.80000000 72.194046021  -999.250000 62.631080627
 197.90000000 72.201950073  -999.250000 62.680591583
 198.00000000 72.209854126  -999.250000 62.730106354
 198.10000000 72.217758179  -999.250000 62.779617310
 198.20000000 72.225662231  -999.250000 62.829132080
 198.30000000 72.233566284  -999.250000 62.878643036
 198.40000000 72.241470337  -999.250000 62.928157806
 198.50000000 72.249374390  -999.250000 62.977668762
 198.60000000 72.257278442  -999.250000 63.027183533
 198.70000000 72.335250854  -999.250000 63.076694489
 198.80000000 72.413223267  -999.250000 63.126209259
 198.90000000 72.491195679  -999.250000 63.175720215
 199.00000000 72.324546814  -999.250000 63.225234985
 199.10000000 72.364021301  -999.250000 63.274745941
 199.20000000 72.403488159  -999.250000 63.324260712
 199.30000000 72.442962646  -999.250000 63.373771667
 199.40000000 72.482437134  -999.250000 63.423286438
 199.50000000 72.521911621  -999.250000 63.472797394
 199.60000000 72.561378479  -999.250000 63.522312164
 199.70000000 72.600852966  -999.250000 63.571826935
 199.80000000 72.640327454  -999.250000 63.621337891
 199.90000000 72.679801941  -999.250000 63.670852661
 200.00000000 72.719268799  -999.250000 63.720363617
 200.10000000 72.758743286  -999.250000 63.769878387
 200.20000000 73.099929810  -999.250000 63.819389343
 200.30000000 73.441123962  -999.250000 63.868904114
 200.40000000 73.782310486  -999.250000 63.918415070
 200.50000000 74.123497009  -999.250000 63.967929840
 200.60000000 74.464691162  -999.250000 64.017440796
 200.70000000 74.805877686  -999.250000 64.066955566
 200.80000000 74.866256714  -999.250000 64.116470337
 200.90000000 74.926643372  -999.250000 64.165977478
 201.00000000 74.987022400  -999.250000 64.215492249
 201.10000000 75.047401428  -999.250000 64.265007019
 201.20000000 75.107788086  -999.250000 64.314521790
