# LAS format log file from PETREL
# Project units are specified as depth units
#==================================================================
~Version information
VERS.   2.0:
WRAP.   NO:
#==================================================================
~Well
STRT .m      20.100000000 :
STOP .m      2623.3000000 :
STEP .m     0.10000000 :
NULL .        -999.250000 :
COMP.           : COMPANY
WELL.  P-130   : WELL
FLD.            : FIELD
LOC.            : LOCATION
SRVC.           : SERVICE COMPANY
DATE.  2014-09-16 16:48:38   : Log Export Date {yyyy-MM-dd HH:mm:ss}
PROV.           : PROVINCE
UWI.      : UNIQUE WELL ID
API.            : API NUMBER
#==================================================================
~Curve
DEPT .m                   : DEPTH
Sonic_despiked .us/ft     : Sonic_despiked
RHOB_despiked .g/cm3      : RHOB_despiked
two-waytime .ms           : two-way time
~Parameter
#==================================================================
~Ascii
# ...
 533.50000000 82.887954712 2.7056009769 240.24946594
 533.60000000 82.902862549 2.7087881565 240.30616760
 533.70000000 82.899734497 2.7084240913 240.36288452
 533.80000000 82.896606445 2.7036490440 240.41958618
 533.90000000 82.893478394 2.6986761093 240.47628784
 534.00000000 82.890357971 2.6977500916 240.53298950
 534.10000000 82.887229919 2.7014851570 240.58969116
 534.20000000 82.884101868 2.7054250240 240.64640808
 534.30000000 82.880973816 2.7068998814 240.70310974
 534.40000000 82.877845764 2.7073769569 240.75981140
 534.50000000 82.874717712 2.7100520134 240.81651306
 534.60000000 82.871589661 2.7103583813 240.87321472
 534.70000000 82.868461609 2.7106647491 240.92991638
 534.80000000 82.865341187 2.7109708786 240.98663330
 534.90000000 82.862213135 2.7112772465 241.04333496
 535.00000000 82.859085083 2.7115836143 241.10003662
 535.10000000 82.855957031 2.7118899822 241.15673828
 535.20000000 82.852828979 2.7072219849 241.21343994
 535.30000000 82.849700928 2.7047510147 241.27015686
 535.40000000 82.846572876 2.7040510178 241.32685852
 535.50000000 82.843452454 2.7023649216 241.38356018
 535.60000000 82.840324402 2.6979188919 241.44026184
 535.70000000 82.837196350 2.6913120747 241.49696350
 535.80000000 82.834068298 2.6859850883 241.55368042
 535.90000000 82.830940247 2.6846930981 241.61038208
 536.00000000 82.827812195 2.6885418892 241.66708374
 536.10000000 82.824684143 2.6961832047 241.72378540
 536.20000000 82.821556091 2.7048048973 241.78048706
 536.30000000 82.818435669 2.7123119831 241.83718872
 536.40000000 82.815307617 2.7171730995 241.89390564
 536.50000000 82.812179565 2.7196440697 241.95060730
 536.60000000 82.809051514 2.7201468945 242.00730896
 536.70000000 82.591194153 2.7186069489 242.06401062
 536.80000000 82.373344421 2.7146229744 242.12071228
 536.90000000 82.155487061 2.7061178684 242.17742920
 537.00000000 81.937629700 2.6877100468 242.23413086
 537.10000000 81.719772339 2.6865217686 242.29083252
 537.20000000 82.184539795 2.6853334904 242.34753418
 537.30000000 82.649314880 2.6841452122 242.40423584
 537.40000000 82.604942322 2.6829569340 242.46095276
 537.50000000 82.560569763 2.6817686558 242.51765442
 537.60000000 82.743347168 2.6805803776 242.57435608
 537.70000000 82.719047546 2.6793920994 242.63105774
 537.80000000 82.694747925 2.6782038212 242.68775940
 537.90000000 82.670448303 2.6770155430 242.74446106
 538.00000000 82.646148682 2.6758272648 242.80117798
 538.10000000 82.000617981 2.6746389866 242.85787964
 538.20000000 81.979431152 2.6734507084 242.91458130
 538.30000000 81.958244324 2.6722624302 242.97128296
 538.40000000 81.937057495 2.6710741520 243.02798462
 538.50000000 81.915870667 2.6698858738 243.08470154
 538.60000000 81.894683838 2.6957809925 243.14140320
 538.70000000 81.873497009 2.7134430408 243.19810486
 538.80000000 81.852310181 2.7145042419 243.25480652
 538.90000000 81.831123352 2.7155656815 243.31150818
 539.00000000 81.809936523 2.7166268826 243.36822510
 539.10000000 81.788749695 2.7091069221 243.42492676
 539.20000000 81.767562866 2.7018110752 243.48162842
 539.30000000 81.746376038 2.6971940994 243.53833008
 539.40000000 81.725189209 2.6962180138 243.59503174
 539.50000000 81.704002380 2.6988649368 243.65173340
 539.60000000 81.682815552 2.7039151192 243.70845032
 539.70000000 81.661628723 2.7090868950 243.76515198
 539.80000000 81.640441895 2.7130401134 243.82185364
 539.90000000 81.619255066 2.7145500183 243.87855530
 540.00000000 81.598068237 2.7139208317 243.93525696
 540.10000000 81.576881409 2.7113721371 243.99197388
 540.20000000 81.555694580 2.7074980736 244.04867554
 540.30000000 81.534507751 2.7038750648 244.10537720
 540.40000000 81.758132935 2.7020621300 244.16207886
 540.50000000 81.981750488 2.7036759853 244.21878052
 540.60000000 81.978385925 2.7089810371 244.27549744
 540.70000000 81.975028992 2.7091829777 244.33219910
 540.80000000 81.971664429 2.7093846798 244.38890076
 540.90000000 81.968307495 2.7095866203 244.44560242
 541.00000000 81.964942932 2.7097885609 244.50230408
 541.10000000 81.961585999 2.7099902630 244.55900574
 541.20000000 81.958221436 2.7101922035 244.61572266
 541.30000000 81.954864502 2.7103941441 244.67242432
 541.40000000 81.951499939 2.7105958462 244.72912598
 541.50000000 81.948135376 2.7107977867 244.78582764
 541.60000000 81.944778442 2.7109997272 244.84252930
 541.70000000 81.941413879 2.7112014294 244.89924622
 541.80000000 81.938056946 2.7114033699 244.95594788
 541.90000000 81.934692383 2.7116053104 245.01264954
 542.00000000 81.931335449 2.7118070126 245.06935120
 542.10000000 81.927970886 2.7120089531 245.12605286
 542.20000000 81.924613953 2.7046699524 245.18276978
 542.30000000 81.921249390 2.6975669861 245.23947144
 542.40000000 81.917884827 2.6912729740 245.29617310
 542.50000000 81.914527893 2.6848340034 245.35287476
 542.60000000 81.911163330 2.6751060486 245.40957642
 542.70000000 81.907806396 2.6747982502 245.46627808
 542.80000000 81.904441833 2.6744902134 245.52299500
 542.90000000 81.901084900 2.6741824150 245.57969666
 543.00000000 81.897720337 2.6738746166 245.63639832
 543.10000000 81.894363403 2.6735668182 245.69309998
 543.20000000 81.890998840 2.6732587814 245.74980164
 543.30000000 81.887634277 2.6729509830 245.80651855
 543.40000000 81.884277344 2.6726431847 245.86322021
 543.50000000 81.880912781 2.6723351479 245.91992188
 543.60000000 81.877555847 2.6720273495 245.97662354
 543.70000000 81.874191284 2.6717195511 246.03332520
 543.80000000 81.870834351 2.6714117527 246.09004211
 543.90000000 81.867469788 2.6711037159 246.14674377
 544.00000000 81.864112854 2.6707959175 246.20344543
 544.10000000 81.860748291 2.6712810993 246.26014709
 544.20000000 82.353302002 2.6724839211 246.31684875
 544.30000000 81.837814331 2.6766622066 246.37355042
 544.40000000 82.156066895 2.6842288971 246.43026733
 544.50000000 82.474311829 2.6930580139 246.48696899
 544.60000000 83.411468506 2.7011210918 246.54367065
 544.70000000 84.348617554 2.7057759762 246.60037231
 544.80000000 84.044227600 2.7059950829 246.65707397
 544.90000000 83.739830017 2.7011349201 246.71379089
 545.00000000 83.334083557 2.6905519962 246.77049255
 545.10000000 82.928344727 2.6760580540 246.82719421
 545.20000000 82.522598267 2.6605591774 246.88389587
 545.30000000 82.534652710 2.6639630795 246.94059753
 545.40000000 82.546707153 2.6673669815 246.99731445
 545.50000000 82.558761597 2.6707711220 247.05401611
 545.60000000 82.570816040 2.6741750240 247.11071777
 545.70000000 83.000671387 2.6961379051 247.16741943
 545.80000000 83.430519104 2.6996796131 247.22412109
 545.90000000 83.860366821 2.7032210827 247.28083801
 546.00000000 84.290222168 2.7067627907 247.33753967
 546.10000000 84.720069885 2.7103042603 247.39424133
 546.20000000 83.819694519 2.7138459682 247.45094299
 546.30000000 84.360229492 2.7077250481 247.50764465
 546.40000000 84.900756836 2.7033929825 247.56434631
 546.50000000 85.441291809 2.7009179592 247.62106323
 546.60000000 85.981819153 2.6999628544 247.67776489
 546.70000000 86.522354126 2.6997117996 247.73446655
 546.80000000 86.370796204 2.6996312141 247.79116821
 546.90000000 86.219230652 2.6993448734 247.84786987
 547.00000000 86.067672729 2.6987349987 247.90458679
 547.10000000 85.916107178 2.6981461048 247.96128845
 547.20000000 85.262413025 2.6983840466 248.01799011
 547.30000000 84.608718872 2.7004680634 248.07469177
 547.40000000 86.067390442 2.7044308186 248.13139343
 547.50000000 86.818847656 2.7095839977 248.18811035
 547.60000000 87.570312500 2.7104885578 248.24481201
 547.70000000 87.614562988 2.7113931179 248.30151367
 547.80000000 87.658813477 2.7122974396 248.35821533
 547.90000000 86.968093872 2.7132019997 248.41491699
 548.00000000 86.277381897 2.7068719864 248.47161865
 548.10000000 85.586662292 2.6984550953 248.52833557
 548.20000000 84.895942688 2.6887438297 248.58503723
 548.30000000 85.496803284 2.6790130138 248.64173889
 548.40000000 86.097663879 2.6701378822 248.69844055
 548.50000000 86.698524475 2.6699941158 248.75514221
