# LAS format log file from PETREL
# Project units are specified as depth units
#==================================================================
~Version information
VERS.   2.0:
WRAP.   NO:
#==================================================================
~Well
STRT .m      20.100000000 :
STOP .m      2623.3000000 :
STEP .m     0.10000000 :
NULL .        -999.250000 :
COMP.           : COMPANY
WELL.  P-130   : WELL
FLD.            : FIELD
LOC.            : LOCATION
SRVC.           : SERVICE COMPANY
DATE.  2014-09-16 16:48:38   : Log Export Date {yyyy-MM-dd HH:mm:ss}
PROV.           : PROVINCE
UWI.      : UNIQUE WELL ID
API.            : API NUMBER
#==================================================================
~Curve
DEPT .m                   : DEPTH
Sonic_despiked .us/ft     : Sonic_despiked
RHOB_despiked .g/cm3      : RHOB_despiked
two-waytime .ms           : two-way time
~Parameter
#==================================================================
~Ascii
 20.100000000 77.882194519  -999.250000 -25.93166733
 20.200000000 77.882194519  -999.250000 -25.88157654
 20.300000000 77.882194519  -999.250000 -25.83148575
 20.400000000 77.882194519  -999.250000 -25.78139496
 20.500000000 77.882194519  -999.250000 -25.73130417
 20.600000000 77.882194519  -999.250000 -25.68121147
 20.700000000 77.882194519  -999.250000 -25.63112068
 20.800000000 77.882194519  -999.250000 -25.58102989
 20.900000000 77.882194519  -999.250000 -25.53093910
 21.000000000 77.882194519  -999.250000 -25.48084831
 21.100000000 77.882194519  -999.250000 -25.43075562
 21.200000000 77.882194519  -999.250000 -25.38066483
 21.300000000 77.882194519  -999.250000 -25.33057404
 21.400000000 77.882194519  -999.250000 -25.28048325
 21.500000000 77.882194519  -999.250000 -25.23039055
 21.600000000 77.882194519  -999.250000 -25.18029976
 21.700000000 77.882194519  -999.250000 -25.13020897
 21.800000000 77.882194519  -999.250000 -25.08011818
 21.900000000 77.882194519  -999.250000 -25.03002739
 22.000000000 77.882194519  -999.250000 -24.97993469
 22.100000000 77.882194519  -999.250000 -24.92984390
 22.200000000 77.882194519  -999.250000 -24.87975311
 22.300000000 77.882194519  -999.250000 -24.82966232
 22.400000000 77.882194519  -999.250000 -24.77957153
 22.500000000 77.882194519  -999.250000 -24.72947884
 22.600000000 77.882194519  -999.250000 -24.67938805
 22.700000000 77.882194519  -999.250000 -24.62929726
 22.800000000 77.882194519  -999.250000 -24.57920647
 22.900000000 77.882194519  -999.250000 -24.52911377
 23.000000000 77.882194519  -999.250000 -24.47902298
 23.100000000 77.882194519  -999.250000 -24.42893219
 23.200000000 77.882194519  -999.250000 -24.37884140
 23.300000000 77.882194519  -999.250000 -24.32875061
 23.400000000 77.882194519  -999.250000 -24.27865791
 23.500000000 77.882194519  -999.250000 -24.22856712
 23.600000000 77.882194519  -999.250000 -24.17847633
 23.700000000 77.882194519  -999.250000 -24.12838554
 23.800000000 77.882194519  -999.250000 -24.07829285
 23.900000000 77.882194519  -999.250000 -24.02820206
 24.000000000 77.882194519  -999.250000 -23.97811127
 24.100000000 77.882194519  -999.250000 -23.92802048
 24.200000000 77.882194519  -999.250000 -23.87792969
 24.300000000 77.882194519  -999.250000 -23.82783699
 24.400000000 77.882194519  -999.250000 -23.77774620
 24.500000000 77.882194519  -999.250000 -23.72765541
 24.600000000 77.882194519  -999.250000 -23.67756462
 24.700000000 77.882194519  -999.250000 -23.62747383
 24.800000000 77.882194519  -999.250000 -23.57738113
 24.900000000 77.882194519  -999.250000 -23.52729034
 25.000000000 77.882194519  -999.250000 -23.47719955
 25.100000000 77.882194519  -999.250000 -23.42710876
 25.200000000 77.882194519  -999.250000 -23.37701607
 25.300000000 77.882194519  -999.250000 -23.32692528
 25.400000000 77.882194519  -999.250000 -23.27683449
 25.500000000 77.882194519  -999.250000 -23.22674370
 25.600000000 77.882194519  -999.250000 -23.17665291
 25.700000000 77.882194519  -999.250000 -23.12656021
 25.800000000 77.882194519  -999.250000 -23.07646942
 25.900000000 77.882194519  -999.250000 -23.02637863
 26.000000000 77.882194519  -999.250000 -22.97628784
 26.100000000 77.882194519  -999.250000 -22.92619514
 26.200000000 77.882194519  -999.250000 -22.87610435
 26.300000000 77.882194519  -999.250000 -22.82601357
 26.400000000 77.882194519  -999.250000 -22.77592278
 26.500000000 77.882194519  -999.250000 -22.72583199
 26.600000000 77.882194519  -999.250000 -22.67573929
 26.700000000 77.882194519  -999.250000 -22.62564850
 26.800000000 77.882194519  -999.250000 -22.57555771
 26.900000000 77.882194519  -999.250000 -22.52546692
 27.000000000 77.882194519  -999.250000 -22.47537613
 27.100000000 77.882194519  -999.250000 -22.42528343
 27.200000000 77.882194519  -999.250000 -22.37519264
 27.300000000 77.882194519  -999.250000 -22.32510185
 27.400000000 77.882194519  -999.250000 -22.27501106
 27.500000000 77.882194519  -999.250000 -22.22491837
 27.600000000 77.882194519  -999.250000 -22.17482758
 27.700000000 77.882194519  -999.250000 -22.12473679
 27.800000000 77.882194519  -999.250000 -22.07464600
 27.900000000 77.882194519  -999.250000 -22.02455521
 28.000000000 77.882194519  -999.250000 -21.97446251
 28.100000000 77.882194519  -999.250000 -21.92437172
 28.200000000 77.882194519  -999.250000 -21.87428093
 28.300000000 77.882194519  -999.250000 -21.82419014
 28.400000000 77.882194519  -999.250000 -21.77409935
 28.500000000 77.882194519  -999.250000 -21.72400665
 28.600000000 77.882194519  -999.250000 -21.67391586
 28.700000000 77.882194519  -999.250000 -21.62382507
 28.800000000 77.882194519  -999.250000 -21.57373428
 28.900000000 77.882194519  -999.250000 -21.52364159
 29.000000000 77.882194519  -999.250000 -21.47355080
 29.100000000 77.882194519  -999.250000 -21.42346001
 29.200000000 77.882194519  -999.250000 -21.37336922
 29.300000000 77.882194519  -999.250000 -21.32327843
 29.400000000 77.882194519  -999.250000 -21.27318573
 29.500000000 77.882194519  -999.250000 -21.22309494
 29.600000000 77.882194519  -999.250000 -21.17300415
 29.700000000 77.882194519  -999.250000 -21.12291336
 29.800000000 77.882194519  -999.250000 -21.07282066
 29.900000000 77.882194519  -999.250000 -21.02272987
 30.000000000 77.882194519  -999.250000 -20.97263908
 30.100000000 77.882194519  -999.250000 -20.92254829
 30.200000000 77.882194519  -999.250000 -20.87245750
 30.300000000 77.882194519  -999.250000 -20.82236481
 30.400000000 77.882194519  -999.250000 -20.77227402
 30.500000000 77.882194519  -999.250000 -20.72218323
 30.600000000 77.882194519  -999.250000 -20.67209244
 30.700000000 77.882194519  -999.250000 -20.62200165
 30.800000000 77.882194519  -999.250000 -20.57190895
 30.900000000 77.882194519  -999.250000 -20.52181816
 31.000000000 77.882194519  -999.250000 -20.47172737
 31.100000000 77.882194519  -999.250000 -20.42163658
 31.200000000 77.882194519  -999.250000 -20.37154388
 31.300000000 77.882194519  -999.250000 -20.32145309
 31.400000000 77.882194519  -999.250000 -20.27136230
 31.500000000 77.882194519  -999.250000 -20.22127151
 31.600000000 77.882194519  -999.250000 -20.17118073
 31.700000000 77.882194519  -999.250000 -20.12108803
 31.800000000 77.882194519  -999.250000 -20.07099724
 31.900000000 77.882194519  -999.250000 -20.02090645
 32.000000000 77.882194519  -999.250000 -19.97081566
 32.100000000 77.882194519  -999.250000 -19.92072487
 32.200000000 77.882194519  -999.250000 -19.87063217
 32.300000000 77.882194519  -999.250000 -19.82054138
 32.400000000 77.882194519  -999.250000 -19.77045059
 32.500000000 77.882194519  -999.250000 -19.72035980
 32.600000000 77.882194519  -999.250000 -19.67026711
 32.700000000 77.882194519  -999.250000 -19.62017632
 32.800000000 77.882194519  -999.250000 -19.57008553
 32.900000000 77.882194519  -999.250000 -19.51999474
 33.000000000 77.882194519  -999.250000 -19.46990395
 33.100000000 77.882194519  -999.250000 -19.41981125
 33.200000000 77.882194519  -999.250000 -19.36972046
 33.300000000 77.882194519  -999.250000 -19.31962967
 33.400000000 77.882194519  -999.250000 -19.26953888
 33.500000000 77.882194519  -999.250000 -19.21944618
 33.600000000 77.882194519  -999.250000 -19.16935539
 33.700000000 77.882194519  -999.250000 -19.11926460
 33.800000000 77.882194519  -999.250000 -19.06917381
 33.900000000 77.882194519  -999.250000 -19.01908302
 34.000000000 77.882194519  -999.250000 -18.96899033
 34.100000000 77.882194519  -999.250000 -18.91889954
 34.200000000 77.882194519  -999.250000 -18.86880875
 34.300000000 77.882194519  -999.250000 -18.81871796
 34.400000000 77.882194519  -999.250000 -18.76862717
 34.500000000 77.882194519  -999.250000 -18.71853447
 34.600000000 77.882194519  -999.250000 -18.66844368
 34.700000000 77.882194519  -999.250000 -18.61835289
 34.800000000 77.882194519  -999.250000 -18.56826210
 34.900000000 77.882194519  -999.250000 -18.51816940
 35.000000000 77.882194519  -999.250000 -18.46807861
 35.100000000 77.882194519  -999.250000 -18.41798782
