# LAS format log file from PETREL
# Project units are specified as depth units
#==================================================================
~Version information
VERS.   2.0:
WRAP.   NO:
#==================================================================
~Well
STRT .m      20.100000000 :
STOP .m      2623.3000000 :
STEP .m     0.10000000 :
NULL .        -999.250000 :
COMP.           : COMPANY
WELL.  P-130   : WELL
FLD.            : FIELD
LOC.            : LOCATION
SRVC.           : SERVICE COMPANY
DATE.  2014-09-16 16:48:38   : Log Export Date {yyyy-MM-dd HH:mm:ss}
PROV.           : PROVINCE
UWI.      : UNIQUE WELL ID
API.            : API NUMBER
#==================================================================
~Curve
DEPT .m                   : DEPTH
Sonic_despiked .us/ft     : Sonic_despiked
RHOB_despiked .g/cm3      : RHOB_despiked
two-waytime .ms           : two-way time
~Parameter
#==================================================================
~Ascii
# ...
 1046.9000000 67.120079041 2.6516609192 509.11779785
 1047.0000000 67.293777466 2.6652400494 509.16384888
 1047.1000000 67.467475891 2.6777188778 509.20989990
 1047.2000000 67.115737915 2.6910560131 509.25595093
 1047.3000000 67.731437683 2.7045791149 509.30200195
 1047.4000000 67.807922363 2.7075471878 509.34802246
 1047.5000000 67.884399414 2.7016689777 509.39407349
 1047.6000000 67.960884094 2.6947720051 509.44012451
 1047.7000000 68.037361145 2.6886980534 509.48617554
 1047.8000000 68.113845825 2.6851480007 509.53222656
 1047.9000000 68.190322876 2.6849370003 509.57827759
 1048.0000000 68.227928162 2.6880919933 509.62432861
 1048.1000000 68.265525818 2.6922991276 509.67037964
 1048.2000000 68.303131104 2.6953101158 509.71643066
 1048.3000000 68.262985229 2.6950371265 509.76245117
 1048.4000000 68.222831726 2.6918830872 509.80850220
 1048.5000000 68.182678223 2.6879141331 509.85455322
 1048.6000000 68.142532349 2.6859121323 509.90060425
 1048.7000000 68.102378845 2.6880629063 509.94665527
 1048.8000000 67.338241577 2.6945810318 509.99270630
 1048.9000000 67.400115967 2.7048540115 510.03875732
 1049.0000000 67.461990356 2.7167880535 510.08480835
 1049.1000000 67.523864746 2.7273120880 510.13085938
 1049.2000000 67.585739136 2.7337970734 510.17687988
 1049.3000000 67.647613525 2.7338869572 510.22293091
 1049.4000000 67.709487915 2.7292289734 510.26898193
 1049.5000000 67.771362305 2.7219231129 510.31503296
 1049.6000000 67.833236694 2.7145371437 510.36108398
 1049.7000000 67.895111084 2.7086541653 510.40713501
 1049.8000000 67.956985474 2.7044489384 510.45318604
 1049.9000000 68.018859863 2.7017061710 510.49923706
 1050.0000000 68.080734253 2.7001521587 510.54528809
 1050.1000000 68.142608643 2.7000439167 510.59130859
 1050.2000000 68.204483032 2.7018110752 510.63735962
 1050.3000000 68.266357422 2.7046489716 510.68341064
 1050.4000000 68.328231812 2.7065258026 510.72946167
 1050.5000000 68.390106201 2.7052390575 510.77551270
 1050.6000000 68.451980591 2.6999571323 510.82156372
 1050.7000000 68.513854980 2.6930310726 510.86761475
 1050.8000000 68.510200500 2.6872639656 510.91366577
 1050.9000000 68.506546021 2.6853129864 510.95971680
 1051.0000000 68.609260559 2.6865110397 511.00573730
 1051.1000000 68.374870300 2.6892499924 511.05178833
 1051.2000000 69.259704590 2.6915061474 511.09783936
 1051.3000000 69.337028503 2.6924319267 511.14389038
 1051.4000000 69.414352417 2.6923580170 511.18994141
 1051.5000000 69.491676331 2.6921839714 511.23599243
 1051.6000000 69.569000244 2.6929879189 511.28204346
 1051.7000000 69.646324158 2.6954510212 511.32809448
 1051.8000000 69.723655701 2.6999189854 511.37411499
 1051.9000000 69.800979614 2.7056460381 511.42016602
 1052.0000000 69.834968567 2.7052876949 511.46621704
 1052.1000000 69.868949890 2.7049293518 511.51226807
 1052.2000000 69.902938843 2.7045710087 511.55831909
 1052.3000000 69.936927795 2.7042126656 511.60437012
 1052.4000000 69.970909119 2.7038543224 511.65042114
 1052.5000000 70.004898071 2.7034959793 511.69647217
 1052.6000000 70.038887024 2.6974999905 511.74252319
 1052.7000000 70.072868347 2.6923449039 511.78854370
 1052.8000000 70.106857300 2.6889541149 511.83459473
 1052.9000000 70.106170654 2.6869919300 511.88064575
 1053.0000000 70.105484009 2.6857781410 511.92669678
 1053.1000000 70.104804993 2.6846599579 511.97274780
 1053.2000000 70.104118347 2.6835939884 512.01879883
 1053.3000000 70.103439331 2.6832749844 512.06481934
 1053.4000000 70.102752686 2.6848859787 512.11090088
 1053.5000000 70.102066040 2.6890890598 512.15692139
 1053.6000000 70.101387024 2.6951470375 512.20300293
 1053.7000000 70.100700378 2.7015190125 512.24902344
 1053.8000000 70.100013733 2.7058529854 512.29510498
 1053.9000000 70.099334717 2.7069661617 512.34112549
 1054.0000000 70.098648071 2.7046918869 512.38720703
 1054.1000000 70.097969055 2.6997389793 512.43322754
 1054.2000000 70.097282410 2.6942350864 512.47924805
 1054.3000000 70.096595764 2.6897709370 512.52532959
 1054.4000000 70.095916748 2.6881079674 512.57135010
 1054.5000000 70.095230103 2.6892452240 512.61743164
 1054.6000000 70.094543457 2.6921789646 512.66345215
 1054.7000000 70.093864441 2.6950240135 512.70953369
 1054.8000000 70.093177795 2.6961021423 512.75555420
 1054.9000000 70.092498779 2.6952929497 512.80163574
 1055.0000000 70.091812134 2.6935219765 512.84765625
 1055.1000000 70.465835571 2.6921570301 512.89367676
 1055.2000000 70.475013733 2.6917481422 512.93975830
 1055.3000000 70.484191895 2.6921639442 512.98577881
 1055.4000000 70.493370056 2.6926889420 513.03186035
 1055.5000000 70.502540588 2.6923170090 513.07788086
 1055.6000000 70.511718750 2.6900470257 513.12396240
 1055.7000000 70.520896912 2.6847970486 513.16998291
 1055.8000000 70.530075073 2.6774752140 513.21606445
 1055.9000000 70.553314209 2.6773214340 513.26208496
 1056.0000000 70.576553345 2.6771676540 513.30810547
 1056.1000000 70.599792480 2.6770138741 513.35418701
 1056.2000000 70.540771484 2.6768603325 513.40020752
 1056.3000000 70.543449402 2.6767065525 513.44628906
 1056.4000000 70.546127319 2.6765527725 513.49230957
 1056.5000000 70.548797607 2.6763989925 513.53839111
 1056.6000000 70.551475525 2.6762452126 513.58441162
 1056.7000000 70.554153442 2.6764838696 513.63049316
 1056.8000000 70.556823730 2.6762299538 513.67651367
 1056.9000000 70.559501648 2.6762681007 513.72253418
 1057.0000000 70.562171936 2.6772141457 513.76861572
 1057.1000000 70.564849854 2.6792938709 513.81463623
 1057.2000000 70.567527771 2.6826860905 513.86071777
 1057.3000000 70.570198059 2.6872098446 513.90673828
 1057.4000000 70.572875977 2.6916670799 513.95281982
 1057.5000000 70.575553894 2.6950349808 513.99884033
 1057.6000000 70.578224182 2.6965889931 514.04492188
 1057.7000000 70.580902100 2.6970400810 514.09094238
 1057.8000000 70.583572388 2.6973421574 514.13696289
 1057.9000000 70.586250305 2.6984221935 514.18304443
 1058.0000000 70.588928223 2.7005348206 514.22906494
 1058.1000000 70.591598511 2.7008445263 514.27514648
 1058.2000000 70.594276428 2.7011542320 514.32116699
 1058.3000000 70.596954346 2.7014636993 514.36724854
 1058.4000000 70.599624634 2.7017734051 514.41326904
 1058.5000000 70.602302551 2.7020831108 514.45928955
 1058.6000000 70.604972839 2.6989641190 514.50537109
 1058.7000000 70.607650757 2.6960370541 514.55139160
 1058.8000000 70.610328674 2.6931431293 514.59747314
 1058.9000000 70.612998962 2.6896378994 514.64349365
 1059.0000000 70.615676880 2.6853678226 514.68957520
 1059.1000000 70.618354797 2.6806178093 514.73559570
 1059.2000000 70.621025085 2.6760439873 514.78167725
 1059.3000000 70.623703003 2.6722900867 514.82769775
 1059.4000000 70.626373291 2.6698460579 514.87371826
 1059.5000000 70.629051208 2.6693539619 514.91979980
 1059.6000000 70.631729126 2.6707320213 514.96582031
 1059.7000000 70.634399414 2.6731560230 515.01190186
 1059.8000000 70.637077332 2.6752350330 515.05792236
 1059.9000000 70.639755249 2.6753511429 515.10400391
 1060.0000000 70.642425537 2.6729669571 515.15002441
 1060.1000000 70.645103455 2.6683421135 515.19610596
 1060.2000000 70.647773743 2.6684405804 515.24212646
 1060.3000000 70.650451660 2.6685392857 515.28814697
 1060.4000000 70.577514648 2.6686377525 515.33422852
 1060.5000000 70.504585266 2.6687364578 515.38024902
 1060.6000000 70.431655884 2.6688349247 515.42633057
 1060.7000000 70.413772583 2.6793439388 515.47235107
 1060.8000000 70.395881653 2.6896421909 515.51843262
 1060.9000000 70.377998352 2.6975150108 515.56445313
 1061.0000000 70.360107422 2.7026941776 515.61053467
 1061.1000000 70.342224121 2.7057390213 515.65655518
 1061.2000000 70.324333191 2.7073199749 515.70257568
 1061.3000000 70.306449890 2.7074031830 515.74865723
 1061.4000000 70.288566589 2.7058999538 515.79467773
 1061.5000000 70.270675659 2.7036659718 515.84075928
 1061.6000000 70.252792358 2.7018578053 515.88677979
 1061.7000000 70.234901428 2.7010648251 515.93286133
 1061.8000000 70.217018127 2.7011370659 515.97888184
 1061.9000000 70.199127197 2.7013149261 516.02496338
