# LAS format log file from PETREL
# Project units are specified as depth units
#==================================================================
~Version information
VERS.   2.0:
WRAP.   NO:
#==================================================================
~Well
STRT .m      20.100000000 :
STOP .m      2623.3000000 :
STEP .m     0.10000000 :
NULL .        -999.250000 :
COMP.           : COMPANY
WELL.  P-130   : WELL
FLD.            : FIELD
LOC.            : LOCATION
SRVC.           : SERVICE COMPANY
DATE.  2014-09-16 16:48:38   : Log Export Date {yyyy-MM-dd HH:mm:ss}
PROV.           : PROVINCE
UWI.      : UNIQUE WELL ID
API.            : API NUMBER
#==================================================================
~Curve
DEPT .m                   : DEPTH
Sonic_despiked .us/ft     : Sonic_despiked
RHOB_despiked .g/cm3      : RHOB_despiked
two-waytime .ms           : two-way time
~Parameter
#==================================================================
~Ascii
# ...
 1741.5000000 71.507713318 2.6447529793 842.84399414
 1741.6000000 71.508941650 2.6427271366 842.89001465
 1741.7000000 71.510177612 2.6391489506 842.93597412
 1741.8000000 71.511405945 2.6349418163 842.98199463
 1741.9000000 71.512634277 2.6315419674 843.02801514
 1742.0000000 71.513870239 2.6298329830 843.07397461
 1742.1000000 71.515098572 2.6301980019 843.11999512
 1742.2000000 71.516334534 2.6318030357 843.16601563
 1742.3000000 71.517562866 2.6335899830 843.21197510
 1742.4000000 71.518798828 2.6347270012 843.25799561
 1742.5000000 71.520027161 2.6347839832 843.30401611
 1742.6000000 71.521263123 2.6337590218 843.34997559
 1742.7000000 71.522491455 2.6316819191 843.39599609
 1742.8000000 71.523727417 2.6290318966 843.44201660
 1742.9000000 71.524955750 2.6291291714 843.48797607
 1743.0000000 71.526191711 2.6292266846 843.53399658
 1743.1000000 71.527420044 2.6293239594 843.58001709
 1743.2000000 71.528656006 2.6340990067 843.62597656
 1743.3000000 71.529884338 2.6396219730 843.67199707
 1743.4000000 71.531120300 2.6437618732 843.71801758
 1743.5000000 71.532348633 2.6451570988 843.76397705
 1743.6000000 71.533584595 2.6434490681 843.80999756
 1743.7000000 71.534812927 2.6387758255 843.85601807
 1743.8000000 71.345245361 2.6323189735 843.90197754
 1743.9000000 71.353187561 2.6323430538 843.94799805
 1744.0000000 71.361129761 2.6323673725 843.99401855
 1744.1000000 71.369071960 2.6323914528 844.03997803
 1744.2000000 71.377021790 2.6324155331 844.08599854
 1744.3000000 71.384963989 2.6324396133 844.13201904
 1744.4000000 71.392906189 2.6324639320 844.17797852
 1744.5000000 71.400848389 2.6324880123 844.22399902
 1744.6000000 71.408790588 2.6510238647 844.27001953
 1744.7000000 71.416732788 2.6527328491 844.31597900
 1744.8000000 71.424674988 2.6544415951 844.36199951
 1744.9000000 71.432624817 2.6561505795 844.40802002
 1745.0000000 71.440567017 2.6578595638 844.45397949
 1745.1000000 71.448509216 2.6595683098 844.50000000
 1745.2000000 71.456451416 2.6612772942 844.54602051
 1745.3000000 71.464393616 2.6629862785 844.59197998
 1745.4000000 71.472335815 2.6646950245 844.63800049
 1745.5000000 71.480278015 2.6664040089 844.68402100
 1745.6000000 71.488220215 2.6629478931 844.72998047
 1745.7000000 71.496170044 2.6601831913 844.77600098
 1745.8000000 71.504112244 2.6563620567 844.82202148
 1745.9000000 71.512054443 2.6499090195 844.86798096
 1746.0000000 71.519996643 2.6406641006 844.91400146
 1746.1000000 71.474990845 2.6313619614 844.96002197
 1746.2000000 71.429985046 2.6253859997 845.00598145
 1746.3000000 71.384971619 2.6267800331 845.05200195
 1746.4000000 71.339965820 2.6343390942 845.09802246
 1746.5000000 71.365516663 2.6451320648 845.14398193
 1746.6000000 71.330589294 2.6544129848 845.19000244
 1746.7000000 71.295661926 2.6595399380 845.23602295
 1746.8000000 71.260734558 2.6613121033 845.28198242
 1746.9000000 71.225807190 2.6621661186 845.32800293
 1747.0000000 71.190879822 2.6636478901 845.37402344
 1747.1000000 71.155952454 2.6650681496 845.41998291
 1747.2000000 71.121025085 2.6653401852 845.46600342
 1747.3000000 71.086097717 2.6644918919 845.51202393
 1747.4000000 71.051162720 2.6633360386 845.55798340
 1747.5000000 71.016235352 2.6623139381 845.60400391
 1747.6000000 70.981307983 2.6615529060 845.65002441
 1747.7000000 70.946380615 2.6611440182 845.69598389
 1747.8000000 70.949218750 2.6614470482 845.74200439
 1747.9000000 70.952064514 2.6631679535 845.78802490
 1748.0000000 70.954910278 2.6658949852 845.83398438
 1748.1000000 70.957748413 2.6657853127 845.88000488
 1748.2000000 70.960586548 2.6656756401 845.92602539
 1748.3000000 70.963432312 2.6655659676 845.97198486
 1748.4000000 70.966278076 2.6599469185 846.01800537
 1748.5000000 70.969116211 2.6543359756 846.06402588
 1748.6000000 70.971954346 2.6517040730 846.10998535
 1748.7000000 70.974800110 2.6532340050 846.15600586
 1748.8000000 70.977645874 2.6583011150 846.20202637
 1748.9000000 70.980484009 2.6633119583 846.24798584
 1749.0000000 70.983322144 2.6637930870 846.29400635
 1749.1000000 70.986167908 2.6559469700 846.34002686
 1749.2000000 70.989013672 2.6379199028 846.38598633
 1749.3000000 70.991851807 2.6143960953 846.43200684
 1749.4000000 70.994689941 2.5922040939 846.47802734
 1749.5000000 70.997535706 2.5945398808 846.52398682
 1749.6000000 71.000381470 2.5968759060 846.57000732
 1749.7000000 71.003219604 2.5992116928 846.61602783
 1749.8000000 71.006057739 2.6015477180 846.66198730
 1749.9000000 71.008903503 2.6038835049 846.70800781
 1750.0000000 71.225570679 2.6062195301 846.75402832
 1750.1000000 71.207450867 2.6085553169 846.79998779
 1750.2000000 71.189323425 2.6108913422 846.84600830
 1750.3000000 71.171203613 2.6132271290 846.89202881
 1750.4000000 71.153076172 2.6396789551 846.93798828
 1750.5000000 71.134948730 2.6497828960 846.98400879
 1750.6000000 71.116828918 2.6465160847 847.03002930
 1750.7000000 71.098701477 2.6355800629 847.07598877
 1750.8000000 71.080581665 2.6242499352 847.12200928
 1750.9000000 71.087921143 2.6166310310 847.16802979
 1751.0000000 71.095252991 2.6128969193 847.21398926
 1751.1000000 71.102592468 2.6108319759 847.26000977
 1751.2000000 71.109931946 2.6072270870 847.30603027
 1751.3000000 71.117263794 2.6007440090 847.35198975
 1751.4000000 71.124603271 2.5916311741 847.39801025
 1751.5000000 71.131942749 2.5822930336 847.44396973
 1751.6000000 71.139274597 2.5746598244 847.48999023
 1751.7000000 71.146614075 2.5738475323 847.53601074
 1751.8000000 71.153953552 2.5730352402 847.58197021
 1751.9000000 71.161285400 2.5722227097 847.62799072
 1752.0000000 71.168624878 2.5714104176 847.67401123
 1752.1000000 71.175964355 2.5705981255 847.71997070
 1752.2000000 71.183303833 2.5697858334 847.76599121
 1752.3000000 71.190635681 2.5689735413 847.81201172
 1752.4000000 71.197975159 2.5681610107 847.85797119
 1752.5000000 71.205314636 2.5673487186 847.90399170
 1752.6000000 71.212646484 2.5665364265 847.95001221
 1752.7000000 71.219985962 2.5669567585 847.99597168
 1752.8000000 71.227325439 2.5673768520 848.04199219
 1752.9000000 71.234657288 2.5677971840 848.08801270
 1753.0000000 71.241996765 2.5682172775 848.13397217
 1753.1000000 71.249336243 2.5725381374 848.17999268
 1753.2000000 71.256668091 2.6055610180 848.22601318
 1753.3000000 71.264007568 2.6329579353 848.27197266
 1753.4000000 71.271347046 2.6470100880 848.31799316
 1753.5000000 71.278678894 2.6461455822 848.36401367
 1753.6000000 71.286018372 2.6452810764 848.40997314
 1753.7000000 71.310264587 2.6453759670 848.45599365
 1753.8000000 71.334518433 2.6452674866 848.50201416
 1753.9000000 71.358764648 2.6451590061 848.54797363
 1754.0000000 71.383010864 2.6450507641 848.59399414
 1754.1000000 71.407264709 2.6449422836 848.64001465
 1754.2000000 71.431510925 2.6448338032 848.68597412
 1754.3000000 71.455764771 2.6447253227 848.73199463
 1754.4000000 71.480010986 2.6446168423 848.77801514
 1754.5000000 71.504257202 2.6445083618 848.82397461
 1754.6000000 71.528511047 2.6444001198 848.86999512
 1754.7000000 71.552757263 2.6442916393 848.91601563
 1754.8000000 71.577003479 2.6441831589 848.96197510
 1754.9000000 71.601257324 2.6280667782 849.00799561
 1755.0000000 71.599357605 2.6156780720 849.05401611
 1755.1000000 71.597465515 2.6069121361 849.09997559
 1755.2000000 71.595565796 2.6004691124 849.14599609
 1755.3000000 71.593673706 2.5934021473 849.19201660
 1755.4000000 71.591773987 2.5838191509 849.23797607
 1755.5000000 71.589881897 2.5716178417 849.28399658
 1755.6000000 71.587982178 2.5711390972 849.33001709
 1755.7000000 71.586090088 2.5706603527 849.37597656
 1755.8000000 71.584190369 2.5701818466 849.42199707
 1755.9000000 71.582290649 2.5697031021 849.46801758
 1756.0000000 71.580398560 2.5692243576 849.51397705
 1756.1000000 71.578498840 2.5687456131 849.55999756
 1756.2000000 71.576606750 2.5710558891 849.60601807
 1756.3000000 71.574707031 2.5733661652 849.65197754
 1756.4000000 71.572814941 2.5756766796 849.69799805
 1756.5000000 71.570915222 2.5779869556 849.74401855
