# LAS format log file from PETREL
# Project units are specified as depth units
#==================================================================
~Version information
VERS.   2.0:
WRAP.   NO:
#==================================================================
~Well
STRT .m      20.100000000 :
STOP .m      2623.3000000 :
STEP .m     0.10000000 :
NULL .        -999.250000 :
COMP.           : COMPANY
WELL.  P-130   : WELL
FLD.            : FIELD
LOC.            : LOCATION
SRVC.           : SERVICE COMPANY
DATE.  2014-09-16 16:48:38   : Log Export Date {yyyy-MM-dd HH:mm:ss}
PROV.           : PROVINCE
UWI.      : UNIQUE WELL ID
API.            : API NUMBER
#==================================================================
~Curve
DEPT .m                   : DEPTH
Sonic_despiked .us/ft     : Sonic_despiked
RHOB_despiked .g/cm3      : RHOB_despiked
two-waytime .ms           : two-way time
~Parameter
#==================================================================
~Ascii
# ...
 2088.8000000 68.194404602 2.6762990952 997.78222656
 2088.9000000 68.197311401 2.6793920994 997.82678223
 2089.0000000 68.200225830 2.6843221188 997.87133789
 2089.1000000 68.203140259 2.6906940937 997.91583252
 2089.2000000 68.206047058 2.6979551315 997.96038818
 2089.3000000 68.208961487 2.7048521042 998.00494385
 2089.4000000 68.211875916 2.7107739449 998.04949951
 2089.5000000 68.214782715 2.7108733654 998.09399414
 2089.6000000 68.217697144 2.7109727859 998.13854980
 2089.7000000 68.220611572 2.7110719681 998.18310547
 2089.8000000 68.223518372 2.7111713886 998.22766113
 2089.9000000 68.226432800 2.7112708092 998.27215576
 2090.0000000 68.226737976 2.7113702297 998.31671143
 2090.1000000 68.227043152 2.7114696503 998.36126709
 2090.2000000 68.227348328 2.7115688324 998.40576172
 2090.3000000 68.227653503 2.7116682529 998.45031738
 2090.4000000 68.227958679 2.7117676735 998.49487305
 2090.5000000 68.228263855 2.7118670940 998.53942871
 2090.6000000 68.228569031 2.7119665146 998.58392334
 2090.7000000 68.224136353 2.7120659351 998.62847900
 2090.8000000 68.219711304 2.7121651173 998.67303467
 2090.9000000 68.215286255 2.7122645378 998.71752930
 2091.0000000 68.210853577 2.7123639584 998.76208496
 2091.1000000 68.206420898 2.6973021030 998.80664063
 2091.2000000 68.201995850 2.6775870323 998.85119629
 2091.3000000 68.197563171 2.6531879902 998.89569092
 2091.4000000 68.193138123 2.6498558521 998.94024658
 2091.5000000 68.198844910 2.6465237141 998.98480225
 2091.6000000 68.204551697 2.6431915760 999.02935791
 2091.7000000 68.210258484 2.6398591995 999.07385254
 2091.8000000 68.215972900 2.6365270615 999.11840820
 2091.9000000 68.221679688 2.6331949234 999.16296387
 2092.0000000 68.227386475 2.6298627853 999.20745850
 2092.1000000 68.233093262 2.6265306473 999.25201416
 2092.2000000 68.238800049 2.6231985092 999.29656982
 2092.3000000 68.244506836 2.6198661327 999.34112549
 2092.4000000 68.250221252 2.6165339947 999.38562012
 2092.5000000 68.255928040 2.6132018566 999.43017578
 2092.6000000 68.261634827 2.6381289959 999.47473145
 2092.7000000 68.267341614 2.6645290852 999.51922607
 2092.8000000 68.265220642 2.6892619133 999.56378174
 2092.9000000 68.263099670 2.6906089783 999.60833740
 2093.0000000 68.260978699 2.6919562817 999.65289307
 2093.1000000 68.258857727 2.6933033466 999.69738770
 2093.2000000 68.256744385 2.6946504116 999.74194336
 2093.3000000 68.254623413 2.6959977150 999.78649902
 2093.4000000 68.252502441 2.6973447800 999.83099365
 2093.5000000 68.250381470 2.6986920834 999.87554932
 2093.6000000 68.248260498 2.7000391483 999.92010498
 2093.7000000 68.246139526 2.6825249195 999.96466064
 2093.8000000 68.244018555 2.6683411598 1000.0091553
 2093.9000000 68.241897583 2.6587028503 1000.0537109
 2094.0000000 68.239784241 2.6541898251 1000.0982666
 2094.1000000 68.237663269 2.6527910233 1000.1428223
 2094.2000000 68.235542297 2.6530470848 1000.1873169
 2094.3000000 68.233421326 2.6533019543 1000.2318726
 2094.4000000 68.231300354 2.6523139477 1000.2764282
 2094.5000000 68.211921692 2.6499559879 1000.3209229
 2094.6000000 68.192543030 2.6472179890 1000.3654785
 2094.7000000 68.173156738 2.6460540295 1000.4100342
 2094.8000000 68.153778076 2.6478929520 1000.4545898
 2094.9000000 68.174385071 2.6535458565 1000.4990845
 2095.0000000 68.156997681 2.6623320580 1000.5436401
 2095.1000000 68.139617920 2.6720941067 1000.5881958
 2095.2000000 68.122238159 2.6802389622 1000.6326904
 2095.3000000 68.104850769 2.6795845032 1000.6772461
 2095.4000000 68.087471008 2.6789300442 1000.7218018
 2095.5000000 68.076416016 2.6677849293 1000.7663574
 2095.6000000 68.065361023 2.6508960724 1000.8108521
 2095.7000000 68.054313660 2.6319179535 1000.8554077
 2095.8000000 68.043258667 2.6115801334 1000.8999634
 2095.9000000 68.032211304 2.5881187916 1000.9445190
 2096.0000000 68.021156311 2.5886397362 1000.9890137
 2096.1000000 68.010108948 2.5891609192 1001.0335693
 2096.2000000 67.999053955 2.5896818638 1001.0781250
 2096.3000000 68.002914429 2.5902028084 1001.1226196
 2096.4000000 68.006774902 2.5907239914 1001.1671753
 2096.5000000 68.010635376 2.5912449360 1001.2117310
 2096.6000000 68.014495850 2.5917661190 1001.2562866
 2096.7000000 68.018356323 2.5922870636 1001.3007813
 2096.8000000 68.022216797 2.5928080082 1001.3453369
 2096.9000000 67.970298767 2.5933291912 1001.3898926
 2097.0000000 67.918380737 2.5938501358 1001.4343872
 2097.1000000 67.866462708 2.6107351780 1001.4789429
 2097.2000000 67.814544678 2.6068658829 1001.5234985
 2097.3000000 67.762626648 2.5839850903 1001.5680542
 2097.4000000 67.812110901 2.5840361118 1001.6125488
 2097.5000000 67.861587524 2.5840873718 1001.6571045
 2097.6000000 67.924125671 2.5841383934 1001.7016602
 2097.7000000 67.975471497 2.5841896534 1001.7461548
 2097.8000000 67.965400696 2.5842406750 1001.7907104
 2097.9000000 67.955329895 2.5842919350 1001.8352661
 2098.0000000 67.945259094 2.5843429565 1001.8798218
 2098.1000000 67.935188293 2.6089899540 1001.9243164
 2098.2000000 67.925117493 2.6206679344 1001.9688721
 2098.3000000 67.822921753 2.6223700047 1002.0134277
 2098.4000000 67.720726013 2.6170690060 1002.0579834
 2098.5000000 67.618530273 2.6073560715 1002.1024780
 2098.6000000 67.604454041 2.5966489315 1002.1470337
 2098.7000000 67.590385437 2.5878069401 1002.1915894
 2098.8000000 67.576309204 2.5845279694 1002.2360840
 2098.9000000 67.562232971 2.5862901211 1002.2806396
 2099.0000000 67.548156738 2.5909619331 1002.3251953
 2099.1000000 67.534088135 2.5944571495 1002.3697510
 2099.2000000 67.520011902 2.5936899185 1002.4142456
 2099.3000000 67.505935669 2.5883641243 1002.4588013
 2099.4000000 67.546730042 2.5794379711 1002.5033569
 2099.5000000 67.604705811 2.5683069229 1002.5478516
 2099.6000000 67.662673950 2.5678784847 1002.5924072
 2099.7000000 67.720649719 2.5674498081 1002.6369629
 2099.8000000 67.738853455 2.5670213699 1002.6815186
 2099.9000000 67.757049561 2.5665926933 1002.7260132
 2100.0000000 67.735488892 2.5661642551 1002.7705688
 2100.1000000 67.713920593 2.5657358170 1002.8151245
 2100.2000000 67.692352295 2.5653071404 1002.8596802
 2100.3000000 67.670791626 2.5648787022 1002.9041748
 2100.4000000 67.649223328 2.5644502640 1002.9487305
 2100.5000000 67.627655029 2.5640215874 1002.9932861
 2100.6000000 67.606094360 2.5635931492 1003.0377808
 2100.7000000 67.584526062 2.5631644726 1003.0823364
 2100.8000000 67.562957764 2.5627360344 1003.1268921
 2100.9000000 67.541397095 2.5711932182 1003.1714478
 2101.0000000 67.519828796 2.5820410252 1003.2159424
 2101.1000000 67.498260498 2.5915968418 1003.2604980
 2101.2000000 67.476699829 2.5968368053 1003.3050537
 2101.3000000 67.455131531 2.5965130329 1003.3495483
 2101.4000000 67.433563232 2.5924599171 1003.3941040
 2101.5000000 67.412002563 2.5882661343 1003.4386597
 2101.6000000 67.390434265 2.5863502026 1003.4832153
 2101.7000000 67.368865967 2.5877718925 1003.5277100
 2101.8000000 67.369155884 2.5908200741 1003.5722656
 2101.9000000 67.369445801 2.5934441090 1003.6168213
 2102.0000000 67.369735718 2.5929009914 1003.6613159
 2102.1000000 67.370018005 2.5887451172 1003.7058716
 2102.2000000 67.370307922 2.5814800262 1003.7504272
 2102.3000000 67.370597839 2.5724418163 1003.7949829
 2102.4000000 67.370887756 2.5637729168 1003.8394775
 2102.5000000 67.371177673 2.5662326813 1003.8840332
 2102.6000000 67.371467590 2.5686924458 1003.9285889
 2102.7000000 67.371757507 2.5711522102 1003.9731445
 2102.8000000 67.372039795 2.5736119747 1004.0176392
 2102.9000000 67.372329712 2.5760717392 1004.0621948
 2103.0000000 67.372619629 2.5785315037 1004.1067505
 2103.1000000 67.372909546 2.5809912682 1004.1512451
 2103.2000000 67.373199463 2.5834512711 1004.1958008
 2103.3000000 67.373489380 2.5859110355 1004.2403564
 2103.4000000 67.373771667 2.5883708000 1004.2849121
 2103.5000000 67.374061584 2.5908305645 1004.3294067
 2103.6000000 67.374351501 2.5932903290 1004.3739624
 2103.7000000 67.374641418 2.5957500935 1004.4185181
 2103.8000000 67.374931335 2.5982098579 1004.4630127
