# LAS format log file from PETREL
# Project units are specified as depth units
#==================================================================
~Version information
VERS.   2.0:
WRAP.   NO:
#==================================================================
~Well
STRT .m      20.100000000 :
STOP .m      2623.3000000 :
STEP .m     0.10000000 :
NULL .        -999.250000 :
COMP.           : COMPANY
WELL.  P-130   : WELL
FLD.            : FIELD
LOC.            : LOCATION
SRVC.           : SERVICE COMPANY
DATE.  2014-09-16 16:48:38   : Log Export Date {yyyy-MM-dd HH:mm:ss}
PROV.           : PROVINCE
UWI.      : UNIQUE WELL ID
API.            : API NUMBER
#==================================================================
~Curve
DEPT .m                   : DEPTH
Sonic_despiked .us/ft     : Sonic_despiked
RHOB_despiked .g/cm3      : RHOB_despiked
two-waytime .ms           : two-way time
~Parameter
#==================================================================
~Ascii
# ...
 2436.1000000 73.386505127 2.6225836277 1155.1104736
 2436.2000000 73.377212524 2.6215283871 1155.1583252
 2436.3000000 73.367919922 2.6204729080 1155.2060547
 2436.4000000 73.358627319 2.6194176674 1155.2539063
 2436.5000000 73.349327087 2.6183624268 1155.3017578
 2436.6000000 73.340034485 2.6173069477 1155.3494873
 2436.7000000 73.330741882 2.6162517071 1155.3973389
 2436.8000000 73.321441650 2.6151964664 1155.4451904
 2436.9000000 73.312149048 2.6141409874 1155.4929199
 2437.0000000 73.250640869 2.6130857468 1155.5407715
 2437.1000000 73.189125061 2.6120302677 1155.5886230
 2437.2000000 73.127616882 2.6109750271 1155.6364746
 2437.3000000 72.533134460 2.6277818680 1155.6842041
 2437.4000000 72.525444031 2.6375038624 1155.7320557
 2437.5000000 72.517761230 2.6413431168 1155.7799072
 2437.6000000 72.510070801 2.6434791088 1155.8276367
 2437.7000000 72.502380371 2.6468400955 1155.8754883
 2437.8000000 72.575164795 2.6526019573 1155.9233398
 2437.9000000 72.647949219 2.6608109474 1155.9710693
 2438.0000000 73.042327881 2.6713211536 1156.0189209
 2438.1000000 73.058509827 2.6848340034 1156.0667725
 2438.2000000 73.074691772 2.7019309998 1156.1145020
 2438.3000000 73.090881348 2.7206299305 1156.1623535
 2438.4000000 73.107063293 2.7217545509 1156.2102051
 2438.5000000 73.082939148 2.7228794098 1156.2580566
 2438.6000000 73.058815002 2.7240040302 1156.3057861
 2438.7000000 73.034690857 2.7251288891 1156.3536377
 2438.8000000 73.010574341 2.7262537479 1156.4014893
 2438.9000000 72.986450195 2.7273783684 1156.4492188
 2439.0000000 72.962326050 2.7285032272 1156.4970703
 2439.1000000 72.938201904 2.7296278477 1156.5449219
 2439.2000000 72.914077759 2.7251441479 1156.5926514
 2439.3000000 72.889961243 2.7189040184 1156.6405029
 2439.4000000 72.865837097 2.7114498615 1156.6883545
 2439.5000000 72.841712952 2.7041368484 1156.7360840
 2439.6000000 72.664283752 2.6978378296 1156.7839355
 2439.7000000 72.486854553 2.6928248405 1156.8317871
 2439.8000000 72.309432983 2.6893219948 1156.8796387
 2439.9000000 72.132003784 2.6875491142 1156.9273682
 2440.0000000 72.126396179 2.6882710457 1156.9752197
 2440.1000000 72.120788574 2.6929481030 1157.0230713
 2440.2000000 72.115173340 2.7010610104 1157.0708008
 2440.3000000 72.109565735 2.7115161419 1157.1186523
 2440.4000000 72.103958130 2.7215778828 1157.1665039
 2440.5000000 72.098342896 2.7279310226 1157.2142334
 2440.6000000 72.092735291 2.7289159298 1157.2620850
 2440.7000000 72.087127686 2.7245819569 1157.3099365
 2440.8000000 72.081520081 2.7177810669 1157.3576660
 2440.9000000 72.075912476 2.7111539841 1157.4055176
 2441.0000000 72.070297241 2.7060668468 1157.4533691
 2441.1000000 72.064689636 2.7027928829 1157.5012207
 2441.2000000 72.059082031 2.7008211613 1157.5489502
 2441.3000000 72.053466797 2.6994960308 1157.5968018
 2441.4000000 72.047859192 2.6965749264 1157.6446533
 2441.5000000 72.042251587 2.6880519390 1157.6923828
 2441.6000000 72.036643982 2.6685829163 1157.7402344
 2441.7000000 72.031036377 2.6317729950 1157.7880859
 2441.8000000 72.025421143 2.6332914829 1157.8358154
 2441.9000000 72.019813538 2.6348099709 1157.8836670
 2442.0000000 72.014205933 2.6363284588 1157.9315186
 2442.1000000 72.008598328 2.6378469467 1157.9792480
 2442.2000000 72.002983093 2.6393654346 1158.0270996
 2442.3000000 71.997375488 2.6408839226 1158.0749512
 2442.4000000 72.062515259 2.6424024105 1158.1228027
 2442.5000000 72.127655029 2.6439208984 1158.1705322
 2442.6000000 72.192794800 2.6879069805 1158.2183838
 2442.7000000 72.161903381 2.7105200291 1158.2662354
 2442.8000000 72.131004333 2.7152938843 1158.3139648
 2442.9000000 72.100112915 2.7095179558 1158.3618164
 2443.0000000 72.069221497 2.7008509636 1158.4096680
 2443.1000000 72.038322449 2.6942729950 1158.4573975
 2443.2000000 72.007431030 2.6919040680 1158.5052490
 2443.3000000 71.976539612 2.6952359676 1158.5531006
 2443.4000000 71.945640564 2.7018139362 1158.6008301
 2443.5000000 71.947990417 2.7090640068 1158.6486816
 2443.6000000 71.950340271 2.7138009071 1158.6965332
 2443.7000000 71.952690125 2.7143859863 1158.7443848
 2443.8000000 71.955039978 2.7109870911 1158.7921143
 2443.9000000 71.957389832 2.7052338123 1158.8399658
 2444.0000000 71.959739685 2.7003018856 1158.8878174
 2444.1000000 71.962089539 2.6983587742 1158.9355469
 2444.2000000 71.964439392 2.7002620697 1158.9833984
 2444.3000000 71.966781616 2.7049999237 1159.0312500
 2444.4000000 71.969131470 2.7101850510 1159.0789795
 2444.5000000 71.971481323 2.7137370110 1159.1268311
 2444.6000000 71.973831177 2.7139699459 1159.1746826
 2444.7000000 71.976181030 2.7115108967 1159.2224121
 2444.8000000 71.978530884 2.7073509693 1159.2702637
 2444.9000000 71.980880737 2.7027018070 1159.3181152
 2445.0000000 71.983230591 2.6982390881 1159.3659668
 2445.1000000 71.985580444 2.6942770481 1159.4136963
 2445.2000000 72.048873901 2.6912479401 1159.4615479
 2445.3000000 72.112167358 2.6895179749 1159.5093994
 2445.4000000 72.175468445 2.6894230843 1159.5571289
 2445.5000000 72.238761902 2.6913459301 1159.6049805
 2445.6000000 72.302055359 2.6949079037 1159.6528320
 2445.7000000 72.365348816 2.6989810467 1159.7005615
 2445.8000000 72.428642273 2.7018401623 1159.7484131
 2445.9000000 72.491935730 2.7014629841 1159.7962646
 2446.0000000 72.555229187 2.6974341869 1159.8439941
 2446.1000000 72.560546875 2.6903378963 1159.8918457
 2446.2000000 72.565856934 2.6819498539 1159.9396973
 2446.3000000 72.513175964 2.6745691299 1159.9875488
 2446.4000000 72.460494995 2.6697452068 1160.0352783
 2446.5000000 72.407821655 2.6694331169 1160.0831299
 2446.6000000 72.355148315 2.6735479832 1160.1309814
 2446.7000000 72.302467346 2.6816298962 1160.1787109
 2446.8000000 72.249786377 2.6920640469 1160.2265625
 2446.9000000 72.197113037 2.7014260292 1160.2744141
 2447.0000000 72.210479736 2.7068219185 1160.3221436
 2447.1000000 72.223854065 2.7050950527 1160.3699951
 2447.2000000 72.237220764 2.6929860115 1160.4178467
 2447.3000000 72.250587463 2.6654751301 1160.4655762
 2447.4000000 72.263954163 2.6130709648 1160.5134277
 2447.5000000 72.277328491 2.6129975319 1160.5612793
 2447.6000000 72.290695190 2.6129240990 1160.6091309
 2447.7000000 72.304061890 2.6128504276 1160.6568604
 2447.8000000 72.317436218 2.6127769947 1160.7047119
 2447.9000000 72.330802917 2.6127035618 1160.7525635
 2448.0000000 72.344169617 2.6126298904 1160.8002930
 2448.1000000 72.357543945 2.6125564575 1160.8481445
 2448.2000000 72.370910645 2.6124830246 1160.8959961
 2448.3000000 72.384277344 2.6124095917 1160.9437256
 2448.4000000 72.397644043 2.6123361588 1160.9915771
 2448.5000000 72.411018372 2.6122624874 1161.0394287
 2448.6000000 72.424385071 2.6121890545 1161.0872803
 2448.7000000 72.461051941 2.6121156216 1161.1350098
 2448.8000000 72.497718811 2.6120419502 1161.1828613
 2448.9000000 72.534385681 2.6119685173 1161.2307129
 2449.0000000 72.571052551 2.6118950844 1161.2784424
 2449.1000000 72.607719421 2.6529920101 1161.3262939
 2449.2000000 72.644378662 2.6743330956 1161.3741455
 2449.3000000 72.681045532 2.6815090179 1161.4218750
 2449.4000000 72.717712402 2.6785309315 1161.4697266
 2449.5000000 72.754379272 2.6708149910 1161.5175781
 2449.6000000 72.791046143 2.6619122028 1161.5653076
 2449.7000000 72.827713013 2.6560089588 1161.6131592
 2449.8000000 72.864372253 2.6546750069 1161.6610107
 2449.9000000 72.901039124 2.6573278904 1161.7088623
 2450.0000000 72.937705994 2.6616630554 1161.7565918
 2450.1000000 72.974372864 2.6643588543 1161.8044434
 2450.2000000 73.100540161 2.6634719372 1161.8522949
 2450.3000000 73.226707458 2.6581890583 1161.9000244
 2450.4000000 73.352882385 2.6504318714 1161.9478760
 2450.5000000 73.479049683 2.6437070370 1161.9957275
 2450.6000000 73.654235840 2.6413788795 1162.0434570
 2450.7000000 73.671203613 2.6445519924 1162.0913086
 2450.8000000 73.688163757 2.6504700184 1162.1391602
 2450.9000000 73.705131531 2.6566088200 1162.1868896
 2451.0000000 73.722091675 2.6622390747 1162.2347412
 2451.1000000 73.739059448 2.6689720154 1162.2825928
