# LAS format log file from PETREL
# Project units are specified as depth units
#==================================================================
~Version information
VERS.   2.0:
WRAP.   NO:
#==================================================================
~Well
STRT .m      20.100000000 :
STOP .m      2623.3000000 :
STEP .m     0.10000000 :
NULL .        -999.250000 :
COMP.           : COMPANY
WELL.  P-130   : WELL
FLD.            : FIELD
LOC.            : LOCATION
SRVC.           : SERVICE COMPANY
DATE.  2014-09-16 16:48:38   : Log Export Date {yyyy-MM-dd HH:mm:ss}
PROV.           : PROVINCE
UWI.      : UNIQUE WELL ID
API.            : API NUMBER
#==================================================================
~Curve
DEPT .m                   : DEPTH
Sonic_despiked .us/ft     : Sonic_despiked
RHOB_despiked .g/cm3      : RHOB_despiked
two-waytime .ms           : two-way time
~Parameter
#==================================================================
~Ascii
# ...
 1394.2000000 76.498352051 2.6824216843 678.80914307
 1394.3000000 76.374267578 2.6827020645 678.86010742
 1394.4000000 76.250175476 2.6829824448 678.91101074
 1394.5000000 76.126091003 2.6832625866 678.96197510
 1394.6000000 76.002006531 2.6835429668 679.01287842
 1394.7000000 75.877922058 2.6763601303 679.06384277
 1394.8000000 75.753837585 2.6723749638 679.11474609
 1394.9000000 75.629745483 2.6715259552 679.16564941
 1395.0000000 75.505661011 2.6728711128 679.21661377
 1395.1000000 77.612449646 2.6740019321 679.26751709
 1395.2000000 76.886817932 2.6726379395 679.31848145
 1395.3000000 76.161193848 2.6677529812 679.36938477
 1395.4000000 75.435562134 2.6595511436 679.42034912
 1395.5000000 74.709930420 2.6503291130 679.47125244
 1395.6000000 74.722633362 2.6417639256 679.52215576
 1395.7000000 74.735336304 2.6354730129 679.57312012
 1395.8000000 74.748031616 2.6306459904 679.62402344
 1395.9000000 74.760734558 2.6148850918 679.67498779
 1396.0000000 75.531578064 2.5940990448 679.72589111
 1396.1000000 76.330757141 2.5731649399 679.77685547
 1396.2000000 76.202095032 2.5739290714 679.82775879
 1396.3000000 76.073425293 2.5746934414 679.87866211
 1396.4000000 75.944763184 2.5754575729 679.92962646
 1396.5000000 75.816101074 2.5762219429 679.98052979
 1396.6000000 75.687431335 2.5769860744 680.03149414
 1396.7000000 75.558769226 2.5777504444 680.08239746
 1396.8000000 75.430107117 2.5785145760 680.13336182
 1396.9000000 75.301437378 2.5792789459 680.18426514
 1397.0000000 75.172775269 2.5800430775 680.23522949
 1397.1000000 75.044113159 2.5808074474 680.28613281
 1397.2000000 74.915443420 2.5815715790 680.33703613
 1397.3000000 74.786781311 2.5823359489 680.38800049
 1397.4000000 74.658111572 2.5831000805 680.43890381
 1397.5000000 74.529449463 2.5838644505 680.48986816
 1397.6000000 74.400787354 2.5846285820 680.54077148
 1397.7000000 74.272117615 2.5853929520 680.59173584
 1397.8000000 74.143455505 2.5861570835 680.64263916
 1397.9000000 74.014793396 2.6161389351 680.69354248
 1398.0000000 73.886123657 2.6355669498 680.74450684
 1398.1000000 73.757461548 2.6477298737 680.79541016
 1398.2000000 73.590705872 2.6551840305 680.84637451
 1398.3000000 73.423957825 2.6573390961 680.89727783
 1398.4000000 73.257209778 2.6523649693 680.94824219
 1398.5000000 73.090454102 2.6392359734 680.99914551
 1398.6000000 72.923706055 2.6207928658 681.05004883
 1398.7000000 72.859603882 2.6048440933 681.10101318
 1398.8000000 72.795501709 2.5972471237 681.15191650
 1398.9000000 72.731399536 2.6035799980 681.20288086
 1399.0000000 72.667297363 2.6220719814 681.25378418
 1399.1000000 72.603195190 2.6492190361 681.30474854
 1399.2000000 72.539093018 2.6794879436 681.35565186
 1399.3000000 72.474990845 2.6988329887 681.40661621
 1399.4000000 72.410888672 2.7011101246 681.45751953
 1399.5000000 72.346786499 2.7002151012 681.50842285
 1399.6000000 72.282684326 2.6975719929 681.55938721
 1399.7000000 72.218582153 2.6937050819 681.61029053
 1399.8000000 72.186065674 2.6890640259 681.66125488
 1399.9000000 72.153549194 2.6845450401 681.71215820
 1400.0000000 72.121032715 2.6810238361 681.76312256
 1400.1000000 72.088523865 2.6789529324 681.81402588
 1400.2000000 72.056007385 2.6784961224 681.86492920
 1400.3000000 72.023490906 2.6790020466 681.91589355
 1400.4000000 71.990974426 2.6800100803 681.96679688
 1400.5000000 72.147987366 2.6808321476 682.01776123
 1400.6000000 72.105621338 2.6807470322 682.06866455
 1400.7000000 72.063255310 2.6793668270 682.11962891
 1400.8000000 72.020889282 2.6767318249 682.17053223
 1400.9000000 71.978515625 2.6737399101 682.22143555
 1401.0000000 71.936149597 2.6713600159 682.27239990
 1401.1000000 71.893783569 2.6704659462 682.32330322
 1401.2000000 71.851417542 2.6715300083 682.37426758
 1401.3000000 71.809051514 2.6743609905 682.42517090
 1401.4000000 71.766677856 2.6786971092 682.47613525
 1401.5000000 71.762702942 2.6839628220 682.52703857
 1401.6000000 71.758728027 2.6892600060 682.57800293
 1401.7000000 71.754753113 2.6938269138 682.62890625
 1401.8000000 71.750778198 2.6969549656 682.67980957
 1401.9000000 71.746803284 2.6987738609 682.73077393
 1402.0000000 71.742828369 2.6999120712 682.78167725
 1402.1000000 71.738853455 2.7011969090 682.83264160
 1402.2000000 71.734878540 2.7027850151 682.88354492
 1402.3000000 71.730903625 2.7040009499 682.93450928
 1402.4000000 71.726928711 2.7035958767 682.98541260
 1402.5000000 71.722953796 2.7008330822 683.03631592
 1402.6000000 71.718978882 2.6956760883 683.08728027
 1402.7000000 71.715003967 2.6882119179 683.13818359
 1402.8000000 71.711029053 2.6791899204 683.18914795
 1402.9000000 71.707054138 2.6700479984 683.24005127
 1403.0000000 71.703079224 2.6625730991 683.29101563
 1403.1000000 71.699104309 2.6588659286 683.34191895
 1403.2000000 71.695129395 2.6590399742 683.39282227
 1403.3000000 71.691154480 2.6623740196 683.44378662
 1403.4000000 71.687171936 2.6677911282 683.49468994
 1403.5000000 71.683197021 2.6715719700 683.54565430
 1403.6000000 71.679222107 2.6691288948 683.59655762
 1403.7000000 71.675247192 2.6646978855 683.64752197
 1403.8000000 71.671272278 2.6598448753 683.69842529
 1403.9000000 71.667297363 2.6546890736 683.74938965
 1404.0000000 71.663322449 2.6489431858 683.80029297
 1404.1000000 71.659347534 2.6414809227 683.85119629
 1404.2000000 71.655372620 2.6303839684 683.90216064
 1404.3000000 71.651397705 2.6122779846 683.95306396
 1404.4000000 71.647422791 2.5838329792 684.00402832
 1404.5000000 71.643447876 2.5805387497 684.05493164
 1404.6000000 71.639472961 2.5772445202 684.10589600
 1404.7000000 71.635498047 2.5739502907 684.15679932
 1404.8000000 71.631523132 2.5706560612 684.20770264
 1404.9000000 71.627548218 2.5673618317 684.25866699
 1405.0000000 71.623573303 2.5640673637 684.30957031
 1405.1000000 71.619598389 2.5607731342 684.36053467
 1405.2000000 71.615623474 2.5574789047 684.41143799
 1405.3000000 71.611648560 2.5541846752 684.46240234
 1405.4000000 71.693908691 2.5508904457 684.51330566
 1405.5000000 71.776168823 2.5475962162 684.56420898
 1405.6000000 71.858428955 2.5443019867 684.61517334
 1405.7000000 71.806823730 2.6025960445 684.66607666
 1405.8000000 71.755218506 2.6437439919 684.71704102
 1405.9000000 71.703613281 2.6666870117 684.76794434
 1406.0000000 71.652000427 2.6774141788 684.81890869
 1406.1000000 71.600395203 2.6827118397 684.86981201
 1406.2000000 71.610466003 2.6854031086 684.92077637
 1406.3000000 71.620529175 2.6861879826 684.97167969
 1406.4000000 71.630599976 2.6845691204 685.02258301
 1406.5000000 71.640670776 2.6795120239 685.07354736
 1406.6000000 71.650741577 2.6701259613 685.12445068
 1406.7000000 71.660804749 2.6590099335 685.17541504
 1406.8000000 71.670875549 2.6489310265 685.22631836
 1406.9000000 71.680946350 2.6432929039 685.27728271
 1407.0000000 71.691017151 2.6425199509 685.32818604
 1407.1000000 71.701080322 2.6451220512 685.37908936
 1407.2000000 71.711151123 2.6486101151 685.43005371
 1407.3000000 71.721221924 2.6505010128 685.48095703
 1407.4000000 71.731292725 2.6498858929 685.53192139
 1407.5000000 71.741355896 2.6467027664 685.58282471
 1407.6000000 71.751426697 2.6418511868 685.63378906
 1407.7000000 71.761497498 2.6368100643 685.68469238
 1407.8000000 71.771560669 2.6332499981 685.73559570
 1407.9000000 71.781631470 2.6336507797 685.78656006
 1408.0000000 71.791702271 2.6391069889 685.83746338
 1408.1000000 71.801773071 2.6497972012 685.88842773
 1408.2000000 71.811836243 2.6645119190 685.93933105
 1408.3000000 71.821907043 2.6642892361 685.99029541
 1408.4000000 71.831977844 2.6640663147 686.04119873
 1408.5000000 71.842048645 2.6638436317 686.09216309
 1408.6000000 71.852111816 2.6636209488 686.14306641
 1408.7000000 71.862182617 2.6633982658 686.19396973
 1408.8000000 71.917480469 2.6631755829 686.24493408
 1408.9000000 71.972778320 2.6629526615 686.29583740
 1409.0000000 72.028076172 2.6627299786 686.34680176
 1409.1000000 72.083374023 2.6355049610 686.39770508
 1409.2000000 72.137199402 2.5995779037 686.44866943
