# LAS format log file from PETREL
# Project units are specified as depth units
#==================================================================
~Version information
VERS.   2.0:
WRAP.   NO:
#==================================================================
~Well
STRT .m      20.100000000 :
STOP .m      2623.3000000 :
STEP .m     0.10000000 :
NULL .        -999.250000 :
COMP.           : COMPANY
WELL.  P-130   : WELL
FLD.            : FIELD
LOC.            : LOCATION
SRVC.           : SERVICE COMPANY
DATE.  2014-09-16 16:48:38   : Log Export Date {yyyy-MM-dd HH:mm:ss}
PROV.           : PROVINCE
UWI.      : UNIQUE WELL ID
API.            : API NUMBER
#==================================================================
~Curve
DEPT .m                   : DEPTH
Sonic_despiked .us/ft     : Sonic_despiked
RHOB_despiked .g/cm3      : RHOB_despiked
two-waytime .ms           : two-way time
~Parameter
#==================================================================
~Ascii
# ...
 1575.4000000 69.759506226 2.6407880783 765.99102783
 1575.5000000 69.769317627 2.6407940388 766.03802490
 1575.6000000 69.779121399 2.6425828934 766.08502197
 1575.7000000 69.788925171 2.6447000504 766.13201904
 1575.8000000 69.798728943 2.6455700397 766.17901611
 1575.9000000 69.808532715 2.6444418430 766.22601318
 1576.0000000 69.818344116 2.6421060562 766.27301025
 1576.1000000 69.828147888 2.6403160095 766.32000732
 1576.2000000 69.837951660 2.6402599812 766.36700439
 1576.3000000 69.847755432 2.6424798965 766.41400146
 1576.4000000 69.857559204 2.6461760998 766.46099854
 1576.5000000 69.867370605 2.6508209705 766.50799561
 1576.6000000 69.877174377 2.6559789181 766.55499268
 1576.7000000 69.886978149 2.6609461308 766.60198975
 1576.8000000 70.205802917 2.6648778915 766.64898682
 1576.9000000 70.508468628 2.6661708355 766.69598389
 1577.0000000 70.938545227 2.6636431217 766.74298096
 1577.1000000 71.359779358 2.6569008827 766.78997803
 1577.2000000 71.442260742 2.6463799477 766.83697510
 1577.3000000 71.524734497 2.6344330311 766.88397217
 1577.4000000 71.607215881 2.6236841679 766.93103027
 1577.5000000 71.689689636 2.6163191795 766.97802734
 1577.6000000 71.772171021 2.6140921116 767.02502441
 1577.7000000 71.725234985 2.6170568466 767.07202148
 1577.8000000 71.753425598 2.6252241135 767.11901855
 1577.9000000 71.781623840 2.6378579140 767.16601563
 1578.0000000 71.782531738 2.6518621445 767.21301270
 1578.1000000 71.915733337 2.6647090912 767.26000977
 1578.2000000 71.893478394 2.6640267372 767.30700684
 1578.3000000 71.912681580 2.6633443832 767.35400391
 1578.4000000 71.985839844 2.6626617908 767.40100098
 1578.5000000 72.057464600 2.6619794369 767.44799805
 1578.6000000 72.078727722 2.6612970829 767.49499512
 1578.7000000 72.099998474 2.6481010914 767.54199219
 1578.8000000 72.121261597 2.6363167763 767.58898926
 1578.9000000 72.142532349 2.6298148632 767.63598633
 1579.0000000 72.163795471 2.6295890808 767.68298340
 1579.1000000 72.185066223 2.6347529888 767.72998047
 1579.2000000 72.206329346 2.6418678761 767.77697754
 1579.3000000 72.227600098 2.6464679241 767.82397461
 1579.4000000 72.248863220 2.6446759701 767.87097168
 1579.5000000 72.270133972 2.6315171719 767.91802979
 1579.6000000 72.291397095 2.6062290668 767.96502686
 1579.7000000 72.312660217 2.5675311089 768.01202393
 1579.8000000 72.333930969 2.5665194988 768.05902100
 1579.9000000 72.355194092 2.5655078888 768.10601807
 1580.0000000 72.376464844 2.5644962788 768.15301514
 1580.1000000 72.397727966 2.5634846687 768.20001221
 1580.2000000 72.418998718 2.5624730587 768.24700928
 1580.3000000 72.440261841 2.5614614487 768.29400635
 1580.4000000 72.461532593 2.5604498386 768.34100342
 1580.5000000 72.482795715 2.5594382286 768.38800049
 1580.6000000 72.504066467 2.5584266186 768.43499756
 1580.7000000 72.525329590 2.5574150085 768.48199463
 1580.8000000 72.546592712 2.5564033985 768.52899170
 1580.9000000 72.567863464 2.5553917885 768.57598877
 1581.0000000 72.589126587 2.5543801785 768.62298584
 1581.1000000 72.610397339 2.5533685684 768.66998291
 1581.2000000 72.631660461 2.5523567200 768.71697998
 1581.3000000 72.652931213 2.5513451099 768.76397705
 1581.4000000 72.674194336 2.5503334999 768.81097412
 1581.5000000 72.695465088 2.5493218899 768.85797119
 1581.6000000 72.716728210 2.5483102798 768.90502930
 1581.7000000 72.737998962 2.5472986698 768.95202637
 1581.8000000 72.759262085 2.5462870598 768.99902344
 1581.9000000 72.731758118 2.5452754498 769.04602051
 1582.0000000 72.704254150 2.5442638397 769.09301758
 1582.1000000 72.711906433 2.5432522297 769.14001465
 1582.2000000 72.719558716 2.5422406197 769.18701172
 1582.3000000 72.727210999 2.5412290096 769.23400879
 1582.4000000 72.734863281 2.5402173996 769.28100586
 1582.5000000 72.742523193 2.5392057896 769.32800293
 1582.6000000 72.750175476 2.5381941795 769.37500000
 1582.7000000 72.757827759 2.5391201973 769.42199707
 1582.8000000 72.765480042 2.5923099518 769.46899414
 1582.9000000 72.773132324 2.6150171757 769.51599121
 1583.0000000 72.750122070 2.6032819748 769.56298828
 1583.1000000 72.727104187 2.5790648460 769.60998535
 1583.2000000 72.739807129 2.5580520630 769.65698242
 1583.3000000 72.752502441 2.5497739315 769.70397949
 1583.4000000 72.765205383 2.5545279980 769.75097656
 1583.5000000 72.777900696 2.5695300102 769.79797363
 1583.6000000 72.777099609 2.5922548771 769.84497070
 1583.7000000 72.776298523 2.6182110310 769.89202881
 1583.8000000 72.775497437 2.6425380707 769.93902588
 1583.9000000 72.774703979 2.6426796913 769.98602295
 1584.0000000 72.773902893 2.6428213120 770.03302002
 1584.1000000 72.773101807 2.6429629326 770.08001709
 1584.2000000 72.772300720 2.6431045532 770.12701416
 1584.3000000 72.771499634 2.6432461739 770.17401123
 1584.4000000 72.770698547 2.6433877945 770.22100830
 1584.5000000 72.769897461 2.6435294151 770.26800537
 1584.6000000 72.769096375 2.6436710358 770.31500244
 1584.7000000 72.768295288 2.6438126564 770.36199951
 1584.8000000 72.767501831 2.6439542770 770.40899658
 1584.9000000 72.766700745 2.6440958977 770.45599365
 1585.0000000 72.765899658 2.6369900703 770.50299072
 1585.1000000 72.765098572 2.6358578205 770.54998779
 1585.2000000 72.764297485 2.6408951283 770.59698486
 1585.3000000 72.763496399 2.6491849422 770.64398193
 1585.4000000 72.762695313 2.6479971409 770.69097900
 1585.5000000 72.761901855 2.6468093395 770.73797607
 1585.6000000 72.761100769 2.6456215382 770.78497314
 1585.7000000 72.760299683 2.6444337368 770.83197021
 1585.8000000 72.759498596 2.6432459354 770.87902832
 1585.9000000 72.758697510 2.6420581341 770.92602539
 1586.0000000 72.738998413 2.6312661171 770.97302246
 1586.1000000 72.708450317 2.6238069534 771.02001953
 1586.2000000 72.677902222 2.6228578091 771.06701660
 1586.3000000 72.647354126 2.6271309853 771.11401367
 1586.4000000 72.616813660 2.6332571507 771.16101074
 1586.5000000 72.586265564 2.6353850365 771.20800781
 1586.6000000 72.555717468 2.6284627914 771.25500488
 1586.7000000 72.525169373 2.6105370522 771.30200195
 1586.8000000 72.557754517 2.5806140900 771.34899902
 1586.9000000 72.590339661 2.5801093578 771.39599609
 1587.0000000 72.622924805 2.5796048641 771.44299316
 1587.1000000 72.655509949 2.5791001320 771.48999023
 1587.2000000 72.688095093 2.5785956383 771.53698730
 1587.3000000 72.536003113 2.5780909061 771.58398438
 1587.4000000 72.383903503 2.5775864124 771.63098145
 1587.5000000 72.439987183 2.5770816803 771.67797852
 1587.6000000 72.461631775 2.5765771866 771.72497559
 1587.7000000 72.447608948 2.5760724545 771.77197266
 1587.8000000 72.478225708 2.5755679607 771.81896973
 1587.9000000 72.508842468 2.5750632286 771.86602783
 1588.0000000 72.539459229 2.5745587349 771.91302490
 1588.1000000 72.570083618 2.5740540028 771.96002197
 1588.2000000 72.600700378 2.5984139442 772.00701904
 1588.3000000 72.631317139 2.6212170124 772.05401611
 1588.4000000 72.617462158 2.6422410011 772.10101318
 1588.5000000 72.603607178 2.6593978405 772.14801025
 1588.6000000 72.589752197 2.6678731441 772.19500732
 1588.7000000 72.575897217 2.6685140133 772.24200439
 1588.8000000 72.562042236 2.6674261093 772.28900146
 1588.9000000 72.548187256 2.6677119732 772.33599854
 1589.0000000 72.515571594 2.6666307449 772.38299561
 1589.1000000 72.482963562 2.6655495167 772.42999268
 1589.2000000 72.450347900 2.6644682884 772.47698975
 1589.3000000 72.417732239 2.6633870602 772.52398682
 1589.4000000 72.385116577 2.6623058319 772.57098389
 1589.5000000 72.352508545 2.6281709671 772.61798096
 1589.6000000 72.319892883 2.5748040676 772.66497803
 1589.7000000 72.287277222 2.5758461952 772.71197510
 1589.8000000 72.254669189 2.5768883228 772.75897217
 1589.9000000 72.222053528 2.5779304504 772.80603027
 1590.0000000 72.143798828 2.5789725780 772.85302734
 1590.1000000 72.123367310 2.5800147057 772.90002441
 1590.2000000 72.102928162 2.5810568333 772.94702148
 1590.3000000 72.082496643 2.5820991993 772.99401855
 1590.4000000 72.062065125 2.5831413269 773.04101563
