# LAS format log file from PETREL
# Project units are specified as depth units
#==================================================================
~Version information
VERS.   2.0:
WRAP.   NO:
#==================================================================
~Well
STRT .m      20.100000000 :
STOP .m      2623.3000000 :
STEP .m     0.10000000 :
NULL .        -999.250000 :
COMP.           : COMPANY
WELL.  P-130   : WELL
FLD.            : FIELD
LOC.            : LOCATION
SRVC.           : SERVICE COMPANY
DATE.  2014-09-16 16:48:38   : Log Export Date {yyyy-MM-dd HH:mm:ss}
PROV.           : PROVINCE
UWI.      : UNIQUE WELL ID
API.            : API NUMBER
#==================================================================
~Curve
DEPT .m                   : DEPTH
Sonic_despiked .us/ft     : Sonic_despiked
RHOB_despiked .g/cm3      : RHOB_despiked
two-waytime .ms           : two-way time
~Parameter
#==================================================================
~Ascii
# ...
 880.80000000 85.913909912 2.6152832508 428.93948364
 880.90000000 85.979698181 2.6159751415 428.99215698
 881.00000000 86.045486450 2.6166672707 429.04483032
 881.10000000 86.111282349 2.6173593998 429.09750366
 881.20000000 86.177070618 2.6180512905 429.15014648
 881.30000000 86.242858887 2.6187434196 429.20281982
 881.40000000 86.440269470 2.6194353104 429.25549316
 881.50000000 86.637687683 2.6201274395 429.30816650
 881.60000000 86.835098267 2.6208193302 429.36083984
 881.70000000 87.032508850 2.6215114594 429.41351318
 881.80000000 87.229927063 2.6222035885 429.46615601
 881.90000000 87.427337646 2.6228954792 429.51882935
 882.00000000 87.432884216 2.6235876083 429.57150269
 882.10000000 87.438430786 2.6242794991 429.62417603
 882.20000000 87.443977356 2.6249716282 429.67684937
 882.30000000 87.449516296 2.6256635189 429.72952271
 882.40000000 87.455062866 2.6263556480 429.78216553
 882.50000000 87.460609436 2.6270477772 429.83483887
 882.60000000 87.466156006 2.6277396679 429.88751221
 882.70000000 87.471702576 2.6284317970 429.94018555
 882.80000000 87.477249146 2.6291236877 429.99285889
 882.90000000 87.482795715 2.6298158169 430.04550171
 883.00000000 87.488334656 2.6305077076 430.09817505
 883.10000000 87.493881226 2.6311998367 430.15084839
 883.20000000 87.499427795 2.6534109116 430.20352173
 883.30000000 87.504974365 2.6638491154 430.25619507
 883.40000000 87.510520935 2.6648921967 430.30886841
 883.50000000 87.516067505 2.6614379883 430.36151123
 883.60000000 87.521614075 2.6574709415 430.41418457
 883.70000000 87.527160645 2.6552019119 430.46685791
 883.80000000 87.532699585 2.6556038857 430.51953125
 883.90000000 87.538246155 2.6584298611 430.57220459
 884.00000000 87.543792725 2.6633830070 430.62487793
 884.10000000 87.549339294 2.6696109772 430.67752075
 884.20000000 87.554885864 2.6755800247 430.73019409
 884.30000000 87.560432434 2.6803109646 430.78286743
 884.40000000 87.565979004 2.6828930378 430.83554077
 884.50000000 87.571517944 2.6839809418 430.88821411
 884.60000000 87.577064514 2.6839938164 430.94085693
 884.70000000 87.582611084 2.6833260059 430.99353027
 884.80000000 87.588157654 2.6824450493 431.04620361
 884.90000000 87.593704224 2.6816880703 431.09887695
 885.00000000 87.599250793 2.6814069748 431.15155029
 885.10000000 87.604797363 2.6817600727 431.20422363
 885.20000000 87.610336304 2.6825659275 431.25686646
 885.30000000 87.615882874 2.6833450794 431.30953979
 885.40000000 87.621429443 2.6831359863 431.36221313
 885.50000000 87.626976013 2.6809837818 431.41488647
 885.60000000 87.632522583 2.6759910583 431.46755981
 885.70000000 87.638069153 2.6678960323 431.52023315
 885.80000000 87.643615723 2.6588058472 431.57287598
 885.90000000 87.649162292 2.6512410641 431.62554932
 886.00000000 87.654701233 2.6484999657 431.67822266
 886.10000000 87.660247803 2.6505579948 431.73089600
 886.20000000 87.665794373 2.6558420658 431.78356934
 886.30000000 87.671340942 2.6613121033 431.83621216
 886.40000000 87.676887512 2.6643149853 431.88888550
 886.50000000 87.682434082 2.6646311283 431.94155884
 886.60000000 87.687980652 2.6639471054 431.99423218
 886.70000000 87.693519592 2.6649727821 432.04690552
 886.80000000 87.699066162 2.6690330505 432.09957886
 886.90000000 87.704612732 2.6760299206 432.15222168
 887.00000000 87.710159302 2.6840879917 432.20489502
 887.10000000 86.866790771 2.6907730103 432.25756836
 887.20000000 86.856010437 2.6944541931 432.31024170
 887.30000000 86.845237732 2.6943349838 432.36291504
 887.40000000 86.834457397 2.6918601990 432.41558838
 887.50000000 86.823677063 2.6883788109 432.46823120
 887.60000000 86.812896729 2.6855700016 432.52090454
 887.70000000 86.802116394 2.6845710278 432.57357788
 887.80000000 86.791336060 2.6858410835 432.62625122
 887.90000000 86.780555725 2.6892549992 432.67892456
 888.00000000 86.769775391 2.6895859241 432.73156738
 888.10000000 86.758995056 2.6899168491 432.78424072
 888.20000000 86.748214722 2.6902477741 432.83691406
 888.30000000 86.737434387 2.6905786991 432.88958740
 888.40000000 86.726654053 2.6909096241 432.94226074
 888.50000000 86.715881348 2.6912403107 432.99493408
 888.60000000 86.705101013 2.6915712357 433.04757690
 888.70000000 86.694320679 2.6919021606 433.10025024
 888.80000000 86.683540344 2.6922330856 433.15292358
 888.90000000 86.672760010 2.6925640106 433.20559692
 889.00000000 86.661979675 2.6928949356 433.25827026
 889.10000000 86.452209473 2.6895029545 433.31094360
 889.20000000 86.242439270 2.6880061626 433.36358643
 889.30000000 86.032669067 2.6885249615 433.41625977
 889.40000000 85.822898865 2.6907758713 433.46893311
 889.50000000 85.613128662 2.6909890175 433.52160645
 889.60000000 85.403358459 2.6912024021 433.57427979
 889.70000000 85.193588257 2.6914155483 433.62695313
 889.80000000 84.983825684 2.6916289330 433.67959595
 889.90000000 84.774055481 2.6918420792 433.73226929
 890.00000000 84.564285278 2.6852991581 433.78494263
 890.10000000 84.354515076 2.6775810719 433.83761597
 890.20000000 84.144744873 2.6701831818 433.89028931
 890.30000000 83.934974670 2.6642780304 433.94293213
 890.40000000 83.725204468 2.6605129242 433.99560547
 890.50000000 83.438743591 2.6592328548 434.04827881
 890.60000000 83.152282715 2.6597580910 434.10095215
 890.70000000 82.865821838 2.6616230011 434.15362549
 890.80000000 82.579360962 2.6638410091 434.20629883
 890.90000000 82.292900085 2.6645669937 434.25894165
 891.00000000 82.006439209 2.6622140408 434.31161499
 891.10000000 81.719978333 2.6561498642 434.36428833
 891.20000000 81.433517456 2.6568586826 434.41696167
 891.30000000 81.147056580 2.6575675011 434.46963501
 891.40000000 80.860588074 2.6582763195 434.52230835
 891.50000000 80.574127197 2.6589848995 434.57495117
 891.60000000 80.287666321 2.6596937180 434.62762451
 891.70000000 80.001205444 2.6604025364 434.68029785
 891.80000000 79.714744568 2.6611113548 434.73297119
 891.90000000 79.428283691 2.6618201733 434.78564453
 892.00000000 79.141822815 2.6625289917 434.83828735
 892.10000000 78.855361938 2.6632375717 434.89096069
 892.20000000 78.568901062 2.6639463902 434.94363403
 892.30000000 79.161430359 2.6646552086 434.99630737
 892.40000000 79.753967285 2.6653640270 435.04898071
 892.50000000 80.346496582 2.6715040207 435.10165405
 892.60000000 80.939033508 2.6697919369 435.15429688
 892.70000000 80.421180725 2.6709549427 435.20697021
 892.80000000 77.559104919 2.6721179485 435.25964355
 892.90000000 77.234848022 2.6732809544 435.31231689
 893.00000000 76.910591125 2.6744439602 435.36499023
 893.10000000 76.586334229 2.6756069660 435.41766357
 893.20000000 76.262077332 2.6767699718 435.47030640
 893.30000000 76.691627502 2.6779329777 435.52297974
 893.40000000 77.121170044 2.6790959835 435.57565308
 893.50000000 77.550720215 2.7011859417 435.62832642
 893.60000000 79.487876892 2.6997613907 435.68099976
 893.70000000 76.076530457 2.6983368397 435.73364258
 893.80000000 76.230857849 2.6923201084 435.78631592
 893.90000000 76.385177612 2.6859660149 435.83898926
 894.00000000 76.539497375 2.6799080372 435.89166260
 894.10000000 76.693824768 2.6753759384 435.94433594
 894.20000000 76.848144531 2.6730411053 435.99700928
 894.30000000 77.002464294 2.6731021404 436.04965210
 894.40000000 77.156791687 2.6748249531 436.10232544
 894.50000000 77.311111450 2.6777169704 436.15499878
 894.60000000 77.465438843 2.6816799641 436.20767212
 894.70000000 77.619758606 2.6863780022 436.26034546
 894.80000000 76.037231445 2.6910769939 436.31301880
 894.90000000 76.054908752 2.6949110031 436.36566162
 895.00000000 75.747627258 2.6973040104 436.41833496
 895.10000000 75.440345764 2.6987838745 436.47100830
 895.20000000 75.133064270 2.7001760006 436.52368164
 895.30000000 74.825782776 2.7022638321 436.57635498
 895.40000000 74.518501282 2.7018578053 436.62899780
 895.50000000 74.211219788 2.7014517784 436.68167114
 895.60000000 73.903938293 2.7010459900 436.73434448
 895.70000000 73.839057922 2.7006399632 436.78701782
 895.80000000 73.774185181 2.6935160160 436.83969116
