# LAS format log file from PETREL
# Project units are specified as depth units
#==================================================================
~Version information
VERS.   2.0:
WRAP.   NO:
#==================================================================
~Well
STRT .m      20.100000000 :
STOP .m      2623.3000000 :
STEP .m     0.10000000 :
NULL .        -999.250000 :
COMP.           : COMPANY
WELL.  P-130   : WELL
FLD.            : FIELD
LOC.            : LOCATION
SRVC.           : SERVICE COMPANY
DATE.  2014-09-16 16:48:38   : Log Export Date {yyyy-MM-dd HH:mm:ss}
PROV.           : PROVINCE
UWI.      : UNIQUE WELL ID
API.            : API NUMBER
#==================================================================
~Curve
DEPT .m                   : DEPTH
Sonic_despiked .us/ft     : Sonic_despiked
RHOB_despiked .g/cm3      : RHOB_despiked
two-waytime .ms           : two-way time
~Parameter
#==================================================================
~Ascii
# ...
 367.40000000 79.426467896  -999.250000 151.49597168
 367.50000000 79.379684448  -999.250000 151.54815674
 367.60000000 79.332908630  -999.250000 151.60034180
 367.70000000 79.286132813  -999.250000 151.65252686
 367.80000000 79.239349365  -999.250000 151.70471191
 367.90000000 79.553092957  -999.250000 151.75689697
 368.00000000 79.866836548  -999.250000 151.80908203
 368.10000000 80.180580139  -999.250000 151.86126709
 368.20000000 80.114822388  -999.250000 151.91343689
 368.30000000 80.049072266  -999.250000 151.96562195
 368.40000000 79.983314514  -999.250000 152.01780701
 368.50000000 79.917556763  -999.250000 152.06999207
 368.60000000 79.851806641  -999.250000 152.12217712
 368.70000000 79.786048889  -999.250000 152.17436218
 368.80000000 79.720291138  -999.250000 152.22654724
 368.90000000 79.654541016  -999.250000 152.27873230
 369.00000000 79.588783264  -999.250000 152.33091736
 369.10000000 79.523025513  -999.250000 152.38310242
 369.20000000 79.457267761  -999.250000 152.43528748
 369.30000000 79.391517639  -999.250000 152.48747253
 369.40000000 79.325759888  -999.250000 152.53965759
 369.50000000 79.260002136  -999.250000 152.59182739
 369.60000000 79.194252014  -999.250000 152.64401245
 369.70000000 79.128494263  -999.250000 152.69619751
 369.80000000 79.062736511  -999.250000 152.74838257
 369.90000000 78.996986389  -999.250000 152.80056763
 370.00000000 78.931228638  -999.250000 152.85275269
 370.10000000 78.865470886  -999.250000 152.90493774
 370.20000000 78.799720764  -999.250000 152.95712280
 370.30000000 78.733963013  -999.250000 153.00930786
 370.40000000 78.668205261  -999.250000 153.06149292
 370.50000000 78.602455139  -999.250000 153.11367798
 370.60000000 78.536697388  -999.250000 153.16586304
 370.70000000 78.470939636  -999.250000 153.21804810
 370.80000000 78.405181885  -999.250000 153.27021790
 370.90000000 78.339431763  -999.250000 153.32240295
 371.00000000 78.273674011  -999.250000 153.37458801
 371.10000000 78.207916260  -999.250000 153.42677307
 371.20000000 78.142166138  -999.250000 153.47895813
 371.30000000 78.076408386  -999.250000 153.53114319
 371.40000000 78.010650635  -999.250000 153.58332825
 371.50000000 77.944900513  -999.250000 153.63551331
 371.60000000 77.879142761  -999.250000 153.68769836
 371.70000000 78.127708435  -999.250000 153.73988342
 371.80000000 78.376274109  -999.250000 153.79206848
 371.90000000 78.221008301  -999.250000 153.84425354
 372.00000000 78.065742493  -999.250000 153.89643860
 372.10000000 77.910476685  -999.250000 153.94860840
 372.20000000 77.755210876  -999.250000 154.00079346
 372.30000000 77.599945068  -999.250000 154.05297852
 372.40000000 77.444679260  -999.250000 154.10516357
 372.50000000 77.289413452  -999.250000 154.15734863
 372.60000000 77.134147644  -999.250000 154.20953369
 372.70000000 76.978881836  -999.250000 154.26171875
 372.80000000 76.823623657  -999.250000 154.31390381
 372.90000000 76.668357849  -999.250000 154.36608887
 373.00000000 76.513092041  -999.250000 154.41827393
 373.10000000 76.357826233  -999.250000 154.47045898
 373.20000000 76.268966675  -999.250000 154.52264404
 373.30000000 76.180099487  -999.250000 154.57482910
 373.40000000 76.157646179  -999.250000 154.62699890
 373.50000000 76.135185242  -999.250000 154.67918396
 373.60000000 76.112724304  -999.250000 154.73136902
 373.70000000 76.090263367  -999.250000 154.78355408
 373.80000000 76.067810059  -999.250000 154.83573914
 373.90000000 76.045349121  -999.250000 154.88792419
 374.00000000 76.022888184  -999.250000 154.94010925
 374.10000000 76.000434875  -999.250000 154.99229431
 374.20000000 75.977973938  -999.250000 155.04447937
 374.30000000 75.955513000  -999.250000 155.09666443
 374.40000000 75.933052063  -999.250000 155.14884949
 374.50000000 75.910598755  -999.250000 155.20103455
 374.60000000 75.888137817  -999.250000 155.25320435
 374.70000000 75.865676880  -999.250000 155.30538940
 374.80000000 75.843215942  -999.250000 155.35757446
 374.90000000 75.820762634  -999.250000 155.40975952
 375.00000000 75.798301697  -999.250000 155.46194458
 375.10000000 75.775840759  -999.250000 155.51412964
 375.20000000 75.753387451  -999.250000 155.56631470
 375.30000000 75.730926514  -999.250000 155.61849976
 375.40000000 75.708465576  -999.250000 155.67068481
 375.50000000 75.686004639  -999.250000 155.72286987
 375.60000000 75.663551331  -999.250000 155.77505493
 375.70000000 75.641090393  -999.250000 155.82723999
 375.80000000 75.618629456  -999.250000 155.87942505
 375.90000000 75.596176147  -999.250000 155.93159485
 376.00000000 75.573715210  -999.250000 155.98377991
 376.10000000 75.551254272 2.4031178951 156.03596497
 376.20000000 75.528793335 2.3939781189 156.08815002
 376.30000000 75.506340027 2.3871221542 156.14033508
 376.40000000 75.483879089 2.3829741478 156.19252014
 376.50000000 75.461418152 2.3808779716 156.24470520
 376.60000000 75.438957214 2.3797061443 156.29689026
 376.70000000 75.416503906 2.3784241676 156.34907532
 376.80000000 75.394042969 2.3769059181 156.40126038
 376.90000000 75.371582031 2.3753731251 156.45344543
 377.00000000 75.349128723 2.3737750053 156.50563049
 377.10000000 75.326667786 2.3715281487 156.55781555
 377.20000000 75.304206848 2.3676488400 156.60998535
 377.30000000 75.281745911 2.3615090847 156.66217041
 377.40000000 75.259292603 2.3537099361 156.71435547
 377.50000000 75.236831665 2.3456110954 156.76654053
 377.60000000 75.154380798 2.3396930695 156.81872559
 377.70000000 75.071929932 2.3376498222 156.87091064
 377.80000000 74.989471436 2.3400619030 156.92309570
 377.90000000 74.907020569 2.3460390568 156.97528076
 378.00000000 74.824569702 2.3516368866 157.02746582
 378.10000000 74.898445129 2.3538501263 157.07965088
 378.20000000 74.972312927 2.3503968716 157.13183594
 378.30000000 75.046188354 2.3430840969 157.18402100
 378.40000000 75.120056152 2.3345978260 157.23620605
 378.50000000 75.028030396 2.3273820877 157.28837585
 378.60000000 74.936004639 2.3221440315 157.34056091
 378.70000000 74.843978882 2.3180129528 157.39274597
 378.80000000 75.004783630 2.3139259815 157.44493103
 378.90000000 75.165596008 2.3093400002 157.49711609
 379.00000000 74.947151184 2.3045978546 157.54930115
 379.10000000 74.728706360 2.3003091812 157.60148621
 379.20000000 74.749671936 2.2970640659 157.65367126
 379.30000000 74.770629883 2.2948019505 157.70585632
 379.40000000 74.791595459 2.2932219505 157.75804138
 379.50000000 74.812553406 2.2916078568 157.81022644
 379.60000000 74.833518982 2.2892429829 157.86241150
 379.70000000 74.854476929 2.2859430313 157.91459656
 379.80000000 74.875442505 2.2822918892 157.96676636
 379.90000000 74.896400452 2.2794799805 158.01895142
 380.00000000 74.917366028 2.2782061100 158.07113647
 380.10000000 74.938323975 2.2785129547 158.12332153
 380.20000000 74.959289551 2.2793941498 158.17550659
 380.30000000 74.980255127 2.2798299789 158.22769165
 380.40000000 75.001213074 2.2792830467 158.27987671
 380.50000000 75.022178650 2.2781608105 158.33206177
 380.60000000 75.043136597 2.2778201103 158.38424683
 380.70000000 75.064102173 2.2802329063 158.43643188
 380.80000000 75.085060120 2.2880630493 158.48861694
 380.90000000 75.106025696 2.3016321659 158.54080200
 381.00000000 75.126983643 2.3202610016 158.59297180
 381.10000000 75.147949219 2.3413069248 158.64515686
 381.20000000 75.168907166 2.3389470577 158.69734192
 381.30000000 75.189872742 2.3365869522 158.74952698
 381.40000000 75.210830688 2.3342270851 158.80171204
 381.50000000 75.231796265 2.3318669796 158.85389709
 381.60000000 75.037429810 2.3295071125 158.90608215
 381.70000000 74.843070984 2.3095200062 158.95826721
 381.80000000 75.311759949 2.2935729027 159.01045227
 381.90000000 75.338417053 2.2821660042 159.06263733
 382.00000000 75.056884766 2.2747728825 159.11482239
 382.10000000 74.775352478 2.2746760845 159.16700745
 382.20000000 74.788101196 2.2745792866 159.21919250
 382.30000000 74.800857544 2.2744824886 159.27136230
 382.40000000 74.813606262 2.2743856907 159.32354736
