# LAS format log file from PETREL
# Project units are specified as depth units
#==================================================================
~Version information
VERS.   2.0:
WRAP.   NO:
#==================================================================
~Well
STRT .m      20.100000000 :
STOP .m      2623.3000000 :
STEP .m     0.10000000 :
NULL .        -999.250000 :
COMP.           : COMPANY
WELL.  P-130   : WELL
FLD.            : FIELD
LOC.            : LOCATION
SRVC.           : SERVICE COMPANY
DATE.  2014-09-16 16:48:38   : Log Export Date {yyyy-MM-dd HH:mm:ss}
PROV.           : PROVINCE
UWI.      : UNIQUE WELL ID
API.            : API NUMBER
#==================================================================
~Curve
DEPT .m                   : DEPTH
Sonic_despiked .us/ft     : Sonic_despiked
RHOB_despiked .g/cm3      : RHOB_despiked
two-waytime .ms           : two-way time
~Parameter
#==================================================================
~Ascii
# ...
 2602.2000000 79.919166565 2.6717281342 1235.0838623
 2602.3000000 79.919166565 2.6804800034 1235.1323242
 2602.4000000 79.919166565 2.6810936928 1235.1809082
 2602.5000000 79.919166565 2.6817071438 1235.2293701
 2602.6000000 79.919166565 2.6823208332 1235.2778320
 2602.7000000 79.919166565 2.6829342842 1235.3262939
 2602.8000000 79.919166565 2.6835479736 1235.3747559
 2602.9000000 79.919166565 2.6841616631 1235.4233398
 2603.0000000 79.919166565 2.6847751141 1235.4718018
 2603.1000000 79.919166565 2.6853888035 1235.5202637
 2603.2000000 79.919166565 2.6860022545 1235.5687256
 2603.3000000 79.919166565 2.6866159439 1235.6173096
 2603.4000000 79.919166565 2.6817259789 1235.6657715
 2603.5000000 79.919166565 2.6759378910 1235.7142334
 2603.6000000 79.919166565 2.6686749458 1235.7626953
 2603.7000000 79.919166565 2.6601870060 1235.8111572
 2603.8000000 79.919166565 2.6517219543 1235.8597412
 2603.9000000 79.919166565 2.6441819668 1235.9082031
 2604.0000000 79.919166565 2.6384170055 1235.9566650
 2604.1000000 79.919166565 2.6344861984 1236.0051270
 2604.2000000 79.919166565 2.6319990158 1236.0537109
 2604.3000000 79.919166565 2.6302170753 1236.1021729
 2604.4000000 79.919166565 2.6280558109 1236.1506348
 2604.5000000 79.919166565 2.6249909401 1236.1990967
 2604.6000000 79.919166565 2.6212661266 1236.2475586
 2604.7000000 79.919166565 2.6180300713 1236.2961426
 2604.8000000 79.919166565 2.6164100170 1236.3446045
 2604.9000000 79.919166565 2.6171388626 1236.3930664
 2605.0000000 79.919166565 2.6206870079 1236.4415283
 2605.1000000 79.919166565 2.6263840199 1236.4901123
 2605.2000000 79.919166565 2.6339440346 1236.5385742
 2605.3000000 79.919166565 2.6433501244 1236.5870361
 2605.4000000 79.919166565 2.6527528763 1236.6354980
 2605.5000000 79.919166565 2.6590719223 1236.6839600
 2605.6000000 79.919166565 2.6642169952 1236.7325439
 2605.7000000 79.919166565 2.6683049202 1236.7810059
 2605.8000000 79.919166565 2.6706910133 1236.8294678
 2605.9000000 79.919166565 2.6707780361 1236.8779297
 2606.0000000 79.919166565 2.6687159538 1236.9265137
 2606.1000000 79.919166565 2.6653029919 1236.9749756
 2606.2000000 79.919166565 2.6613650322 1237.0234375
 2606.3000000 79.919166565 2.6577451229 1237.0718994
 2606.4000000 79.919166565 2.6547739506 1237.1203613
 2606.5000000 79.919166565 2.6524760723 1237.1689453
 2606.6000000 79.919166565 2.6508641243 1237.2174072
 2606.7000000 79.919166565 2.6498911381 1237.2658691
 2606.8000000 79.919166565 2.6496551037 1237.3143311
 2606.9000000 79.919166565 2.6501569748 1237.3629150
 2607.0000000 79.919166565 2.6508300304 1237.4113770
 2607.1000000 79.919166565 2.6511211395 1237.4598389
 2607.2000000 79.919166565 2.6505548954 1237.5083008
 2607.3000000 79.919166565 2.6492390633 1237.5567627
 2607.4000000 79.919166565 2.6475071907 1237.6053467
 2607.5000000 79.919166565 2.6456580162 1237.6538086
 2607.6000000 79.919166565 2.6440029144 1237.7022705
 2607.7000000 79.919166565 2.6429090500 1237.7507324
 2607.8000000 79.919166565 2.6428999901 1237.7993164
 2607.9000000 79.919166565 2.6442809105 1237.8477783
 2608.0000000 79.919166565 2.6464209557 1237.8962402
 2608.1000000 79.919166565 2.6483588219 1237.9447021
 2608.2000000 79.919166565 2.6490061283 1237.9931641
 2608.3000000 79.919166565 2.6485118866 1238.0417480
 2608.4000000 79.919166565 2.6476130486 1238.0902100
 2608.5000000 79.919166565 2.6473009586 1238.1386719
 2608.6000000 79.919166565 2.6477220058 1238.1871338
 2608.7000000 79.919166565 2.6483879089 1238.2357178
 2608.8000000 79.919166565 2.6485669613 1238.2841797
 2608.9000000 79.919166565 2.6480147839 1238.3326416
 2609.0000000 79.919166565 2.6470239162 1238.3811035
 2609.1000000 79.919166565 2.6460978985 1238.4295654
 2609.2000000 79.919166565 2.6456918716 1238.4781494
 2609.3000000 79.919166565 2.6458959579 1238.5266113
 2609.4000000 79.919166565 2.6465649605 1238.5750732
 2609.5000000 79.919166565 2.6472730637 1238.6235352
 2609.6000000 79.919166565 2.6476488113 1238.6721191
 2609.7000000 79.919166565 2.6476809978 1238.7205811
 2609.8000000 79.919166565 2.6478109360 1238.7690430
 2609.9000000 79.919166565 2.6484708786 1238.8175049
 2610.0000000 79.919166565 2.6496350765 1238.8659668
 2610.1000000 79.919166565 2.6506350040 1238.9145508
 2610.2000000 79.919166565 2.6506669521 1238.9630127
 2610.3000000 79.919166565 2.6493878365 1239.0114746
 2610.4000000 79.919166565 2.6468770504 1239.0599365
 2610.5000000 79.919166565 2.6439020634 1239.1085205
 2610.6000000 79.919166565 2.6411879063 1239.1569824
 2610.7000000 79.919166565 2.6394488811 1239.2054443
 2610.8000000 79.919166565 2.6391608715 1239.2539063
 2610.9000000 79.919166565 2.6402680874 1239.3023682
 2611.0000000 79.919166565 2.6424341202 1239.3509521
 2611.1000000 79.919166565 2.6448321342 1239.3994141
 2611.2000000 79.919166565 2.6465899944 1239.4478760
 2611.3000000 79.919166565 2.6472289562 1239.4963379
 2611.4000000 79.919166565 2.6466200352 1239.5449219
 2611.5000000 79.919166565 2.6454031467 1239.5933838
 2611.6000000 79.919166565 2.6440210342 1239.6418457
 2611.7000000 79.919166565 2.6426999569 1239.6903076
 2611.8000000 79.919166565 2.6413419247 1239.7387695
 2611.9000000 79.919166565 2.6398639679 1239.7873535
 2612.0000000 79.919166565 2.6385309696 1239.8358154
 2612.1000000 79.919166565 2.6385309696 1239.8842773
 2612.2000000 79.919166565 2.6385309696 1239.9327393
 2612.3000000 79.919166565 2.6385309696 1239.9813232
 2612.4000000 79.919166565 2.6385309696 1240.0297852
 2612.5000000 79.919166565 2.6385309696 1240.0782471
 2612.6000000 79.919166565 2.6385309696 1240.1267090
 2612.7000000 79.919166565 2.6385309696 1240.1751709
 2612.8000000 79.919166565 2.6385309696 1240.2237549
 2612.9000000 79.919166565 2.6385309696 1240.2722168
 2613.0000000 79.919166565 2.6385309696 1240.3206787
 2613.1000000 79.919166565 2.6385309696 1240.3691406
 2613.2000000 79.919166565 2.6385309696 1240.4177246
 2613.3000000 79.919166565 2.6385309696 1240.4661865
 2613.4000000 79.919166565 2.6385309696 1240.5146484
 2613.5000000 79.919166565 2.6385309696 1240.5631104
 2613.6000000 79.919166565 2.6385309696 1240.6116943
 2613.7000000 79.919166565 2.6385309696 1240.6601563
 2613.8000000 79.919166565 2.6385309696 1240.7086182
 2613.9000000 79.919166565 2.6385309696 1240.7570801
 2614.0000000 79.919166565 2.6385309696 1240.8055420
 2614.1000000 79.919166565 2.6385309696 1240.8541260
 2614.2000000 79.919166565 2.6385309696 1240.9025879
 2614.3000000 79.919166565 2.6385309696 1240.9510498
 2614.4000000 79.919166565 2.6385309696 1240.9995117
 2614.5000000 79.919166565 2.6385309696 1241.0480957
 2614.6000000 79.919166565 2.6385309696 1241.0965576
 2614.7000000 79.919166565 2.6385309696 1241.1450195
 2614.8000000 79.919166565 2.6385309696 1241.1934814
 2614.9000000 79.919166565 2.6385309696 1241.2419434
 2615.0000000 79.919166565 2.6385309696 1241.2905273
 2615.1000000 79.919166565 2.6385309696 1241.3389893
 2615.2000000 79.919166565 2.6385309696 1241.3874512
 2615.3000000 79.919166565 2.6385309696 1241.4359131
 2615.4000000 79.919166565 2.6385309696 1241.4844971
 2615.5000000 79.919166565 2.6385309696 1241.5329590
 2615.6000000 79.919166565 2.6385309696 1241.5814209
 2615.7000000 79.919166565 2.6385309696 1241.6298828
 2615.8000000 79.919166565 2.6385309696 1241.6783447
 2615.9000000 79.919166565 2.6385309696 1241.7269287
 2616.0000000 79.919166565 2.6385309696 1241.7753906
 2616.1000000 79.919166565 2.6385309696 1241.8238525
 2616.2000000 79.919166565 2.6385309696 1241.8723145
 2616.3000000 79.919166565 2.6385309696 1241.9208984
 2616.4000000 79.919166565 2.6385309696 1241.9693604
 2616.5000000 79.919166565 2.6385309696 1242.0178223
 2616.6000000 79.919166565 2.6385309696 1242.0662842
 2616.7000000 79.919166565 2.6385309696 1242.1147461
 2616.8000000 79.919166565 2.6385309696 1242.1633301
 2616.9000000 79.919166565 2.6385309696 1242.2117920
 2617.0000000 79.919166565 2.6385309696 1242.2602539
 2617.1000000 79.919166565 2.6385309696 1242.3087158
 2617.2000000 79.919166565 2.6385309696 1242.3572998
