# LAS format log file from PETREL
# Project units are specified as depth units
#==================================================================
~Version information
VERS.   2.0:
WRAP.   NO:
#==================================================================
~Well
STRT .m      20.100000000 :
STOP .m      2623.3000000 :
STEP .m     0.10000000 :
NULL .        -999.250000 :
COMP.           : COMPANY
WELL.  P-130   : WELL
FLD.            : FIELD
LOC.            : LOCATION
SRVC.           : SERVICE COMPANY
DATE.  2014-09-16 16:48:38   : Log Export Date {yyyy-MM-dd HH:mm:ss}
PROV.           : PROVINCE
UWI.      : UNIQUE WELL ID
API.            : API NUMBER
#==================================================================
~Curve
DEPT .m                   : DEPTH
Sonic_despiked .us/ft     : Sonic_despiked
RHOB_despiked .g/cm3      : RHOB_despiked
two-waytime .ms           : two-way time
~Parameter
#==================================================================
~Ascii
# ...
 2254.9000000 69.329551697 2.6533629894 1072.7351074
 2255.0000000 69.321395874 2.6542389393 1072.7802734
 2255.1000000 69.313240051 2.6551148891 1072.8254395
 2255.2000000 69.305084229 2.6594510078 1072.8706055
 2255.3000000 69.296920776 2.6654720306 1072.9158936
 2255.4000000 69.288764954 2.6722791195 1072.9610596
 2255.5000000 69.280609131 2.6792891026 1073.0062256
 2255.6000000 69.272445679 2.6866168976 1073.0513916
 2255.7000000 69.264289856 2.6945490837 1073.0966797
 2255.8000000 69.256134033 2.6943836212 1073.1418457
 2255.9000000 69.247978210 2.6942181587 1073.1870117
 2256.0000000 69.239814758 2.6940526962 1073.2322998
 2256.1000000 69.231658936 2.6938872337 1073.2774658
 2256.2000000 69.208335876 2.6937215328 1073.3226318
 2256.3000000 69.213653564 2.6935560703 1073.3677979
 2256.4000000 69.218963623 2.6933906078 1073.4130859
 2256.5000000 69.224281311 2.6932251453 1073.4582520
 2256.6000000 69.229591370 2.6904928684 1073.5034180
 2256.7000000 69.234909058 2.6887938976 1073.5485840
 2256.8000000 69.240219116 2.6879651546 1073.5938721
 2256.9000000 69.245536804 2.6877601147 1073.6390381
 2257.0000000 69.322456360 2.6868979931 1073.6842041
 2257.1000000 69.399375916 2.6827781200 1073.7294922
 2257.2000000 69.476295471 2.6704571247 1073.7746582
 2257.3000000 69.475601196 2.6391561031 1073.8198242
 2257.4000000 69.474899292 2.6394200325 1073.8649902
 2257.5000000 69.474197388 2.6396842003 1073.9102783
 2257.6000000 69.473503113 2.6399481297 1073.9554443
 2257.7000000 69.472808838 2.6402120590 1074.0006104
 2257.8000000 69.472106934 2.6404759884 1074.0457764
 2257.9000000 69.471405029 2.6407401562 1074.0910645
 2258.0000000 69.470710754 2.6410040855 1074.1362305
 2258.1000000 69.470016479 2.6412680149 1074.1813965
 2258.2000000 69.469314575 2.6415321827 1074.2265625
 2258.3000000 69.468612671 2.6417961121 1074.2718506
 2258.4000000 69.467918396 2.6420600414 1074.3170166
 2258.5000000 69.467224121 2.6423239708 1074.3621826
 2258.6000000 69.466522217 2.6425881386 1074.4074707
 2258.7000000 69.422698975 2.6428520679 1074.4526367
 2258.8000000 69.378883362 2.6692128181 1074.4978027
 2258.9000000 69.321647644 2.6829590797 1074.5429688
 2259.0000000 69.264419556 2.6893701553 1074.5882568
 2259.1000000 69.207183838 2.6895170212 1074.6334229
 2259.2000000 69.202713013 2.6846690178 1074.6785889
 2259.3000000 69.198234558 2.6790668964 1074.7237549
 2259.4000000 69.193756104 2.6762838364 1074.7690430
 2259.5000000 69.189285278 2.6801221371 1074.8142090
 2259.6000000 69.184814453 2.6901459694 1074.8593750
 2259.7000000 69.180335999 2.6883947849 1074.9046631
 2259.8000000 69.175857544 2.6866436005 1074.9498291
 2259.9000000 69.171386719 2.6848924160 1074.9949951
 2260.0000000 69.166915894 2.6831412315 1075.0401611
 2260.1000000 69.162437439 2.6813900471 1075.0854492
 2260.2000000 69.157958984 2.6796388626 1075.1306152
 2260.3000000 69.153488159 2.6686799526 1075.1757813
 2260.4000000 69.149017334 2.6607170105 1075.2209473
 2260.5000000 69.144538879 2.6576378345 1075.2662354
 2260.6000000 69.140060425 2.6595020294 1075.3114014
 2260.7000000 69.135589600 2.6660499573 1075.3565674
 2260.8000000 69.131111145 2.6760778427 1075.4017334
 2260.9000000 69.126640320 2.6859250069 1075.4470215
 2261.0000000 69.122161865 2.6816825867 1075.4921875
 2261.1000000 69.117691040 2.6774404049 1075.5373535
 2261.2000000 69.113220215 2.6731979847 1075.5826416
 2261.3000000 69.108741760 2.6447200775 1075.6278076
 2261.4000000 69.104263306 2.6447145939 1075.6729736
 2261.5000000 69.099792480 2.6447091103 1075.7181396
 2261.6000000 69.095321655 2.6447033882 1075.7634277
 2261.7000000 69.090843201 2.6446979046 1075.8085938
 2261.8000000 69.086364746 2.6446924210 1075.8537598
 2261.9000000 69.081893921 2.6446869373 1075.8989258
 2262.0000000 69.077423096 2.6446814537 1075.9442139
 2262.1000000 69.072944641 2.6446757317 1075.9893799
 2262.2000000 69.068466187 2.6446702480 1076.0345459
 2262.3000000 69.063995361 2.6446647644 1076.0798340
 2262.4000000 69.059524536 2.6446592808 1076.1250000
 2262.5000000 69.055046082 2.6446537971 1076.1701660
 2262.6000000 69.050567627 2.6446483135 1076.2153320
 2262.7000000 69.046096802 2.6446425915 1076.2606201
 2262.8000000 69.041618347 2.6446371078 1076.3057861
 2262.9000000 69.037147522 2.6446316242 1076.3509521
 2263.0000000 69.032669067 2.6446261406 1076.3961182
 2263.1000000 69.028198242 2.6446206570 1076.4414063
 2263.2000000 69.023727417 2.6446149349 1076.4865723
 2263.3000000 69.019248962 2.6446094513 1076.5317383
 2263.4000000 69.014770508 2.6446039677 1076.5769043
 2263.5000000 69.010299683 2.6661179066 1076.6221924
 2263.6000000 69.000274658 2.6801187992 1076.6673584
 2263.7000000 68.990257263 2.6846990585 1076.7125244
 2263.8000000 68.980232239 2.6830859184 1076.7578125
 2263.9000000 68.970207214 2.6776599884 1076.8029785
 2264.0000000 68.960182190 2.6705482006 1076.8481445
 2264.1000000 68.950164795 2.6637718678 1076.8933105
 2264.2000000 68.940139771 2.6584661007 1076.9385986
 2264.3000000 68.930114746 2.6557290554 1076.9837646
 2264.4000000 68.920089722 2.6553478241 1077.0289307
 2264.5000000 68.910072327 2.6561942101 1077.0740967
 2264.6000000 68.900047302 2.6566321850 1077.1193848
 2264.7000000 68.890022278 2.6555218697 1077.1645508
 2264.8000000 68.880004883 2.6533989906 1077.2097168
 2264.9000000 68.869979858 2.6517670155 1077.2550049
 2265.0000000 68.859954834 2.6521980762 1077.3001709
 2265.1000000 68.849929810 2.6544899940 1077.3453369
 2265.2000000 68.839912415 2.6574389935 1077.3905029
 2265.3000000 68.829887390 2.6592180729 1077.4357910
 2265.4000000 68.819862366 2.6593258381 1077.4809570
 2265.5000000 68.809837341 2.6583530903 1077.5261230
 2265.6000000 68.799819946 2.6575758457 1077.5712891
 2265.7000000 68.789794922 2.6578080654 1077.6165771
 2265.8000000 68.779769897 2.6590240002 1077.6617432
 2265.9000000 68.769752502 2.6608018875 1077.7069092
 2266.0000000 68.759727478 2.6626551151 1077.7520752
 2266.1000000 68.749702454 2.6646001339 1077.7973633
 2266.2000000 68.739677429 2.6671979427 1077.8425293
 2266.3000000 68.729660034 2.6712329388 1077.8876953
 2266.4000000 68.719635010 2.6769361496 1077.9329834
 2266.5000000 68.709609985 2.6837959290 1077.9781494
 2266.6000000 68.699584961 2.6899881363 1078.0233154
 2266.7000000 68.689567566 2.6936190128 1078.0684814
 2266.8000000 68.679542542 2.6936588287 1078.1137695
 2266.9000000 68.701988220 2.6902859211 1078.1589355
 2267.0000000 68.724426270 2.6858720779 1078.2041016
 2267.1000000 68.746871948 2.6821799278 1078.2492676
 2267.2000000 68.769309998 2.6808400154 1078.2945557
 2267.3000000 68.791755676 2.6819741726 1078.3397217
 2267.4000000 68.814193726 2.6853799820 1078.3848877
 2267.5000000 68.836631775 2.6907351017 1078.4301758
 2267.6000000 68.859077454 2.6969039440 1078.4753418
 2267.7000000 68.881515503 2.6973714828 1078.5205078
 2267.8000000 68.903961182 2.6978390217 1078.5656738
 2267.9000000 68.926399231 2.6983067989 1078.6109619
 2268.0000000 68.948844910 2.6987743378 1078.6561279
 2268.1000000 68.971282959 2.6992418766 1078.7012939
 2268.2000000 68.993728638 2.6895840168 1078.7464600
 2268.3000000 69.016166687 2.6753330231 1078.7917480
 2268.4000000 69.089179993 2.6551659107 1078.8369141
 2268.5000000 69.162193298 2.6559884548 1078.8820801
 2268.6000000 69.235206604 2.6568109989 1078.9272461
 2268.7000000 69.308219910 2.6576333046 1078.9725342
 2268.8000000 69.381233215 2.6584558487 1079.0177002
 2268.9000000 69.454254150 2.6592783928 1079.0628662
 2269.0000000 69.527267456 2.6601009369 1079.1081543
 2269.1000000 69.364028931 2.6609234810 1079.1533203
 2269.2000000 69.200790405 2.6617460251 1079.1984863
 2269.3000000 69.037544250 2.6625685692 1079.2436523
 2269.4000000 69.057365417 2.6633908749 1079.2889404
 2269.5000000 69.077194214 2.6642134190 1079.3341064
 2269.6000000 69.097015381 2.6650359631 1079.3792725
 2269.7000000 69.025299072 2.6827518940 1079.4244385
 2269.8000000 69.054107666 2.7011079788 1079.4697266
 2269.9000000 69.082908630 2.7014298439 1079.5148926
