# LAS format log file from PETREL
# Project units are specified as depth units
#==================================================================
~Version information
VERS.   2.0:
WRAP.   NO:
#==================================================================
~Well
STRT .m      20.100000000 :
STOP .m      2623.3000000 :
STEP .m     0.10000000 :
NULL .        -999.250000 :
COMP.           : COMPANY
WELL.  P-130   : WELL
FLD.            : FIELD
LOC.            : LOCATION
SRVC.           : SERVICE COMPANY
DATE.  2014-09-16 16:48:38   : Log Export Date {yyyy-MM-dd HH:mm:ss}
PROV.           : PROVINCE
UWI.      : UNIQUE WELL ID
API.            : API NUMBER
#==================================================================
~Curve
DEPT .m                   : DEPTH
Sonic_despiked .us/ft     : Sonic_despiked
RHOB_despiked .g/cm3      : RHOB_despiked
two-waytime .ms           : two-way time
~Parameter
#==================================================================
~Ascii
# ...
 1228.1000000 74.945281982 2.6888959408 597.47027588
 1228.2000000 74.886665344 2.6907479763 597.51770020
 1228.3000000 74.828048706 2.6919770241 597.56506348
 1228.4000000 75.004615784 2.6928429604 597.61248779
 1228.5000000 75.181182861 2.6933181286 597.65985107
 1228.6000000 75.357749939 2.6930119991 597.70727539
 1228.7000000 75.534317017 2.6919040680 597.75463867
 1228.8000000 75.497627258 2.6903970242 597.80206299
 1228.9000000 75.460937500 2.6895101070 597.84942627
 1229.0000000 75.424247742 2.6898019314 597.89685059
 1229.1000000 75.387557983 2.6909608841 597.94421387
 1229.2000000 75.350868225 2.6916201115 597.99157715
 1229.3000000 75.314178467 2.6902790070 598.03900146
 1229.4000000 75.277488708 2.6866011620 598.08636475
 1229.5000000 75.240798950 2.6816980839 598.13378906
 1229.6000000 75.204109192 2.6782009602 598.18115234
 1229.7000000 75.167419434 2.6778910160 598.22857666
 1229.8000000 75.130722046 2.6808819771 598.27593994
 1229.9000000 75.094032288 2.6848759651 598.32336426
 1230.0000000 75.057342529 2.6871120930 598.37072754
 1230.1000000 75.020652771 2.6864080429 598.41815186
 1230.2000000 74.983963013 2.6832671165 598.46551514
 1230.3000000 74.947273254 2.6798110008 598.51293945
 1230.4000000 74.910583496 2.6774880886 598.56030273
 1230.5000000 74.873893738 2.6777799129 598.60766602
 1230.6000000 74.837203979 2.6806759834 598.65509033
 1230.7000000 74.800514221 2.6854970455 598.70245361
 1230.8000000 74.763824463 2.6903851032 598.74987793
 1230.9000000 74.185272217 2.6930110455 598.79724121
 1231.0000000 74.072242737 2.6922240257 598.84466553
 1231.1000000 73.551879883 2.6877839565 598.89202881
 1231.2000000 73.577484131 2.6809952259 598.93945313
 1231.3000000 73.603096008 2.6734220982 598.98681641
 1231.4000000 73.628700256 2.6662080288 599.03424072
 1231.5000000 73.654304504 2.6656970978 599.08160400
 1231.6000000 73.679916382 2.6651859283 599.12896729
 1231.7000000 73.705520630 2.6646749973 599.17639160
 1231.8000000 74.001174927 2.6641640663 599.22375488
 1231.9000000 73.801528931 2.6636528969 599.27117920
 1232.0000000 73.673370361 2.6631419659 599.31854248
 1232.1000000 73.545219421 2.6626310349 599.36596680
 1232.2000000 73.417060852 2.6621198654 599.41333008
 1232.3000000 73.288902283 2.6616089344 599.46075439
 1232.4000000 73.160751343 2.6610980034 599.50811768
 1232.5000000 73.032592773 2.6605868340 599.55554199
 1232.6000000 73.014686584 2.6600759029 599.60290527
 1232.7000000 72.996780396 2.6691341400 599.65026855
 1232.8000000 72.978874207 2.6768000126 599.69769287
 1232.9000000 72.960968018 2.6847510338 599.74505615
 1233.0000000 72.943061829 2.6958601475 599.79248047
 1233.1000000 72.925155640 2.6963219643 599.83984375
 1233.2000000 72.907241821 2.6967837811 599.88726807
 1233.3000000 72.889335632 2.6972455978 599.93463135
 1233.4000000 72.871429443 2.6977074146 599.98205566
 1233.5000000 72.853523254 2.6981692314 600.02941895
 1233.6000000 72.835617065 2.6986310482 600.07684326
 1233.7000000 72.817710876 2.6990928650 600.12420654
 1233.8000000 72.799804688 2.6995546818 600.17156982
 1233.9000000 72.781898499 2.7000164986 600.21899414
 1234.0000000 72.763992310 2.7004783154 600.26635742
 1234.1000000 72.746078491 2.7009401321 600.31378174
 1234.2000000 72.728172302 2.7014019489 600.36114502
 1234.3000000 72.710266113 2.7018637657 600.40856934
 1234.4000000 72.692359924 2.7023255825 600.45593262
 1234.5000000 73.221488953 2.7027873993 600.50335693
 1234.6000000 73.188613892 2.7032492161 600.55072021
 1234.7000000 73.155738831 2.7037110329 600.59814453
 1234.8000000 73.122863770 2.6882560253 600.64550781
 1234.9000000 73.089996338 2.6708569527 600.69287109
 1235.0000000 73.057121277 2.6698758602 600.74029541
 1235.1000000 73.024246216 2.6688947678 600.78765869
 1235.2000000 72.991371155 2.6679136753 600.83508301
 1235.3000000 72.521369934 2.6669325829 600.88244629
 1235.4000000 72.453292847 2.6659512520 600.92987061
 1235.5000000 72.385223389 2.6649701595 600.97723389
 1235.6000000 72.317146301 2.6639890671 601.02465820
 1235.7000000 72.310913086 2.6630079746 601.07202148
 1235.8000000 72.304687500 2.6760330200 601.11944580
 1235.9000000 72.298454285 2.6905701160 601.16680908
 1236.0000000 72.292221069 2.7049078941 601.21423340
 1236.1000000 72.471511841 2.7081987858 601.26159668
 1236.2000000 72.427146912 2.7114899158 601.30895996
 1236.3000000 72.382774353 2.7096416950 601.35638428
 1236.4000000 72.338401794 2.7077932358 601.40374756
 1236.5000000 72.294029236 2.7059450150 601.45117188
 1236.6000000 72.249664307 2.6992428303 601.49853516
 1236.7000000 72.205291748 2.6933860779 601.54595947
 1236.8000000 72.262138367 2.6871330738 601.59332275
 1236.9000000 72.318984985 2.6792080402 601.64074707
 1237.0000000 72.214431763 2.6702618599 601.68811035
 1237.1000000 72.190742493 2.6701383591 601.73553467
 1237.2000000 72.167053223 2.6700148582 601.78289795
 1237.3000000 72.143356323 2.6698913574 601.83026123
 1237.4000000 72.119667053 2.6697680950 601.87768555
 1237.5000000 72.195724487 2.6696445942 601.92504883
 1237.6000000 72.126510620 2.6695210934 601.97247314
 1237.7000000 72.149505615 2.6797871590 602.01983643
 1237.8000000 72.172500610 2.6912369728 602.06726074
 1237.9000000 72.195495605 2.7023119926 602.11462402
 1238.0000000 72.218490601 2.7115209103 602.16204834
 1238.1000000 72.096580505 2.7122554779 602.20941162
 1238.2000000 72.087249756 2.7129898071 602.25683594
 1238.3000000 72.077919006 2.7137243748 602.30419922
 1238.4000000 72.068580627 2.7144589424 602.35156250
 1238.5000000 72.059249878 2.7106990814 602.39898682
 1238.6000000 72.049919128 2.7085680962 602.44635010
 1238.7000000 72.040588379 2.7090711594 602.49377441
 1238.8000000 72.031250000 2.7129549980 602.54113770
 1238.9000000 72.021919250 2.7112057209 602.58856201
 1239.0000000 72.012588501 2.7094564438 602.63592529
 1239.1000000 72.003257751 2.7077071667 602.68334961
 1239.2000000 71.993919373 2.7059578896 602.73071289
 1239.3000000 71.984588623 2.7042086124 602.77813721
 1239.4000000 71.975257874 2.7024593353 602.82550049
 1239.5000000 71.965927124 2.7007100582 602.87286377
 1239.6000000 71.956588745 2.6936388016 602.92028809
 1239.7000000 71.947257996 2.6911249161 602.96765137
 1239.8000000 71.937927246 2.6928920746 603.01507568
 1239.9000000 72.028663635 2.6962409019 603.06243896
 1240.0000000 72.119392395 2.6991851330 603.10986328
 1240.1000000 72.112281799 2.6997318268 603.15722656
 1240.2000000 72.105163574 2.6979379654 603.20465088
 1240.3000000 72.083503723 2.6952672005 603.25201416
 1240.4000000 72.061836243 2.6918921471 603.29943848
 1240.5000000 72.040176392 2.6804280281 603.34680176
 1240.6000000 72.018508911 2.6748058796 603.39416504
 1240.7000000 71.996849060 2.6764199734 603.44158936
 1240.8000000 71.975181580 2.6822872162 603.48895264
 1240.9000000 71.953521729 2.6803610325 603.53637695
 1241.0000000 71.844558716 2.6740658283 603.58374023
 1241.1000000 71.966705322 2.6741857529 603.63116455
 1241.2000000 71.986953735 2.6743054390 603.67852783
 1241.3000000 72.007194519 2.6744253635 603.72595215
 1241.4000000 71.925521851 2.6745452881 603.77331543
 1241.5000000 71.843856812 2.6746649742 603.82073975
 1241.6000000 71.837486267 2.6747848988 603.86810303
 1241.7000000 71.831108093 2.6823291779 603.91546631
 1241.8000000 71.824737549 2.6862027645 603.96289063
 1241.9000000 71.856002808 2.6857271194 604.01025391
 1242.0000000 71.887275696 2.6819629669 604.05767822
 1242.1000000 71.918548584 2.6776990891 604.10504150
 1242.2000000 71.890380859 2.6748530865 604.15246582
 1242.3000000 71.911750793 2.6746509075 604.19982910
 1242.4000000 71.933113098 2.6774461269 604.24725342
 1242.5000000 71.927093506 2.6828579903 604.29461670
 1242.6000000 71.921073914 2.6906621456 604.34204102
 1242.7000000 71.915054321 2.7001049519 604.38940430
 1242.8000000 71.909027100 2.7004210949 604.43682861
 1242.9000000 71.903007507 2.7007372379 604.48419189
 1243.0000000 71.896987915 2.7010533810 604.53155518
 1243.1000000 71.890968323 2.7013695240 604.57897949
