# LAS format log file from PETREL
# Project units are specified as depth units
#==================================================================
~Version information
VERS.   2.0:
WRAP.   NO:
#==================================================================
~Well
STRT .m      20.100000000 :
STOP .m      2623.3000000 :
STEP .m     0.10000000 :
NULL .        -999.250000 :
COMP.           : COMPANY
WELL.  P-130   : WELL
FLD.            : FIELD
LOC.            : LOCATION
SRVC.           : SERVICE COMPANY
DATE.  2014-09-16 16:48:38   : Log Export Date {yyyy-MM-dd HH:mm:ss}
PROV.           : PROVINCE
UWI.      : UNIQUE WELL ID
API.            : API NUMBER
#==================================================================
~Curve
DEPT .m                   : DEPTH
Sonic_despiked .us/ft     : Sonic_despiked
RHOB_despiked .g/cm3      : RHOB_despiked
two-waytime .ms           : two-way time
~Parameter
#==================================================================
~Ascii
# ...
 1907.6000000 68.319633484 2.6275091171 920.12500000
 1907.7000000 68.372657776 2.6214239597 920.17199707
 1907.8000000 68.626289368 2.6196088791 920.21899414
 1907.9000000 68.721427917 2.6241431236 920.26599121
 1908.0000000 68.695129395 2.6354851723 920.31298828
 1908.1000000 68.668830872 2.6493768692 920.35998535
 1908.2000000 68.683013916 2.6613211632 920.40698242
 1908.3000000 68.697189331 2.6662318707 920.45397949
 1908.4000000 68.711372375 2.6650049686 920.50097656
 1908.5000000 68.725555420 2.6599709988 920.54797363
 1908.6000000 68.739738464 2.6544141769 920.59497070
 1908.7000000 68.753913879 2.6507380009 920.64202881
 1908.8000000 68.768096924 2.6491980553 920.68902588
 1908.9000000 68.782279968 2.6485569477 920.73602295
 1909.0000000 68.796455383 2.6464068890 920.78302002
 1909.1000000 68.799041748 2.6408379078 920.83001709
 1909.2000000 68.801628113 2.6302759647 920.87701416
 1909.3000000 68.804214478 2.6144881248 920.92401123
 1909.4000000 68.806800842 2.5957469940 920.97100830
 1909.5000000 68.809387207 2.5960087776 921.01800537
 1909.6000000 68.811973572 2.5962705612 921.06500244
 1909.7000000 68.814559937 2.5965323448 921.11199951
 1909.8000000 68.817146301 2.5967943668 921.15899658
 1909.9000000 68.819732666 2.5970561504 921.20599365
 1910.0000000 68.822319031 2.5973179340 921.25299072
 1910.1000000 68.824905396 2.5975797176 921.29998779
 1910.2000000 68.827491760 2.5978415012 921.34698486
 1910.3000000 68.830078125 2.5981035233 921.39398193
 1910.4000000 68.832664490 2.5983653069 921.44097900
 1910.5000000 68.835250854 2.5986270905 921.48797607
 1910.6000000 68.837829590 2.5988888741 921.53497314
 1910.7000000 68.840415955 2.6296870708 921.58197021
 1910.8000000 68.843002319 2.6598820686 921.62902832
 1910.9000000 68.845588684 2.6582858562 921.67602539
 1911.0000000 68.848175049 2.6566896439 921.72302246
 1911.1000000 68.850761414 2.6550931931 921.77001953
 1911.2000000 68.853347778 2.6534969807 921.81701660
 1911.3000000 68.855934143 2.6416659355 921.86401367
 1911.4000000 68.858520508 2.6344838142 921.91101074
 1911.5000000 68.861106873 2.6316058636 921.95800781
 1911.6000000 68.863693237 2.6299140453 922.00500488
 1911.7000000 68.866279602 2.6274030209 922.05200195
 1911.8000000 68.868865967 2.6224069595 922.09899902
 1911.9000000 68.871452332 2.6150519848 922.14599609
 1912.0000000 68.874038696 2.6062901020 922.19299316
 1912.1000000 68.869918823 2.5975739956 922.23999023
 1912.2000000 68.865791321 2.5976891518 922.28698730
 1912.3000000 68.861663818 2.5978045464 922.33398438
 1912.4000000 68.857536316 2.5979197025 922.38098145
 1912.5000000 68.853408813 2.5980348587 922.42797852
 1912.6000000 68.850120544 2.6101319790 922.47497559
 1912.7000000 68.846832275 2.6236560345 922.52197266
 1912.8000000 68.843536377 2.6358392239 922.56896973
 1912.9000000 68.840248108 2.6459810734 922.61602783
 1913.0000000 68.836959839 2.6548290253 922.66302490
 1913.1000000 68.833671570 2.6634981632 922.71002197
 1913.2000000 68.830383301 2.6636450291 922.75701904
 1913.3000000 68.827087402 2.6637918949 922.80401611
 1913.4000000 68.823799133 2.6639387608 922.85101318
 1913.5000000 68.820510864 2.6640856266 922.89801025
 1913.6000000 68.817222595 2.6642324924 922.94500732
 1913.7000000 68.813934326 2.6643793583 922.99200439
 1913.8000000 68.810638428 2.6645262241 923.03900146
 1913.9000000 68.807350159 2.6646730900 923.08599854
 1914.0000000 68.804061890 2.6648199558 923.13299561
 1914.1000000 68.800773621 2.6648681164 923.17999268
 1914.2000000 68.797485352 2.6650052071 923.22698975
 1914.3000000 68.794197083 2.6651420593 923.27398682
 1914.4000000 68.790901184 2.6652791500 923.32098389
 1914.5000000 68.787612915 2.6590359211 923.36798096
 1914.6000000 68.784324646 2.6511988640 923.41497803
 1914.7000000 68.781036377 2.6431770325 923.46197510
 1914.8000000 68.777748108 2.6358859539 923.50897217
 1914.9000000 68.774452209 2.6296908855 923.55603027
 1915.0000000 68.771163940 2.6225349903 923.60302734
 1915.1000000 68.767875671 2.6035530567 923.65002441
 1915.2000000 68.690498352 2.6038005352 923.69702148
 1915.3000000 68.613128662 2.6040477753 923.74401855
 1915.4000000 68.535751343 2.6042952538 923.79101563
 1915.5000000 68.458381653 2.6045424938 923.83801270
 1915.6000000 68.505699158 2.6047899723 923.88500977
 1915.7000000 68.553016663 2.6203429699 923.93200684
 1915.8000000 68.600334167 2.6329641342 923.97900391
 1915.9000000 68.647651672 2.6486780643 924.02600098
 1916.0000000 68.694969177 2.6635968685 924.07299805
 1916.1000000 68.742286682 2.6630425453 924.11999512
 1916.2000000 68.706703186 2.6624882221 924.16699219
 1916.3000000 68.671127319 2.6619338989 924.21398926
 1916.4000000 68.635543823 2.6613793373 924.26098633
 1916.5000000 68.599960327 2.6608250141 924.30798340
 1916.6000000 68.564376831 2.6602706909 924.35498047
 1916.7000000 68.528793335 2.6597163677 924.40197754
 1916.8000000 68.528251648 2.6591620445 924.44897461
 1916.9000000 68.527709961 2.6303248405 924.49597168
 1917.0000000 68.527168274 2.6027619839 924.54302979
 1917.1000000 68.526626587 2.6016292572 924.59002686
 1917.2000000 68.526084900 2.6004965305 924.63702393
 1917.3000000 68.525543213 2.5993638039 924.68402100
 1917.4000000 68.525001526 2.5982310772 924.73101807
 1917.5000000 68.524459839 2.5970983505 924.77801514
 1917.6000000 68.523918152 2.5959656239 924.82501221
 1917.7000000 68.507766724 2.5948328972 924.87200928
 1917.8000000 68.482292175 2.5937004089 924.91900635
 1917.9000000 68.456825256 2.5925676823 924.96600342
 1918.0000000 68.431350708 2.5914349556 925.01300049
 1918.1000000 68.405883789 2.5903022289 925.05999756
 1918.2000000 68.380409241 2.5891695023 925.10699463
 1918.3000000 68.354934692 2.5880367756 925.15399170
 1918.4000000 68.329467773 2.5869040489 925.20098877
 1918.5000000 68.303993225 2.5986289978 925.24798584
 1918.6000000 68.278518677 2.6107339859 925.29498291
 1918.7000000 68.253051758 2.6236388683 925.34197998
 1918.8000000 68.227577209 2.6379609108 925.38897705
 1918.9000000 68.202110291 2.6540849209 925.43597412
 1919.0000000 68.176635742 2.6709342003 925.48297119
 1919.1000000 67.990158081 2.6703350544 925.53002930
 1919.2000000 67.803672791 2.6697359085 925.57702637
 1919.3000000 67.768531799 2.6691365242 925.62402344
 1919.4000000 67.733390808 2.6685373783 925.67102051
 1919.5000000 67.698249817 2.6679382324 925.71801758
 1919.6000000 67.663108826 2.6673390865 925.76501465
 1919.7000000 67.627967834 2.6667399406 925.81201172
 1919.8000000 67.592826843 2.6661407948 925.85900879
 1919.9000000 67.557685852 2.6655414104 925.90600586
 1920.0000000 67.522544861 2.6649422646 925.95300293
 1920.1000000 67.487403870 2.6643431187 926.00000000
 1920.2000000 67.452262878 2.6469008923 926.04119873
 1920.3000000 67.417121887 2.6238710880 926.08239746
 1920.4000000 67.381980896 2.5958468914 926.12353516
 1920.5000000 67.346839905 2.5977888107 926.16473389
 1920.6000000 67.311698914 2.5997307301 926.20593262
 1920.7000000 67.276557922 2.6016726494 926.24713135
 1920.8000000 67.241416931 2.6036143303 926.28826904
 1920.9000000 67.206275940 2.6055562496 926.32946777
 1921.0000000 67.171134949 2.6074981689 926.37066650
 1921.1000000 67.135993958 2.6094400883 926.41186523
 1921.2000000 67.100852966 2.6113820076 926.45300293
 1921.3000000 67.065704346 2.6415100098 926.49420166
 1921.4000000 67.030563354 2.6643669605 926.53540039
 1921.5000000 66.995422363 2.6743099689 926.57659912
 1921.6000000 66.983192444 2.6714007854 926.61773682
 1921.7000000 66.970962524 2.6590619087 926.65893555
 1921.8000000 66.958732605 2.6416058540 926.70013428
 1921.9000000 66.946502686 2.6192381382 926.74133301
 1922.0000000 66.934272766 2.5891799927 926.78247070
 1922.1000000 66.922042847 2.5910081863 926.82366943
 1922.2000000 66.909812927 2.5928366184 926.86486816
 1922.3000000 66.897583008 2.5946648121 926.90606689
 1922.4000000 66.885353088 2.5964930058 926.94726563
 1922.5000000 66.873130798 2.5983211994 926.98840332
 1922.6000000 66.860900879 2.6001493931 927.02960205
