# LAS format log file from PETREL
# Project units are specified as depth units
#==================================================================
~Version information
VERS.   2.0:
WRAP.   NO:
#==================================================================
~Well
STRT .m      -0.914400000 :
STOP .m      1533.4488000 :
STEP .m     0.15240000 :
NULL .        -999.250000 :
COMP.           : COMPANY
WELL.  P-140   : WELL
FLD.            : FIELD
LOC.            : LOCATION
SRVC.           : SERVICE COMPANY
DATE.  2015-12-30 13:54:20   : Log Export Date {yyyy-MM-dd HH:mm:ss}
PROV.           : PROVINCE
UWI.      : UNIQUE WELL ID
API.            : API NUMBER
#==================================================================
~Curve
DEPT .m                   : DEPTH
DT .us/ft                 : DT
DTS .us/ft                : DTS
GR .gAPI                  : GR
AF10 .ohm.m               : AF10
AF20 .ohm.m               : AF20
AF30 .ohm.m               : AF30
AF60 .ohm.m               : AF60
AF90 .ohm.m               : AF90
AMF .ohm.m                : AMF
PEF .b/e                  : PEF
RHOB .g/cm3               : RHOB
HDRA .g/cm3               : HDRA
RHOB_despiked .g/cm3      : RHOB_despiked
NPHI_SAN .m3/m3           : NPHI_SAN
~Parameter
#==================================================================
~Ascii
# ...
 1217.5236000 61.842700958  -999.250000 59.171390533 48.628768921 48.035381317 46.714149475 44.128608704 44.051990509 0.7195299864 3.1450099945 2.6453459263 0.0039715800 2.6453459263 0.2042099983
 1217.6760000 61.858825684  -999.250000 48.395759583 57.949691772 61.064640045 58.344921112 52.516929626 55.321441650 0.7200000286 3.3112800121 2.6549270153 0.0053293700 2.6549270153 0.1667699963
 1217.8284000 61.928989410  -999.250000 44.287658691 79.739326477 75.189567566 74.850563049 71.192237854 70.772407532 0.7200300097 3.4432399273 2.6595759392 0.0042278799 2.6595759392 0.1428599954
 1217.9808000 62.052036285  -999.250000 49.655910492 86.031913757 89.757232666 85.774162292 76.434356689 73.630241394 0.7200700045 3.4958400726 2.6726760864 0.0040171198 2.6726760864 0.1315799952
 1218.1332000 61.972820282  -999.250000 51.956439972 91.069519043 84.741546631 74.936233521 69.885856628 71.623817444 0.7215200067 3.4711201191 2.6822891235 0.0016920600 2.6743340492 0.1052300036
 1218.2856000 61.894397736  -999.250000 59.625568390 73.266036987 70.057579041 65.830497742 60.492130280 60.376911163 0.7229800224 3.3540899754 2.6957471371 0.0033385798 2.6759920120 0.1163600013
 1218.4380000 62.137901306  -999.250000 67.376510620 49.185539246 46.677600861 44.812610626 42.163391113 42.063060760 0.7232000232 3.1852600574 2.6903910637 0.0034816300 2.6776499748 0.1745000035
 1218.5904000 62.156951904  -999.250000 75.812133789 36.206668854 34.487888336 33.226268768 31.641939163 31.722900391 0.7234299779 3.0624101162 2.6689598560 0.0018250900 2.6689598560 0.2030899972
 1218.7428000 62.846958160  -999.250000 79.736106873 35.298118591 32.147270203 31.324569702 29.977750778 29.820709229 0.7224699855 2.9957199097 2.6525208950 0.0010807500 2.6525208950 0.2382999957
 1218.8952000 62.884323120  -999.250000 84.644126892 36.727119446 32.500240326 31.519210815 30.184709549 29.902339935 0.7215200067 2.9955101013 2.6412770748 0.0006070100 2.6412770748 0.2100699991
 1219.0476000 62.592967987  -999.250000 85.028289795 38.387889862 34.660781860 33.004249573 32.075141907 31.211889267 0.7212799788 3.0193600655 2.6342508793 -0.000867840 2.6342508793 0.2135100067
 1219.2000000 62.602050781  -999.250000 82.440109253 44.891040802 39.387111664 37.532260895 37.049240112 36.424011230 0.7210400105 3.1092100143 2.6290419102 -0.003930330 2.6328330040 0.2281900048
 1219.3524000 62.368419647  -999.250000 73.620986938 56.419258118 48.791118622 45.795051575 43.718730927 42.934841156 0.7202399969 3.2676899433 2.6314151287 -0.005430460 2.6314151287 0.1836200058
 1219.5048000 62.539474487  -999.250000 72.580627441 73.067047119 65.716903687 64.273010254 58.699748993 57.323841095 0.7194399834 3.3820600510 2.6488730907 -0.003237720 2.6488730907 0.1512600034
 1219.6572000 62.345649719  -999.250000 68.214492798 88.070991516 77.673820496 73.144401550 66.586608887 65.997451782 0.7191500068 3.4196999073 2.6640319824 -0.005528690 2.6640319824 0.1398500055
 1219.8096000 62.569862366  -999.250000 68.367698669 72.294746399 61.865749359 58.944679260 54.844509125 54.905670166 0.7188500166 3.3202199936 2.6722829342 -0.006250380 2.6722829342 0.1663199961
 1219.9620000 63.395503998  -999.250000 71.854911804 52.941368103 45.027118683 43.229660034 40.970958710 41.613048553 0.7184500098 3.2032499313 2.6632590294 -0.007050990 2.6632590294 0.2061299980
 1220.1144000 63.508007050  -999.250000 78.502609253 44.252738953 38.379970551 37.330711365 35.712539673 36.079849243 0.7180500031 3.0885200500 2.6648378372 -0.000153060 2.6648378372 0.2046599984
 1220.2668000 63.927989960  -999.250000 80.037841797 42.987449646 37.675708771 35.956459045 34.560161591 34.856311798 0.7178699970 3.0175399780 2.6636297703 0.0028331298 2.6636297703 0.2004700005
 1220.4192000 64.135864258  -999.250000 76.007347107 42.297710419 37.486328125 35.576900482 33.174991608 34.341331482 0.7176899910 3.0301198959 2.6518490314 -0.000165220 2.6518490314 0.2136500031
 1220.5716000 64.571144104  -999.250000 71.976219177 41.990741730 37.390399933 35.314418793 33.309951782 34.475971222 0.7178500295 3.0544800758 2.6367781162 -0.004167320 2.6367781162 0.2055000067
 1220.7240000 64.482543945  -999.250000 73.703666687 44.026840210 39.352020264 36.423809052 34.704708099 35.810729980 0.7180100083 3.0864100456 2.6293821335 -0.006467820 2.6348676682 0.2115100026
 1220.8764000 64.120475769  -999.250000 74.747673035 47.132720947 43.484310150 39.801639557 37.115169525 38.501350403 0.7181000113 3.0666000843 2.6329569817 -0.003892900 2.6329569817 0.2051199973
 1221.0288000 63.810703278  -999.250000 75.623306274 49.050308228 47.004081726 43.434909821 40.084831238 42.031089783 0.7182000279 3.0105500221 2.6392180920 -0.003770590 2.6392180920 0.2138299942
 1221.1812000 63.776748657  -999.250000 76.818298340 50.594730377 50.515350342 46.479370117 43.314880371 43.982120514 0.7184799910 2.9084799290 2.6573169231 -0.001744030 2.6573169231 0.2020000070
 1221.3336000 63.791439056  -999.250000 81.280738831 50.994430542 53.287628174 50.190319061 46.792018890 47.006340027 0.7187600136 2.8357601166 2.6756200790 -0.001350400 2.6756200790 0.2226700038
 1221.4860000 63.790283203  -999.250000 88.400917053 57.550380707 61.423320770 56.621551514 52.875198364 51.166770935 0.7189700007 2.8484899998 2.6755950451 -0.001007560 2.6755950451 0.2075099945
 1221.6384000 62.499027252  -999.250000 89.360313416 67.134376526 70.894912720 65.461647034 59.382110596 58.001831055 0.7191900015 2.9359600544 2.6574380398 -0.003165960 2.6574380398 0.1977200061
 1221.7908000 61.705814362  -999.250000 96.185806274 70.567237854 73.424308777 67.712547302 61.484458923 60.736400604 0.7189400196 2.9903800488 2.6514642239 -0.003118520 2.6514642239 0.1805800050
 1221.9432000 61.400863647  -999.250000 115.67620087 60.742229462 71.986740112 66.170562744 59.040130615 59.098541260 0.7186999917 3.0928299427 2.6570620537 -0.001345160 2.6570620537 0.1957399994
 1222.0956000 61.051162720  -999.250000 119.83599854 56.718128204 66.512847900 60.004238129 52.014190674 53.358470917 0.7184799910 3.3654699326 2.6698920727 0.0018484599 2.6698920727 0.2062399983
 1222.2480000 60.159259796  -999.250000 107.02940369 48.851200104 49.595291138 45.677078247 41.010700226 41.742141724 0.7182700038 3.8022899628 2.6831440926 0.0038063501 2.6831440926 0.2015500069
 1222.4004000 59.690902710  -999.250000 71.427688599 58.644798279 58.551589966 52.018268585 44.966159821 45.943950653 0.7166699767 4.2312598228 2.7046720982 0.0053298501 2.6935553551 0.1116899997
 1222.5528000 59.874759674  -999.250000 50.641849518 77.318443298 85.822639465 95.419532776 70.487152100 77.774002075 0.7150700092 4.4637398720 2.7221050262 0.0042362199 2.7039663792 0.0687000006
 1222.7052000 59.860065460  -999.250000 45.081859589 90.181846619 95.222717285 115.41829681 86.271057129 91.631477356 0.7132400274 4.4822797775 2.7274432182 0.0086617498 2.7032606602 0.0909200013
 1222.8576000 61.506446838  -999.250000 58.540828705 49.484191895 61.067001343 59.644481659 47.981399536 47.677719116 0.7114199996 4.3520598412 2.7143268585 0.0385069810 2.7025549412 0.1230299994
 1223.0100000 63.451133728  -999.250000 80.217788696 37.807430267 43.568828583 44.424739838 38.216350555 36.988960266 0.7109799981 4.1514000893 2.7189838886 0.1104271039 2.7018492222 0.1690099984
 1223.1624000 63.743343353  -999.250000 101.89900208 31.418199539 34.371070862 35.252971649 30.346839905 30.181520462 0.7105399966 3.9174499512 2.7127218246 0.2051517963 2.7011435032 0.2340500057
 1223.3148000 63.906745911  -999.250000 117.35970306 36.748538971 42.698371887 46.631729126 41.062198639 40.894630432 0.7098799944 3.6970999241 2.6994569302 0.2848877907 2.6994569302 0.2764399946
 1223.4672000 65.736274719  -999.250000 125.76740265 30.384120941 33.855598450 38.237068176 36.570549011 36.769039154 0.7092199922 3.5295999050 2.6878688335 0.3407687843 2.6878688335 0.2416799963
 1223.6196000 65.648674011  -999.250000 129.14190674 37.334159851 37.422550201 43.513679504 43.211048126 43.534229279 0.7088199854 3.4547801018 2.6987290382 0.3710725009 2.6987290382 0.2280600071
