# LAS format log file from PETREL
# Project units are specified as depth units
#==================================================================
~Version information
VERS.   2.0:
WRAP.   NO:
#==================================================================
~Well
STRT .m      -0.914400000 :
STOP .m      1533.4488000 :
STEP .m     0.15240000 :
NULL .        -999.250000 :
COMP.           : COMPANY
WELL.  P-140   : WELL
FLD.            : FIELD
LOC.            : LOCATION
SRVC.           : SERVICE COMPANY
DATE.  2015-12-30 13:54:20   : Log Export Date {yyyy-MM-dd HH:mm:ss}
PROV.           : PROVINCE
UWI.      : UNIQUE WELL ID
API.            : API NUMBER
#==================================================================
~Curve
DEPT .m                   : DEPTH
DT .us/ft                 : DT
DTS .us/ft                : DTS
GR .gAPI                  : GR
AF10 .ohm.m               : AF10
AF20 .ohm.m               : AF20
AF30 .ohm.m               : AF30
AF60 .ohm.m               : AF60
AF90 .ohm.m               : AF90
AMF .ohm.m                : AMF
PEF .b/e                  : PEF
RHOB .g/cm3               : RHOB
HDRA .g/cm3               : HDRA
RHOB_despiked .g/cm3      : RHOB_despiked
NPHI_SAN .m3/m3           : NPHI_SAN
~Parameter
#==================================================================
~Ascii
# ...
 311.50560000 67.961135864  -999.250000 88.960166931 71.800727844 60.621818542 59.056251526 58.006259918 57.338298798 0.9005399942 2.9133501053 2.6737420559 -0.001936670 2.6737420559 0.1770000011
 311.65800000 69.390769958  -999.250000 98.941902161 67.185859680 55.753189087 55.227020264 54.587871552 55.045501709 0.8996199965 2.9108099937 2.6872251034 0.0005164100 2.6872251034 0.1803999990
 311.81040000 69.413963318  -999.250000 103.23149872 63.593021393 52.948211670 51.875049591 51.223640442 52.547031403 0.8986999989 2.9505100250 2.6831560135 0.0003340200 2.6831560135 0.1761900038
 311.96280000 69.748481750  -999.250000 110.47470093 55.796310425 47.912151337 47.376529694 46.933689117 48.421058655 0.8985199928 3.0311899185 2.6799359322 0.0004637200 2.6799359322 0.1784600019
 312.11520000 71.314636230  -999.250000 116.51480103 49.562580109 42.911930084 42.551658630 42.538780212 44.370761871 0.8983399868 3.1426899433 2.6823580265 0.0032417800 2.6823580265 0.2519100010
 312.26760000 71.618644714  -999.250000 115.10179901 46.864120483 41.101169586 40.326778412 39.956501007 42.998031616 0.8981800079 3.2082200050 2.6959319115 0.0124127902 2.6959319115 0.2568199933
 312.42000000 71.830146790  -999.250000 114.71630096 45.544128418 40.109169006 39.354660034 39.711631775 41.566638947 0.8980200291 3.2135400772 2.6879940033 0.0105910301 2.6879940033 0.2202800065
 312.57240000 71.684844971  -999.250000 116.15080261 45.017768860 39.791179657 39.702049255 39.755668640 41.120761871 0.8971300125 3.2532401085 2.6702098846 0.0037357800 2.6702098846 0.2345699966
 312.72480000 71.878150940  -999.250000 112.81179810 53.239158630 44.406818390 44.463638306 44.725299835 45.883201599 0.8962399960 3.2357399464 2.6564190388 -0.005258800 2.6564190388 0.2431499958
 312.87720000 71.755470276  -999.250000 108.12930298 62.408161163 53.518619537 52.556308746 52.320930481 53.595680237 0.8957499862 3.2052099705 2.6648678780 -0.003350740 2.6648678780 0.2128800005
 313.02960000 71.452033997  -999.250000 103.95529938 73.965316772 63.699848175 61.964080811 61.383640289 63.177909851 0.8952699900 3.1332199574 2.6759209633 -0.000672100 2.6759209633 0.1906599998
 313.18200000 71.521347046  -999.250000 113.02690125 68.177406311 60.024238586 60.747539520 58.529880524 61.362770081 0.8963599801 3.1000900269 2.6835281849 -0.000540020 2.6835281849 0.1747100055
 313.33440000 70.798698425  -999.250000 115.72319794 56.083889008 49.244861603 49.835571289 50.432960510 51.279209137 0.8974599838 3.1242399216 2.6842689514 -0.002629280 2.6842689514 0.2117899954
 313.48680000 71.337646484  -999.250000 118.94799805 51.033699036 45.156990051 44.491168976 46.952529907 47.258979797 0.8978000283 3.1155600548 2.6880700588 -0.002928020 2.6880700588 0.2742899954
 313.63920000 71.237495422  -999.250000 106.47450256 55.426319122 48.832988739 48.603900909 49.188659668 49.517948151 0.8981299996 3.1136798859 2.6946520805 0.0000617500 2.6946520805 0.2153600007
 313.79160000 71.336250305  -999.250000 108.58809662 58.076839447 50.740589142 51.429969788 50.159130096 50.702720642 0.8987600207 3.0898098946 2.7020380497 0.0036275401 2.7020380497 0.1761399955
 313.94400000 71.659576416  -999.250000 108.42880249 58.798740387 49.583049774 50.875591278 51.200901031 52.300178528 0.8993899822 3.1691501141 2.6965479851 0.0027148700 2.6965479851 0.2182700038
 314.09640000 72.257690430  -999.250000 117.54119873 56.040359497 50.022418976 50.576000214 49.816310883 51.458709717 0.8994799852 3.2564001083 2.6875028610 -0.000699520 2.6875028610 0.2538700104
 314.24880000 72.477386475  -999.250000 117.02770233 54.721981049 50.984901428 49.651069641 48.705448151 50.539848328 0.8995699883 3.3618700504 2.6773998737 -0.004419090 2.6773998737 0.2316499949
 314.40120000 72.687637329  -999.250000 120.42970276 51.850521088 50.561180115 48.846900940 48.692501068 49.773899078 0.8994699717 3.3768200874 2.6778640747 -0.003686910 2.6778640747 0.2235500067
 314.55360000 72.917488098  -999.250000 121.58519745 56.247840881 48.472721100 47.689910889 47.121120453 48.958408356 0.8993700147 3.3493299484 2.6776878834 -0.002118350 2.6776878834 0.2457199991
 314.70600000 73.298301697  -999.250000 118.09529877 55.741199493 49.831809998 48.460781097 47.619911194 50.207889557 0.8993499875 3.3006401062 2.6965510845 0.0032427299 2.6965510845 0.2372699976
 314.85840000 73.629348755  -999.250000 115.27290344 56.041248322 50.509540558 49.384479523 48.242618561 50.913108826 0.8993200064 3.2770600319 2.7163128853 0.0063498002 2.7163128853 0.2047799975
 315.01080000 73.938568115  -999.250000 118.28780365 56.483909607 48.106918335 48.085979462 47.452270508 49.996749878 0.8990499973 3.3645100594 2.7250089645 0.0055415602 2.7128658295 0.2382899970
 315.16320000 73.861480713  -999.250000 124.34539795 57.436199188 46.629631042 47.744518280 47.013530731 50.189830780 0.8987699747 3.5677299500 2.7094190121 -0.000182870 2.7094190121 0.2824499905
 315.31560000 74.084106445  -999.250000 122.55709839 55.761058807 47.112709045 46.986099243 46.592048645 49.274929047 0.8987200260 3.7349700928 2.7001569271 -0.003018140 2.7001569271 0.2824099958
 315.46800000 74.421005249  -999.250000 119.27919769 54.730068207 45.461540222 47.350429535 47.687820435 49.971309662 0.8986799717 3.7874400616 2.7015049458 -0.002596380 2.7015049458 0.2969999909
 315.62040000 74.990005493  -999.250000 120.78540039 54.714450836 48.546890259 48.438579559 48.369380951 50.620590210 0.8984699845 3.6980299950 2.7153019905 0.0010354500 2.7153019905 0.2872300148
 315.77280000 75.323791504  -999.250000 123.80419922 52.485130310 47.173809052 45.601959229 47.004909515 48.514701843 0.8982499838 3.6251800060 2.7162718773 0.0031161301 2.7162718773 0.2954300046
 315.92520000 75.480216980  -999.250000 129.32069397 45.344348907 44.431579590 42.080459595 42.081001282 43.654651642 0.8982099891 3.5826199055 2.7094080448 0.0044894200 2.7094080448 0.2662200034
 316.07760000 75.586257935  -999.250000 127.81970215 39.994499207 39.818099976 38.971748352 38.733718872 40.251049042 0.8981699944 3.5212800503 2.6977629662 0.0045757298 2.6977629662 0.2741099894
 316.23000000 75.512733459  -999.250000 131.17390442 46.917430878 39.883991241 38.662910461 39.235088348 40.474979401 0.8980200291 3.4959800243 2.6970200539 0.0053298501 2.6970200539 0.2841100097
 316.38240000 75.384658813  -999.250000 127.46839905 51.930709839 45.852859497 45.892108917 44.365600586 46.690670013 0.8978800178 3.5328299999 2.7074370384 0.0059592701 2.7074370384 0.2849600017
 316.53480000 75.343788147  -999.250000 125.99289703 59.430820465 48.205261230 47.984790802 47.983871460 49.422489166 0.8980100155 3.6013700962 2.7249009609 0.0070092701 2.7249009609 0.2799000144
 316.68720000 74.979644775  -999.250000 125.34300232 58.476848602 47.624851227 49.839908600 51.231491089 52.534469604 0.8981500268 3.6047101021 2.7299020290 0.0056641102 2.7262799740 0.2974399924
 316.83960000 74.735252380  -999.250000 124.51730347 59.132061005 49.947269440 50.258251190 51.660369873 52.230491638 0.8983899951 3.5575900078 2.7276589870 0.0038852701 2.7224605083 0.2676799893
 316.99200000 74.575386047  -999.250000 121.81459808 60.672039032 51.635768890 52.019149780 55.287010193 54.340759277 0.8986300230 3.5211300850 2.7186410427 0.0019023401 2.7186410427 0.2678099871
 317.14440000 74.113555908  -999.250000 120.49109650 61.158489227 53.051410675 52.927509308 55.203941345 54.874198914 0.8979600072 3.5114500523 2.7218439579 0.0026450199 2.7218439579 0.2635900080
 317.29680000 73.875045776  -999.250000 122.20829773 60.720481873 54.654949188 53.806720734 54.759590149 55.789390564 0.8972899914 3.5060100555 2.7181370258 0.0021319399 2.7181370258 0.2672100067
 317.44920000 73.597862244  -999.250000 122.29429626 61.375339508 56.793560028 55.172790527 56.087188721 56.991439819 0.8965399861 3.4948101044 2.7208330631 0.0028321701 2.7208330631 0.2751300037
 317.60160000 73.577438354  -999.250000 124.87030029 60.132919312 54.891479492 53.383750916 54.462921143 55.211360931 0.8957899809 3.5065500736 2.7244660854 0.0042524301 2.7244660854 0.2688499987
