# LAS format log file from PETREL
# Project units are specified as depth units
#==================================================================
~Version information
VERS.   2.0:
WRAP.   NO:
#==================================================================
~Well
STRT .m      -0.914400000 :
STOP .m      1533.4488000 :
STEP .m     0.15240000 :
NULL .        -999.250000 :
COMP.           : COMPANY
WELL.  P-140   : WELL
FLD.            : FIELD
LOC.            : LOCATION
SRVC.           : SERVICE COMPANY
DATE.  2015-12-30 13:54:20   : Log Export Date {yyyy-MM-dd HH:mm:ss}
PROV.           : PROVINCE
UWI.      : UNIQUE WELL ID
API.            : API NUMBER
#==================================================================
~Curve
DEPT .m                   : DEPTH
DT .us/ft                 : DT
DTS .us/ft                : DTS
GR .gAPI                  : GR
AF10 .ohm.m               : AF10
AF20 .ohm.m               : AF20
AF30 .ohm.m               : AF30
AF60 .ohm.m               : AF60
AF90 .ohm.m               : AF90
AMF .ohm.m                : AMF
PEF .b/e                  : PEF
RHOB .g/cm3               : RHOB
HDRA .g/cm3               : HDRA
RHOB_despiked .g/cm3      : RHOB_despiked
NPHI_SAN .m3/m3           : NPHI_SAN
~Parameter
#==================================================================
~Ascii
# ...
 1523.6952000  -999.250000  -999.250000  -999.250000 212.76390076 1950.0000000 1785.6579590 1261.8070068 1343.2950439 0.6774100065 2.8447799683 2.6484220028 0.0797600672 2.6484220028 0.0412199982
 1523.8476000  -999.250000  -999.250000  -999.250000 211.58670044 1950.0000000 1738.0240479 1360.9890137 1396.6920166 0.6782199740 2.8271300793 2.6499979496 0.0827538967 2.6499979496 0.0434000008
 1524.0000000  -999.250000  -999.250000  -999.250000 210.86880493 1950.0000000 1635.4310303 1436.4289551 1498.2309570 0.6790300012 2.8330099583 2.6543490887 0.0899391174 2.6543490887  -999.250000
 1524.1524000  -999.250000  -999.250000  -999.250000 206.87789917 1950.0000000 1510.8850098 1405.1579590 1604.4830322 0.6792500019 2.8396100998 2.6580471992 0.0899135992 2.6580471992  -999.250000
 1524.3048000  -999.250000  -999.250000  -999.250000 192.67410278 1950.0000000 1410.5260010 1251.5739746 1645.9720459 0.6794700027 2.8449900150 2.6650381088 0.0960128307 2.6650381088  -999.250000
 1524.4572000  -999.250000  -999.250000  -999.250000 187.70629883 1950.0000000 1365.6409912 1051.9229736 1569.5460205 0.6806600094 2.8402500153 2.6671187878 0.0943033695 2.6671187878  -999.250000
 1524.6096000  -999.250000  -999.250000  -999.250000 171.27830505 1950.0000000 1385.7530518 885.07257080 1396.1240234 0.6818600297 2.8247399330 2.6620519161 0.0876653194 2.6620519161  -999.250000
 1524.7620000  -999.250000  -999.250000  -999.250000 161.16439819 1950.0000000 1462.6529541 781.95538330 1204.0290527 0.6808099747 2.8019599915 2.6587438583 0.0809183121 2.6587438583  -999.250000
 1524.9144000  -999.250000  -999.250000  -999.250000 155.88780212 1950.0000000 1563.6899414 745.30700684 1057.8580322 0.6797699928 2.7874200344 2.6574480534 0.0817737579 2.6574480534  -999.250000
 1525.0668000  -999.250000  -999.250000  -999.250000 158.62660217 1950.0000000 1631.0460205 774.01171875 983.78112793 0.6802200079 2.7952599525 2.6602208614 0.0892131254 2.6602208614  -999.250000
 1525.2192000  -999.250000  -999.250000  -999.250000 170.61489868 1950.0000000 1613.3530273 871.43402100 987.00708008 0.6806799769 2.8190898895 2.6641259193 0.0957531855 2.6641259193  -999.250000
 1525.3716000  -999.250000  -999.250000  -999.250000 195.46389771 1950.0000000 1514.5150146 1042.6090088 1067.7969971 0.6826300025 2.8264999390 2.6701030731 0.0932862759 2.6701030731  -999.250000
 1525.5240000  -999.250000  -999.250000  -999.250000 242.29310608 1950.0000000 1389.1669922 1279.4990234 1222.5899658 0.6845899820 2.8251700401 2.6821010113 0.0905609131 2.6821010113  -999.250000
 1525.6764000  -999.250000  -999.250000  -999.250000 295.46200562 1950.0000000 1290.2569580 1541.4809570 1432.1770020 0.6819300056 2.8247699738 2.6874251366 0.0847339630 2.6874251366  -999.250000
 1525.8288000  -999.250000  -999.250000  -999.250000 353.72180176 1950.0000000 1245.9949951 1763.8470459 1650.7939453 0.6792799830 2.8400700092 2.6964340210 0.0865149572 2.6964340210  -999.250000
 1525.9812000  -999.250000  -999.250000  -999.250000 362.55389404 1950.0000000 1265.4389648 1904.5329590 1821.9730225 0.6820200086 2.8508601189 2.7002859116 0.0901458263 2.7002859116  -999.250000
 1526.1336000  -999.250000  -999.250000  -999.250000 324.36428833 1950.0000000 1346.4300537 1950.0000000 1918.6820068 0.6847500205 2.8504199982 2.7009220123 0.0840628147 2.7009220123  -999.250000
 1526.2860000  -999.250000  -999.250000  -999.250000 271.44570923 1950.0000000 1475.3399658 1950.0000000 1942.6540527 0.6832799911  -999.250000  -999.250000  -999.250000 2.7009220123  -999.250000
 1526.4384000  -999.250000  -999.250000  -999.250000 228.36639404 1950.0000000 1623.6660156 1950.0000000 1905.7430420 0.6818100214  -999.250000  -999.250000  -999.250000 2.7009220123  -999.250000
 1526.5908000  -999.250000  -999.250000  -999.250000 199.27859497 1950.0000000 1749.9990234 1950.0000000 1819.1529541 0.6797000170  -999.250000  -999.250000  -999.250000 2.7009220123  -999.250000
 1526.7432000  -999.250000  -999.250000  -999.250000 181.70520020 1950.0000000 1817.6700439 1950.0000000 1699.9310303 0.6775900126  -999.250000  -999.250000  -999.250000 2.7009220123  -999.250000
 1526.8956000  -999.250000  -999.250000  -999.250000 171.82060242 1950.0000000 1813.5260010 1950.0000000 1575.3110352 0.6789500117  -999.250000  -999.250000  -999.250000 2.7009220123  -999.250000
 1527.0480000  -999.250000  -999.250000  -999.250000 166.60620117 1950.0000000 1751.8740234 1950.0000000 1476.1829834 0.6803200245  -999.250000  -999.250000  -999.250000 2.7009220123  -999.250000
 1527.2004000  -999.250000  -999.250000  -999.250000 165.12530518 1950.0000000 1663.3680420 1950.0000000 1425.3879395 0.6947500110  -999.250000  -999.250000  -999.250000 2.7009220123  -999.250000
 1527.3528000  -999.250000  -999.250000  -999.250000 164.25650024 1950.0000000 1578.1879883 1950.0000000 1433.0520020 0.7091799974  -999.250000  -999.250000  -999.250000 2.7009220123  -999.250000
 1527.5052000  -999.250000  -999.250000  -999.250000 165.76199341 1950.0000000 1516.7280273 1950.0000000 1497.6440430 1.1914499998  -999.250000  -999.250000  -999.250000 2.7009220123  -999.250000
 1527.6576000  -999.250000  -999.250000  -999.250000 167.42990112 1950.0000000 1488.0069580 1950.0000000 1605.7330322 1.6737200022  -999.250000  -999.250000  -999.250000 2.7009220123  -999.250000
 1527.8100000  -999.250000  -999.250000  -999.250000 169.23820496 1950.0000000 1490.8489990 1950.0000000 1731.6579590 1.7693699598  -999.250000  -999.250000  -999.250000 2.7009220123  -999.250000
 1527.9624000  -999.250000  -999.250000  -999.250000 171.96339417 1950.0000000 1514.6340332 1950.0000000 1844.7500000 1.8650200367  -999.250000  -999.250000  -999.250000 2.7009220123  -999.250000
 1528.1148000  -999.250000  -999.250000  -999.250000 174.66560364 1950.0000000 1540.0939941 1950.0000000 1924.8239746 1.8665499687  -999.250000  -999.250000  -999.250000 2.7009220123  -999.250000
 1528.2672000  -999.250000  -999.250000  -999.250000 177.37139893 1950.0000000 1544.2559814 1950.0000000 1950.0000000 1.8680900335  -999.250000  -999.250000  -999.250000 2.7009220123  -999.250000
 1528.4196000  -999.250000  -999.250000  -999.250000 180.39689636 1950.0000000 1512.0880127 1950.0000000 1950.0000000 1.8684500456  -999.250000  -999.250000  -999.250000 2.7009220123  -999.250000
 1528.5720000  -999.250000  -999.250000  -999.250000 183.62559509 1950.0000000 1446.7519531 1950.0000000 1950.0000000 1.8688100576  -999.250000  -999.250000  -999.250000 2.7009220123  -999.250000
 1528.7244000  -999.250000  -999.250000  -999.250000 186.82510376 1950.0000000 1367.0030518 1950.0000000 1950.0000000 1.8690299988  -999.250000  -999.250000  -999.250000 2.7009220123  -999.250000
 1528.8768000  -999.250000  -999.250000  -999.250000 189.12510681 1950.0000000 1293.8459473 1950.0000000 1950.0000000 1.8692500591  -999.250000  -999.250000  -999.250000 2.7009220123  -999.250000
 1529.0292000  -999.250000  -999.250000  -999.250000 193.61659241 1950.0000000 1240.3750000 1950.0000000 1950.0000000 1.8693399429  -999.250000  -999.250000  -999.250000 2.7009220123  -999.250000
 1529.1816000  -999.250000  -999.250000  -999.250000 199.39669800 1950.0000000 1209.8020020 1950.0000000 1950.0000000 1.8694200516  -999.250000  -999.250000  -999.250000 2.7009220123  -999.250000
 1529.3340000  -999.250000  -999.250000  -999.250000 206.23410034 1950.0000000 1197.9079590 1950.0000000 1950.0000000 1.8692599535  -999.250000  -999.250000  -999.250000 2.7009220123  -999.250000
 1529.4864000  -999.250000  -999.250000  -999.250000 213.86199951 1950.0000000 1196.7010498 1950.0000000 1950.0000000 1.8690999746  -999.250000  -999.250000  -999.250000 2.7009220123  -999.250000
 1529.6388000  -999.250000  -999.250000  -999.250000 221.50650024 1950.0000000 1198.4580078 1950.0000000 1950.0000000 1.8689399958  -999.250000  -999.250000  -999.250000 2.7009220123  -999.250000
 1529.7912000  -999.250000  -999.250000  -999.250000 229.74769592 1950.0000000 1198.7860107 1950.0000000 1950.0000000 1.8687900305  -999.250000  -999.250000  -999.250000 2.7009220123  -999.250000
