# LAS format log file from PETREL
# Project units are specified as depth units
#==================================================================
~Version information
VERS.   2.0:
WRAP.   NO:
#==================================================================
~Well
STRT .m      -0.914400000 :
STOP .m      1533.4488000 :
STEP .m     0.15240000 :
NULL .        -999.250000 :
COMP.           : COMPANY
WELL.  P-140   : WELL
FLD.            : FIELD
LOC.            : LOCATION
SRVC.           : SERVICE COMPANY
DATE.  2015-12-30 13:54:20   : Log Export Date {yyyy-MM-dd HH:mm:ss}
PROV.           : PROVINCE
UWI.      : UNIQUE WELL ID
API.            : API NUMBER
#==================================================================
~Curve
DEPT .m                   : DEPTH
DT .us/ft                 : DT
DTS .us/ft                : DTS
GR .gAPI                  : GR
AF10 .ohm.m               : AF10
AF20 .ohm.m               : AF20
AF30 .ohm.m               : AF30
AF60 .ohm.m               : AF60
AF90 .ohm.m               : AF90
AMF .ohm.m                : AMF
PEF .b/e                  : PEF
RHOB .g/cm3               : RHOB
HDRA .g/cm3               : HDRA
RHOB_despiked .g/cm3      : RHOB_despiked
NPHI_SAN .m3/m3           : NPHI_SAN
~Parameter
#==================================================================
~Ascii
# ...
 511.45440000 64.940292358  -999.250000 56.630298615 32.480381012 31.171619415 30.598550797 29.944910049 30.255170822 0.8549200296 2.9530799389 2.6157648563 -0.004417660 2.6157648563 0.1511600018
 511.60680000 64.936851501  -999.250000 61.557209015 30.280349731 29.660680771 28.715049744 28.316600800 28.593900681 0.8553400040 2.9298200607 2.6187219620 -0.003229620 2.6187219620 0.1565400064
 511.75920000 65.022071838  -999.250000 57.745670319 29.570850372 29.655679703 27.604679108 27.054700851 27.313550949 0.8557500243 2.9411599636 2.6080391407 -0.003650670 2.6080391407 0.1551800072
 511.91160000 65.115554810  -999.250000 60.420070648 30.997640610 27.761070251 28.759950638 28.691009521 28.976959229 0.8558999896 2.9036300182 2.6149981022 -0.000140670 2.6149981022 0.1447699964
 512.06400000 65.091773987  -999.250000 57.224781036 30.416019440 27.658960342 27.583850861 27.753850937 28.030279160 0.8560500145 2.8762500286 2.6165778637 0.0012462100 2.6165778637 0.1511200070
 512.21640000 64.908103943  -999.250000 61.681251526 30.271640778 27.190280914 27.211790085 27.210670471 27.485179901 0.8566600084 2.9103701115 2.6089718342 -0.000849960 2.6089718342 0.1611900032
 512.36880000 64.859001160  -999.250000 60.008720398 29.787330627 27.263250351 27.762350082 27.472600937 27.760839462 0.8572700024 2.9126000404 2.6023240089 -0.003304010 2.6023240089 0.1558199972
 512.52120000 65.066055298  -999.250000 56.877300262 29.922220230 27.884399414 27.962099075 27.044530869 27.340259552 0.8576800227 2.8701300621 2.6118798256 -0.001469850 2.6118798256 0.1614799947
 512.67360000 65.042427063  -999.250000 53.591480255 29.534259796 27.445329666 27.351760864 26.841529846 27.131010056 0.8580800295 2.7996499538 2.6219828129 0.0020685201 2.6219828129 0.1630800068
 512.82600000 64.890090942  -999.250000 56.909278870 30.167819977 27.234109879 27.182149887 26.965469360 27.261930466 0.8579999804 2.7857999802 2.6204409599 0.0032789700 2.6204409599 0.1578200012
 512.97840000 64.932853699  -999.250000 58.831150055 30.428289413 28.492570877 28.481090546 27.711860657 28.022840500 0.8579199910 2.8236100674 2.6079759598 0.0014662700 2.6079759598 0.1430400014
 513.13080000 64.891555786  -999.250000 63.743919373 29.344850540 26.303529739 26.601680756 27.099109650 27.396289825 0.8578600287 2.8342599869 2.6055438519 0.0002670300 2.6055438519 0.1427399963
 513.28320000 64.811088562  -999.250000 60.105461121 28.828409195 27.658340454 27.333190918 27.245380402 27.539739609 0.8577899933 2.8425900936 2.6022250652 -0.001350640 2.6022250652 0.1432300061
 513.43560000 65.079063416  -999.250000 62.583358765 29.169460297 26.431539536 26.042350769 26.007310867 26.272760391 0.8578900099 2.8149499893 2.6095728874 -0.000305650 2.6095728874 0.1468500048
 513.58800000 64.993659973  -999.250000 63.279098511 27.586069107 24.801849365 24.430149078 25.183820724 25.428419113 0.8579900265 2.8012199402 2.6136021614 -0.001953360 2.6136021614 0.1409800053
 513.74040000 65.030456543  -999.250000 64.902297974 27.140020370 24.285669327 23.552679062 23.952760696 24.158750534 0.8581399918 2.7882900238 2.6138770580 -0.000623460 2.6138770580 0.1424899995
 513.89280000 64.998054504  -999.250000 66.124122620 25.913619995 26.896900177 26.038629532 25.204759598 25.411739349 0.8582900167 2.7915999889 2.6107919216 -0.000004050 2.6107919216 0.1531500071
 514.04520000 65.113052368  -999.250000 67.655868530 26.283020020 25.327419281 23.839000702 22.881519318 23.035440445 0.8581399918 2.7941000462 2.6050519943 0.0024578599 2.6050519943 0.1447000057
 514.19760000 65.530479431  -999.250000 69.625549316 28.718929291 25.910760880 24.570520401 24.011539459 24.159330368 0.8579900265 2.8111200333 2.6058301926 0.0019834000 2.6058301926 0.1355900019
 514.35000000 65.770050049  -999.250000 72.771743774 31.036880493 29.353399277 27.947460175 27.441879272 27.591119766 0.8576800227 2.8642098904 2.6126101017 0.0003020800 2.6126101017 0.1448899955
 514.50240000 66.046714783  -999.250000 83.700057983 40.218151093 35.806339264 34.026531219 33.729408264 33.874198914 0.8573700190 3.0121600628 2.6255691051 -0.002895590 2.6255691051 0.1460099965
 514.65480000 66.229225159  -999.250000 111.77819824 51.253330231 46.612499237 45.523471832 44.153499603 44.274620056 0.8570799828 3.1751999855 2.6486079693 -0.004306320 2.6283078194 0.2048400044
 514.80720000 66.722091675  -999.250000 126.38189697 55.579139709 50.699939728 48.393428802 49.038909912 49.020378113 0.8568000197 3.2592999935 2.6637399197 -0.004032370 2.6310465336 0.2305999994
 514.95960000 67.115707397  -999.250000 119.84870148 45.009899139 41.010829926 41.495960236 43.475299835 43.382400513 0.8556500077 3.1836600304 2.6635248661 0.0004339200 2.6337852478 0.2328400016
 515.11200000 67.196968079  -999.250000 96.515136719 36.790180206 34.517208099 33.817008972 35.776241302 35.646511078 0.8545100093 3.0654199123 2.6263740063 0.0137815503 2.6263740063 0.1711599976
 515.26440000 67.219314575  -999.250000 77.473922729 31.897129059 30.914060593 29.015050888 29.920309067 29.775049210 0.8546400070 2.9730699062 2.5999169350 0.0443112925 2.5999169350 0.1492799968
 515.41680000 67.273262024  -999.250000 69.192749023 28.122449875 27.725170135 26.884979248 27.710279465 27.530380249 0.8547700047 2.9449899197 2.6163988113 0.0815482214 2.6163988113 0.1620099992
 515.56920000 66.834655762  -999.250000 67.844436646 24.973020554 25.463949203 25.084800720 25.036649704 24.853609085 0.8555999994 2.9169600010 2.6520681381 0.0832612514 2.6223609447 0.1452800035
 515.72160000 66.646102905  -999.250000 68.950576782 34.070999146 32.281581879 30.817340851 29.623289108 29.314239502 0.8564400077 2.9133100510 2.6738541126 0.0568606928 2.6283230782 0.1387999952
 515.87400000 66.064788818  -999.250000 71.603683472 38.147510529 35.361869812 33.381320953 32.700809479 32.259250641 0.8564400077 2.8982999325 2.6564040184 0.0150425397 2.6278228760 0.1521099955
 516.02640000 66.346817017  -999.250000 77.375686646 32.811168671 30.251539230 29.022319794 30.633699417 30.204940796 0.8564400077 2.8991301060 2.6402471066 0.0006504100 2.6273226738 0.1606500000
 516.17880000 66.084022522  -999.250000 82.790527344 31.673570633 31.568210602 30.153680801 29.321100235 28.871120453 0.8564599752 2.8787000179 2.6383950710 0.0006647100 2.6268222332 0.1576599926
 516.33120000 66.217552185  -999.250000 85.480659485 35.399211884 33.605781555 30.384960175 29.055639267 28.575510025 0.8564900160 2.8656299114 2.6263220310 0.0037853702 2.6263220310 0.1587000042
 516.48360000 66.291099548  -999.250000 81.683639526 29.305530548 29.022239685 27.984540939 26.511009216 26.078380585 0.8564900160 2.8681299686 2.6264898777 0.0054559698 2.6264898777 0.1462499946
 516.63600000 66.609313965  -999.250000 88.874633789 36.775020599 32.504379272 31.179420471 28.959129333 28.408189774 0.8564900160 2.9256401062 2.6243169308 0.0014336100 2.6243169308 0.1632799953
 516.78840000 66.978820801  -999.250000 102.64289856 44.227409363 40.684440613 40.217060089 37.300880432 36.313671112 0.8560500145 3.0365600586 2.6483922005 0.0009481900 2.6308891773 0.1844100058
 516.94080000 67.913948059  -999.250000 115.14669800 53.622859955 45.728088379 43.782329559 40.899528503 39.785049438 0.8556200266 3.1613099575 2.6524369717 -0.000999930 2.6274182796 0.2150499970
 517.09320000 68.258071899  -999.250000 114.56939697 53.960289001 49.190608978 53.117080688 49.036220551 47.423809052 0.8555799723 3.1849200726 2.6440339088 -0.000009540 2.6239473820 0.2038300037
 517.24560000 68.414680481  -999.250000 104.64859772 29.980609894 27.509260178 28.159109116 28.149620056 27.569490433 0.8555499911 3.1639900208 2.6104331017 -0.001283880 2.6104331017 0.2063499987
 517.39800000 69.332733154  -999.250000 89.864082336 28.297140121 24.445730209 24.770360947 24.740999222 24.345939636 0.8556100130 3.0629999638 2.5854451656 -0.002426150 2.6066348553 0.1914899945
 517.55040000 68.977485657  -999.250000 77.657730103 29.189180374 26.414319992 25.142250061 23.877450943 23.559120178 0.8556600213 2.9374101162 2.5791130066 -0.001833200 2.6028366089 0.1608799994
