# LAS format log file from PETREL
# Project units are specified as depth units
#==================================================================
~Version information
VERS.   2.0:
WRAP.   NO:
#==================================================================
~Well
STRT .m      -0.914400000 :
STOP .m      1533.4488000 :
STEP .m     0.15240000 :
NULL .        -999.250000 :
COMP.           : COMPANY
WELL.  P-140   : WELL
FLD.            : FIELD
LOC.            : LOCATION
SRVC.           : SERVICE COMPANY
DATE.  2015-12-30 13:54:20   : Log Export Date {yyyy-MM-dd HH:mm:ss}
PROV.           : PROVINCE
UWI.      : UNIQUE WELL ID
API.            : API NUMBER
#==================================================================
~Curve
DEPT .m                   : DEPTH
DT .us/ft                 : DT
DTS .us/ft                : DTS
GR .gAPI                  : GR
AF10 .ohm.m               : AF10
AF20 .ohm.m               : AF20
AF30 .ohm.m               : AF30
AF60 .ohm.m               : AF60
AF90 .ohm.m               : AF90
AMF .ohm.m                : AMF
PEF .b/e                  : PEF
RHOB .g/cm3               : RHOB
HDRA .g/cm3               : HDRA
RHOB_despiked .g/cm3      : RHOB_despiked
NPHI_SAN .m3/m3           : NPHI_SAN
~Parameter
#==================================================================
~Ascii
# ...
 1423.7208000 61.168910980 105.45172119 34.659080505 63.357250214 97.150001526 106.52700043 155.79350281 174.24769592 0.7183600068 3.7711899281 2.6926841736 0.0751810074 2.6926841736 0.3684000075
 1423.8732000 60.901878357 104.81520081 38.533058167 75.111763000 118.24189758 138.56370544 201.62770081 224.95759583 0.7191799879 3.8238799572 2.7139499187 0.1008189023 2.7139499187 0.3289099932
 1424.0256000 60.294166565 102.25778198 44.058959961 90.107276917 142.25010681 178.37590027 272.71469116 308.46200562 0.7200099826 3.8262100220 2.7272930145 0.1090658009 2.7113745213 0.3158800006
 1424.1780000 59.728397369 99.929260254 62.800289154 126.89050293 199.59609985 250.59899902 405.10528564 450.60250854 0.7193899751 3.7240700722 2.7408239841 0.1130978987 2.7087988853 0.2320799977
 1424.3304000 58.560703278 98.631637573 85.794052124 187.50500488 335.63110352 382.21038818 646.73840332 685.46112061 0.7187700272 3.4929699898 2.7298219204 0.0964613035 2.7062232494 0.1437799931
 1424.4828000 58.027610779 96.112091064 114.39099884 254.78540039 583.34777832 709.99298096 954.17712402 982.32019043 0.7184900045 3.2065000534 2.7036478519 0.0617778264 2.7036478519 0.1170200035
 1424.6352000 57.540908813 95.296691895 131.56410217 338.17221069 637.90557861 737.73107910 1487.0589600 1299.4100342 0.7182000279 2.9948599339 2.6762018204 0.0226726495 2.6762018204 0.1061900035
 1424.7876000 55.895229340 93.275535583 146.31030273 433.35549927 862.89770508 594.81549072 1335.7220459 1024.9790039 0.7191100121 2.8933000565 2.6785390377 0.0045280498 2.6785390377 0.0966100022
 1424.9400000 55.625816345 92.278778076 157.60920715 534.30090332 1135.7819824 485.60189819 736.11987305 560.72509766 0.7200199962 2.8497900963 2.6834120750 0.0045523602 2.6834120750 0.0827099979
 1425.0924000 54.671089172 91.678840637 171.20239258 644.40899658 1314.0880127 462.31430054 543.65502930 503.64230347 0.7204399705 2.7806699276 2.6744141579 0.0064973799 2.6744141579 0.0700900033
 1425.2448000 54.441181183 91.303268433 170.43119812 816.82379150 1496.6810303 422.45419312 453.38980103 434.25659180 0.7208499908 2.7092599869 2.6631321907 0.0075068497 2.6631321907 0.0720200017
 1425.3972000 54.326240540 90.492500305 166.80720520 1078.5069580 1674.2939453 429.13760376 426.56890869 422.15600586 0.7197300196 2.6833899021 2.6608810425 0.0079252701 2.6608810425 0.0602799989
 1425.5496000 53.575000763 90.371681213 158.19630432 1334.7070313 1800.5889893 444.39181519 426.08709717 428.78948975 0.7186099887 2.6922399998 2.6494898796 0.0050723599 2.6494898796 0.0624199994
 1425.7020000 53.275871277 89.285491943 157.63549805 1538.3229980 1855.4179688 485.82931519 456.26629639 469.97671509 0.7180899978 2.6829500198 2.6424698830 0.0031991000 2.6424698830 0.0732600018
 1425.8544000 52.860488892 88.601119995 162.36289978 1744.6839600 1908.2359619 547.93737793 512.25158691 510.02130127 0.7175800204 2.6814999580 2.6365311146 0.0008008500 2.6365311146 0.0594800003
 1426.0068000 52.428615570 87.820289612 161.21029663 1926.0660400 1950.0000000 627.74127197 590.41369629 559.47167969 0.7183399796 2.7386600971 2.6295020580 -0.002242330 2.6295020580 0.0491699986
 1426.1592000 52.304897308 87.675933838 169.41870117 1950.0000000 1950.0000000 727.35937500 680.42437744 607.72082520 0.7190899849 2.8205499649 2.6220848560 -0.004781960 2.6220848560 0.0524099991
 1426.3116000 52.187000275 86.975105286 164.70050049 1950.0000000 1950.0000000 836.00720215 760.23260498 649.34497070 0.7194300294 2.8614799976 2.6170301437 -0.005267380 2.6170301437 0.0547199994
 1426.4640000 52.083003998 86.576515198 170.24749756 1950.0000000 1950.0000000 940.74719238 811.20941162 683.61541748 0.7197700143 2.8322899342 2.6234920025 -0.002186540 2.6234920025 0.0501599982
 1426.6164000 51.841754913 86.398513794 167.38429260 1950.0000000 1950.0000000 1034.3409424 835.53070068 713.17047119 0.7188599706 2.8025999069 2.6282310486 0.0003006500 2.6282310486 0.0405200012
 1426.7688000 51.778694153 85.847167969 165.66969299 1950.0000000 1950.0000000 1121.2810059 853.26617432 740.42810059 0.7179399729 2.8232200146 2.6189317703 -0.002008920 2.6189317703 0.0416000001
 1426.9212000 51.804843903 85.845977783 161.46589661 1950.0000000 1950.0000000 1213.8709717 886.44152832 765.73992920 0.7175300121 2.8393800259 2.6135568619 -0.004685400 2.6135568619 0.0375799984
 1427.0736000 51.960445404 85.379264832 158.77059937 1950.0000000 1950.0000000 1321.9720459 950.18798828 788.35931396 0.7171099782 2.8144900799 2.6156890392 -0.005009650 2.6156890392 0.0404400006
 1427.2260000 51.907012939 85.477012634 161.83160400 1950.0000000 1950.0000000 1444.6400146 1051.7110596 808.91009521 0.7174699903 2.7392899990 2.6279389858 -0.002477410 2.6279389858 0.0496499985
 1427.3784000 51.831665039 85.433151245 164.04449463 1950.0000000 1950.0000000 1566.7120361 1187.9749756 830.18347168 0.7178300023 2.6772999763 2.6492009163 0.0035142901 2.6492009163 0.0428900011
 1427.5308000 51.777565002 85.364570618 163.77749634 1950.0000000 1950.0000000 1664.0899658 1338.7139893 855.21368408 0.7180100083 2.6502900124 2.6613731384 0.0103347301 2.6613731384 0.0320799984
 1427.6832000 51.591209412 85.360458374 162.91189575 1950.0000000 1950.0000000 1718.9820557 1462.5889893 884.58312988 0.7181900144 2.6309800148 2.6628940105 0.0137341004 2.6628940105 0.0370399989
 1427.8356000 51.736145020 85.389961243 167.84820557 1950.0000000 1950.0000000 1734.1190186 1515.0200195 915.40637207 0.7188900113 2.6083700657 2.6520609856 0.0121033201 2.6520609856 0.0414300002
 1427.9880000 51.662532806 85.678421021 171.00160217 1950.0000000 1950.0000000 1728.6899414 1484.6689453 942.61047363 0.7196000218 2.6000499725 2.6432452202 0.0059282798 2.6432452202 0.0474600010
 1428.1404000 51.451400757 85.514999390 175.20050049 1950.0000000 1950.0000000 1722.3540039 1402.3339844 960.90277100 0.7200199962 2.6341099739 2.6417958736 0.0020828301 2.6417958736 0.0397699997
 1428.2928000 51.275161743 85.512092590 173.67469788 1950.0000000 1950.0000000 1720.4270020 1308.6870117 965.00811768 0.7204399705 2.6534900665 2.6479380131 0.0009849101 2.6479380131 0.0382499993
 1428.4452000 50.540504456 85.902061462 169.28990173 1950.0000000 1950.0000000 1707.0839844 1226.1770020 948.58129883 0.7205700278 2.6805799007 2.6497550011 0.0008657000 2.6497550011 0.0401199982
 1428.5976000 50.275573730 85.598754883 173.67439270 1950.0000000 1950.0000000 1650.4300537 1156.1619873 905.93237305 0.7206900120 2.6862599850 2.6582670212 0.0027248899 2.6582670212 0.0403099991
 1428.7500000 50.469211578 85.934516907 168.24079895 1950.0000000 1950.0000000 1527.1099854 1089.2569580 838.35217285 0.7207700014 2.7180199623 2.6557581425 0.0023024098 2.6557581425 0.0397199988
 1428.9024000 50.515632629 86.203193665 173.88220215 1950.0000000 1950.0000000 1349.2060547 1017.4359741 757.41662598 0.7208399773 2.7434298992 2.6595098972 0.0081255399 2.6595098972 0.0439000018
 1429.0548000 50.467807770 86.574478149 163.94689941 1950.0000000 1950.0000000 1155.9560547 941.31268311 678.97729492 0.7198500037 2.7683100700 2.6620550156 0.0140428497 2.6545133591 0.0418899991
 1429.2072000 51.470539093 86.706909180 164.14680481 1911.5920410 1922.7070313 981.69317627 861.78631592 607.91967773 0.7188699841 2.7700300217 2.6607708931 0.0160446204 2.6495165825 0.0407899991
 1429.3596000 51.838222504 87.587875366 161.85459900 1687.0200195 1744.2259521 823.48742676 751.34631348 559.41058350 0.7182099819 2.7658898830 2.6445200443 0.0092098704 2.6445200443 0.0443199985
 1429.5120000 52.000434875 91.051834106 168.90879822 1393.5419922 1497.2850342 695.76708984 671.84277344 511.51098633 0.7175499797 2.7482900620 2.6429669857 0.0084180804 2.6429669857 0.0559399985
 1429.6644000 52.537097931 88.618621826 165.08329773 1087.2590332 1231.1400146 590.10729980 622.87902832 470.41308594 0.7178199887 2.7523200512 2.6375200748 0.0024032600 2.6375200748 0.0574700013
 1429.8168000 52.847747803 89.319358826 160.33009338 843.34857178 1015.9910278 494.83380127 586.22357178 450.21148682 0.7180899978 2.7583899498 2.6347470284 0.0007801100 2.6347470284 0.0530200005
