# LAS format log file from PETREL
# Project units are specified as depth units
#==================================================================
~Version information
VERS.   2.0:
WRAP.   NO:
#==================================================================
~Well
STRT .m      -0.914400000 :
STOP .m      1533.4488000 :
STEP .m     0.15240000 :
NULL .        -999.250000 :
COMP.           : COMPANY
WELL.  P-140   : WELL
FLD.            : FIELD
LOC.            : LOCATION
SRVC.           : SERVICE COMPANY
DATE.  2015-12-30 13:54:20   : Log Export Date {yyyy-MM-dd HH:mm:ss}
PROV.           : PROVINCE
UWI.      : UNIQUE WELL ID
API.            : API NUMBER
#==================================================================
~Curve
DEPT .m                   : DEPTH
DT .us/ft                 : DT
DTS .us/ft                : DTS
GR .gAPI                  : GR
AF10 .ohm.m               : AF10
AF20 .ohm.m               : AF20
AF30 .ohm.m               : AF30
AF60 .ohm.m               : AF60
AF90 .ohm.m               : AF90
AMF .ohm.m                : AMF
PEF .b/e                  : PEF
RHOB .g/cm3               : RHOB
HDRA .g/cm3               : HDRA
RHOB_despiked .g/cm3      : RHOB_despiked
NPHI_SAN .m3/m3           : NPHI_SAN
~Parameter
#==================================================================
~Ascii
# ...
 205.28280000 70.063308716  -999.250000 101.30999756 97.517066956 76.347396851 74.724372864 74.946166992 78.379463196 0.9286100268 3.0309998989 2.6590590477 -0.006591080 2.6590590477 0.2561599910
 205.43520000 70.062454224  -999.250000 101.06030273 95.849632263 76.269920349 74.851867676 74.810462952 78.247459412 0.9283999801 3.1048600674 2.6459908485 -0.008736850 2.6459908485 0.2243299931
 205.58760000 69.761985779  -999.250000 95.649757385 93.644126892 75.103240967 74.081672668 75.311378479 77.071441650 0.9274899960 3.0688199997 2.6467950344 -0.005821940 2.6467950344 0.1956399977
 205.74000000 69.813888550  -999.250000 94.736000061 93.258438110 75.409416199 73.840446472 74.950462341 76.228202820 0.9265699983 2.9798200130 2.6541788578 -0.001054050 2.6541788578 0.2069000006
 205.89240000 69.734458923  -999.250000 94.402198792 90.411956787 72.378616333 71.843772888 73.078033447 74.373367310 0.9266999960 2.8853199482 2.6696541309 0.0044190898 2.6696541309 0.2036799937
 206.04480000 69.696571350  -999.250000 92.536849976 92.814239502 73.026962280 71.944923401 72.155662537 74.252983093 0.9268299937 2.8340198994 2.6625130177 0.0043959599 2.6625130177 0.2090200037
 206.19720000 69.811271667  -999.250000 85.726066589 96.131576538 73.756683350 71.084060669 71.330307007 74.732101440 0.9273899794 2.7986900806 2.6552491188 0.0040221200 2.6552491188 0.2020300031
 206.34960000 69.914505005  -999.250000 84.421447754 88.048660278 71.343383789 70.290916443 69.613693237 73.893402100 0.9279500246 2.8109500408 2.6324880123 -0.000217200 2.6447865963 0.1912000030
 206.50200000 70.537361145  -999.250000 88.500076294 84.298080444 72.856307983 69.360359192 68.444992065 74.389801025 0.9282000065 2.8918900490 2.6162128448 -0.003897910 2.6343240738 0.1869399995
 206.65440000 71.164672852  -999.250000 96.314712524 82.364448547 74.304283142 69.799110413 68.175819397 75.446632385 0.9284499884 3.0461800098 2.6069910526 -0.008478170 2.6361601353 0.2005199939
 206.80680000 71.961631775  -999.250000 103.32089996 74.449409485 71.553283691 66.071662903 67.976737976 74.653602600 0.9294499755 3.2032399178 2.6379961967 -0.006563430 2.6379961967 0.2243800014
 206.95920000 72.077400208  -999.250000 114.26550293 74.563407898 67.719886780 64.038230896 69.061393738 76.473968506 0.9304599762 3.4376299381 2.6703519821 -0.005721570 2.6703519821 0.2813999951
 207.11160000 72.283012390  -999.250000 130.28599548 74.401786804 67.720329285 63.981700897 69.425163269 78.186050415 0.9302800298 3.6262099743 2.6972470284 -0.004579780 2.6972470284 0.3304499984
 207.26400000 72.494087219  -999.250000 139.16470337 77.158973694 72.570426941 69.907928467 69.440353394 72.243537903 0.9301000237 3.7689099312 2.6999580860 -0.006369590 2.6999580860 0.3100000024
 207.41640000 73.057083130  -999.250000 141.23089600 82.079940796 75.483772278 71.262031555 68.441253662 69.886146545 0.9293299913 3.8197600842 2.6957008839 -0.007183790 2.6957008839 0.2852599919
 207.56880000 73.335395813  -999.250000 136.33090210 79.955146790 73.113807678 70.477378845 66.853790283 58.478290558 0.9285600185 3.8312900066 2.6896941662 -0.008339640 2.6896941662 0.2682200074
 207.72120000 73.741943359  -999.250000 133.28540039 69.351333618 67.576156616 66.622001648 65.127868652 69.211807251 0.9284800291 3.8284299374 2.6881589890 -0.005796910 2.6881589890 0.2968400121
 207.87360000 76.051193237  -999.250000 132.96519470 51.563991547 49.509838104 45.543540955 44.114448547 52.280590057 0.9283999801 3.8124299049 2.6946210861 -0.001743790 2.6946210861 0.3232100010
 208.02600000 78.069618225  -999.250000 129.17089844 36.760910034 33.325641632 31.141990662 30.360500336 35.155818939 0.9280499816 3.7895300388 2.7022051811 0.0070722098 2.7022051811 0.3169600070
 208.17840000 80.103263855  -999.250000 130.86500549 28.460929871 23.289529800 22.622930527 20.826890945 22.320379257 0.9276999831 3.7679800987 2.6898849010 0.0042657899 2.6898849010 0.2943100035
 208.33080000 82.989021301  -999.250000 127.58370209 25.670730591 21.981969833 15.368530273 14.464039803 14.922160149 0.9277799726 3.6596798897 2.6437051296 0.0014908300 2.6437051296 0.3013400137
 208.48320000 87.515853882  -999.250000 132.17070007 24.280460358 14.544369698 11.809410095 11.414380074 11.394160271 0.9278600216 3.4977300167 2.5519230366 -0.006279230 2.6418628693 0.3781900108
 208.63560000 90.356315613  -999.250000 129.27250671 22.233409882 16.076530457 12.753419876 11.311679840 10.741259575 0.9282199740 3.2470600605 2.4680480957 -0.005355840 2.6400206089 0.4540399909
 208.78800000 91.720634460  -999.250000 129.99749756 45.457721710 34.522560120 24.881919861 21.931869507 19.997919083 0.9285799861 2.9814701080 2.4283688068 -0.003308540 2.6381783485 0.4130400121
 208.94040000 92.049201965  -999.250000 130.72279358 42.916690826 32.346229553 30.374769211 22.829069138 21.941879272 0.9287599921 2.8006999493 2.4201741219 -0.001852040 2.6363360882 0.3973799944
 209.09280000 92.175048828  -999.250000 128.20480347 18.854480743 15.523070335 14.915949821 12.923729897 10.950400352 0.9289399981 2.7659399509 2.4014780521 -0.003617530 2.6344940662 0.4172300100
 209.24520000 91.625930786  -999.250000 122.06500244 33.960201263 11.655440331 12.153730392 12.235280037 11.697540283 0.9297199845 2.8303198814 2.3891720772 -0.007314680 2.6326518059 0.4433499873
 209.39760000 90.122344971  -999.250000 112.71199799 39.707389832 23.440010071 25.783739090 24.850349426 20.531440735 0.9304999709 2.8765399456 2.4378099442 -0.007068160 2.6354176998 0.4264900088
 209.55000000 88.225456238  -999.250000 109.03269958 61.787609100 47.038810730 42.877479553 34.721179962 32.372531891 0.9304900169 2.8793299198 2.5387418270 -0.002369880 2.6381838322 0.3381200135
 209.70240000 85.978683472  -999.250000 111.09269714 63.594680786 65.002853394 59.486858368 58.203830719 46.856620789 0.9304800034 2.8814899921 2.6271250248 0.0013470700 2.6409497261 0.2581700087
 209.85480000 83.566619873  -999.250000 112.65409851 54.376220703 62.050071716 67.907478333 61.616279602 62.461509705 0.9304400086 2.9699800014 2.6529319286 -0.001172070 2.6529319286 0.2540999949
 210.00720000 82.424659729  -999.250000 117.42230225 58.940639496 51.619140625 52.541660309 57.610431671 71.578781128 0.9304000139 3.0584399700 2.6592209339 -0.002754210 2.6592209339 0.2885400057
 210.15960000 79.679107666  -999.250000 118.00270081 47.863281250 44.746429443 44.299850464 53.140731812 63.578689575 0.9304599762 3.1649999619 2.6667270660 -0.003548860 2.6667270660 0.2977199852
 210.31200000 78.329513550  -999.250000 120.32409668 51.505218506 47.466888428 45.743160248 54.774570465 56.590988159 0.9305199981 3.2661399841 2.6830778122 -0.003301860 2.6830778122 0.3285900056
 210.46440000 76.235481262  -999.250000 121.92900085 63.070529938 53.876399994 51.177230835 56.102088928 57.678390503 0.9307199717 3.3535299301 2.6920630932 -0.003625150 2.6920630932 0.2910400033
 210.61680000 75.334152222  -999.250000 116.96790314 71.648887634 63.379219055 58.850528717 62.623989105 61.693618774 0.9309200048 3.4034900665 2.6916940212 -0.003866910 2.6916940212 0.2642300129
 210.76920000 74.487693787  -999.250000 114.07299805 90.193443298 77.405197144 73.806472778 68.824371338 69.747077942 0.9309200048 3.3704400063 2.6954889297 -0.002330780 2.6954889297 0.2429900020
 210.92160000 73.529739380  -999.250000 109.59100342 110.25370026 96.206008911 91.090858459 82.749191284 85.121406555 0.9309099913 3.3394300938 2.6964981556 -0.002378940 2.6964981556 0.2227099985
 211.07400000 72.400817871  -999.250000 116.62129974 114.05699921 96.428016663 90.733757019 85.315063477 84.641471863 0.9308999777 3.2948799133 2.7068569660 -0.001082420 2.7068569660 0.2316599935
 211.22640000 70.542510986  -999.250000 116.12819672 116.02660370 99.271308899 94.151359558 87.137603760 87.177566528 0.9308900237 3.3063600063 2.7060878277 -0.001366140 2.7060878277 0.2331999987
 211.37880000 70.236709595  -999.250000 115.14129639 118.53710175 100.98899841 94.580032349 91.371963501 86.738021851 0.9306799769 3.3142800331 2.7006459236 -0.002095460 2.7006459236 0.2175399959
