# LAS format log file from PETREL
# Project units are specified as depth units
#==================================================================
~Version information
VERS.   2.0:
WRAP.   NO:
#==================================================================
~Well
STRT .m      -0.914400000 :
STOP .m      1533.4488000 :
STEP .m     0.15240000 :
NULL .        -999.250000 :
COMP.           : COMPANY
WELL.  P-140   : WELL
FLD.            : FIELD
LOC.            : LOCATION
SRVC.           : SERVICE COMPANY
DATE.  2015-12-30 13:54:20   : Log Export Date {yyyy-MM-dd HH:mm:ss}
PROV.           : PROVINCE
UWI.      : UNIQUE WELL ID
API.            : API NUMBER
#==================================================================
~Curve
DEPT .m                   : DEPTH
DT .us/ft                 : DT
DTS .us/ft                : DTS
GR .gAPI                  : GR
AF10 .ohm.m               : AF10
AF20 .ohm.m               : AF20
AF30 .ohm.m               : AF30
AF60 .ohm.m               : AF60
AF90 .ohm.m               : AF90
AMF .ohm.m                : AMF
PEF .b/e                  : PEF
RHOB .g/cm3               : RHOB
HDRA .g/cm3               : HDRA
RHOB_despiked .g/cm3      : RHOB_despiked
NPHI_SAN .m3/m3           : NPHI_SAN
~Parameter
#==================================================================
~Ascii
# ...
 711.40320000 62.758472443  -999.250000 82.632148743 70.220382690 61.993499756 58.953411102 56.283679962 55.776309967 0.8267800212 2.9266099930 2.6381890774 -0.003238680 2.6381890774 0.1429100037
 711.55560000 62.732410431  -999.250000 81.772819519 72.087577820 63.441680908 59.882911682 57.394348145 57.247898102 0.8267800212 2.8851499557 2.6548058987 -0.001356130 2.6548058987 0.1420200020
 711.70800000 62.287372589  -999.250000 80.559036255 66.692420959 59.388031006 57.272789001 55.156528473 55.297870636 0.8267800212 2.8464701176 2.6623082161 -0.001523730 2.6623082161 0.1424999982
 711.86040000 62.272773743  -999.250000 76.250793457 61.725200653 55.750911713 54.743610382 53.331031799 53.584190369 0.8247900009 2.8025500774 2.6667480469 -0.001155140 2.6667480469 0.1351699978
 712.01280000 62.308921814  -999.250000 73.758300781 64.628562927 56.818748474 55.910549164 54.497589111 54.930130005 0.8228099942 2.7851099968 2.6736721992 0.0009644000 2.6736721992 0.1334300041
 712.16520000 62.005558014  -999.250000 75.346656799 71.288337708 62.289779663 61.582088470 60.063899994 60.346851349 0.8228099942 2.7894599438 2.6809270382 0.0024938600 2.6809270382 0.1339100003
 712.31760000 61.938560486  -999.250000 75.154998779 79.548278809 67.078697205 67.400970459 66.274047852 66.686080933 0.8228099942 2.8326299191 2.6919929981 0.0035669799 2.6919929981 0.1433400065
 712.47000000 61.861476898  -999.250000 79.475227356 92.536636353 77.840919495 78.344528198 77.073303223 76.616188049 0.8216199875 2.9159300327 2.7076439857 0.0064945202 2.6900138855 0.1343899965
 712.62240000 61.830875397  -999.250000 75.836402893 90.905746460 77.576942444 78.940330505 78.571792603 78.875709534 0.8204200268 2.9809699059 2.7058579922 0.0052547497 2.6880350113 0.1317799985
 712.77480000 61.856510162  -999.250000 77.669128418 78.392799377 66.524078369 66.739387512 68.226913452 68.104026794 0.8203300238 3.0454099178 2.6860558987 0.0009985000 2.6860558987 0.1385200024
 712.92720000 61.890491486  -999.250000 73.155143738 76.659637451 66.889938354 67.812263489 68.099502563 69.138153076 0.8202499747 3.0117800236 2.6659610271 -0.004553800 2.6659610271 0.1300600022
 713.07960000 61.905582428  -999.250000 75.754096985 89.307708740 75.142143250 74.006492615 71.951522827 74.819442749 0.8208299875 2.9578499794 2.6749529839 -0.007729290 2.6749529839 0.1377400011
 713.23200000 61.926795959  -999.250000 76.985397339 76.367317200 64.718452454 64.994476318 65.478553772 67.832450867 0.8213999867 2.8730700016 2.6983687878 -0.002686500 2.6850819588 0.1539900005
 713.38440000 62.078647614  -999.250000 77.855018616 67.574691772 59.204368591 58.586410522 59.196098328 60.771751404 0.8214899898 2.8400800228 2.6952109337 -0.001760480 2.6860461235 0.1485400051
 713.53680000 62.102573395  -999.250000 78.989257813 62.217380524 61.980319977 58.306861877 58.886371613 60.466018677 0.8215799928 2.8030300140 2.6870100498 0.0025475000 2.6870100498 0.1342500001
 713.68920000 62.254943848  -999.250000 81.005912781 66.665176392 55.370639801 57.442150116 57.874061584 59.199020386 0.8202300072 2.7627398968 2.6709229946 0.0010590600 2.6709229946 0.1309099942
 713.84160000 62.311328888  -999.250000 82.932991028 60.023239136 60.560440063 50.604370117 52.331039429 53.055309296 0.8188800216 2.7348899841 2.6579990387 0.0122027397 2.6579990387 0.1402900070
 713.99400000 62.458641052  -999.250000 80.294181824 50.144519806 57.265861511 52.098239899 53.153949738 53.900180817 0.8184300065 2.7711200714 2.6435430050 0.0575597323 2.6435430050 0.1467899978
 714.14640000 62.578701019  -999.250000 75.516250610 50.181709290 50.786128998 40.528270721 41.505329132 41.926818848 0.8179799914 2.8241000175 2.6419770718 0.1257811040 2.6419770718 0.1471399963
 714.29880000 62.958267212  -999.250000 67.672996521 46.232730865 38.904281616 43.140251160 44.168159485 44.498409271 0.8189100027 2.8340098858 2.6578400135 0.1910326928 2.6578400135 0.1230899990
 714.45120000 62.918922424  -999.250000 60.450359344 36.734619141 36.470088959 34.864868164 35.643230438 35.697010040 0.8198400140 2.7889099121 2.6714119911 0.2114457935 2.6714119911 0.1294000000
 714.60360000 62.947204590  -999.250000 59.420478821 31.378269196 30.913009644 32.103900909 32.494018555 32.442249298 0.8202599883 2.7292900085 2.6784641743 0.1851195991 2.6784641743 0.1469700038
 714.75600000 63.295040131  -999.250000 60.363609314 40.890491486 39.011829376 39.969039917 39.258289337 39.093158722 0.8206800222 2.6982600689 2.6751520634 0.1288052052 2.6751520634 0.1276099980
 714.90840000 63.161174774  -999.250000 64.371299744 49.953868866 51.927749634 54.288379669 50.572620392 50.107311249 0.8212100267 2.6574499607 2.6484742165 0.0627701283 2.6484742165 0.1324200034
 715.06080000 63.272335052  -999.250000 62.484809875 45.217590332 49.887828827 47.623920441 40.625530243 40.389438629 0.8217399716 2.6261401176 2.6275169849 0.0308182202 2.6423938274 0.1325100064
 715.21320000 63.092258453  -999.250000 61.750480652 43.183158875 46.369251251 43.704681396 37.701789856 37.634231567 0.8220499754 2.6027801037 2.6161220074 0.0339856111 2.6363132000 0.1354400069
 715.36560000 62.916908264  -999.250000 62.135288239 45.242710114 43.769371033 40.968460083 35.289329529 35.300109863 0.8223699927 2.5914299488 2.6302328110 0.0633750036 2.6302328110 0.1365299970
 715.51800000 62.636310577  -999.250000 59.249778748 51.358840942 44.354740143 39.394870758 33.407310486 33.605598450 0.8222500086 2.5795400143 2.6535921097 0.0883297846 2.6535921097 0.1128199995
 715.67040000 62.422615051  -999.250000 62.135478973 40.195350647 35.781639099 32.937938690 28.992839813 29.274269104 0.8221200109 2.5999500751 2.6730778217 0.0964970663 2.6730778217 0.1251599938
 715.82280000 62.239765167  -999.250000 70.406867981 48.280479431 40.930679321 37.120021820 32.810470581 33.361270905 0.8220199943 2.6812999249 2.6766200066 0.1025170982 2.6766200066 0.1237099990
 715.97520000 62.235893250  -999.250000 78.590591431 55.527000427 51.253101349 42.884929657 37.540019989 38.513179779 0.8219299912 2.7707200050 2.6749408245 0.1321076900 2.6749408245 0.1324200034
 716.12760000 62.308982849  -999.250000 73.759811401 48.472141266 44.386840820 39.727748871 37.217319489 38.929279327 0.8211899996 2.7757699490 2.6714119911 0.1777182072 2.6714119911 0.1300199926
 716.28000000 62.404628754  -999.250000 63.179031372 38.759849548 34.819480896 29.562730789 28.363870621 29.389419556 0.8204500079 2.7080900669 2.6923601627 0.2250383049 2.6741535664 0.1221999973
 716.43240000 63.069366455  -999.250000 56.022960663 32.886920929 30.511920929 25.358499527 22.263580322 22.904809952 0.8197100163 2.6540100574 2.6923730373 0.2355962098 2.6768953800 0.1308300048
 716.58480000 63.184555054  -999.250000 57.517810822 28.627809525 27.272470474 21.324350357 18.128749847 17.659259796 0.8189700246 2.6420700550 2.6796369553 0.2088242024 2.6796369553 0.1175799966
 716.73720000 63.989589691  -999.250000 56.571338654 21.969089508 21.790859222 17.692880630 14.579890251 13.839590073 0.8187100291 2.6685500145 2.6580128670 0.1578665078 2.6580128670 0.1148099974
 716.88960000 64.006050110  -999.250000 59.481838226 18.036720276 18.476629257 15.907030106 13.484080315 11.550310135 0.8184499741 2.7199800014 2.6330280304 0.0924732685 2.6330280304 0.1159600019
 717.04200000 64.549568176  -999.250000 63.265918732 15.851570129 16.234550476 15.149640083 13.018540382 10.906069756 0.8181300163 2.8773899078 2.6211600304 0.0404849090 2.6351144314 0.1279900074
 717.19440000 64.853271484  -999.250000 69.097412109 11.035940170 11.566940308 10.527420044 9.8285903931 8.5645303726 0.8177999854 3.0331399441 2.6225359440 0.0081827603 2.6372005939 0.1618299931
 717.34680000 65.059410095  -999.250000 71.048652649 7.4285998344 7.6002597809 7.2381100655 7.3186497688 6.5459098816 0.8175500035 3.0861699581 2.6392869949 -0.000471350 2.6392869949 0.1740600020
 717.49920000 65.137222290  -999.250000 68.060997009 7.7553200722 7.6068401337 7.3463201523 7.1854801178 6.5065097809 0.8173099756 3.0278899670 2.6530730724 0.0027556401 2.6530730724 0.1347299963
