# LAS format log file from PETREL
# Project units are specified as depth units
#==================================================================
~Version information
VERS.   2.0:
WRAP.   NO:
#==================================================================
~Well
STRT .m      -0.914400000 :
STOP .m      1533.4488000 :
STEP .m     0.15240000 :
NULL .        -999.250000 :
COMP.           : COMPANY
WELL.  P-140   : WELL
FLD.            : FIELD
LOC.            : LOCATION
SRVC.           : SERVICE COMPANY
DATE.  2015-12-30 13:54:20   : Log Export Date {yyyy-MM-dd HH:mm:ss}
PROV.           : PROVINCE
UWI.      : UNIQUE WELL ID
API.            : API NUMBER
#==================================================================
~Curve
DEPT .m                   : DEPTH
DT .us/ft                 : DT
DTS .us/ft                : DTS
GR .gAPI                  : GR
AF10 .ohm.m               : AF10
AF20 .ohm.m               : AF20
AF30 .ohm.m               : AF30
AF60 .ohm.m               : AF60
AF90 .ohm.m               : AF90
AMF .ohm.m                : AMF
PEF .b/e                  : PEF
RHOB .g/cm3               : RHOB
HDRA .g/cm3               : HDRA
RHOB_despiked .g/cm3      : RHOB_despiked
NPHI_SAN .m3/m3           : NPHI_SAN
~Parameter
#==================================================================
~Ascii
# ...
 411.48000000 66.206314087  -999.250000 80.139816284 38.243518829 35.141159058 35.824581146 36.447509766 36.773349762 0.8766300082 2.8817698956 2.5859689713 -0.005645280 2.5975599289 0.1604599953
 411.63240000 65.923118591  -999.250000 72.662612915 33.551151276 31.221200943 31.467739105 32.420719147 32.700939178 0.8762999773 2.8150200844 2.5869529247 -0.003824230 2.5985071659 0.1630900055
 411.78480000 66.280982971  -999.250000 62.842060089 34.379741669 31.778879166 31.461380005 32.253639221 32.520130157 0.8759800196 2.7627000809 2.5897738934 -0.008324390 2.5994546413 0.1671900004
 411.93720000 66.525375366  -999.250000 62.912731171 35.355281830 32.453151703 31.681579590 32.236721039 32.493679047 0.8759599924 2.7121000290 2.6004021168 -0.008849380 2.6004021168 0.1531399935
 412.08960000 66.408447266  -999.250000 63.800510406 35.682338715 34.260440826 32.903949738 32.854488373 33.119110107 0.8759499788 2.7294600010 2.6100831032 -0.007465840 2.6100831032 0.1615000069
 412.24200000 66.072990417  -999.250000 66.719238281 35.358489990 34.435359955 33.500038147 33.372741699 33.635639191 0.8759199977 2.7529199123 2.6128411293 -0.001185420 2.6128411293 0.1796700060
 412.39440000 65.678794861  -999.250000 67.023826599 38.176101685 37.225990295 36.219390869 36.282939911 36.569099426 0.8758999705 2.8124101162 2.6111609936 0.0003061300 2.6111609936 0.1681299955
 412.54680000 65.828514099  -999.250000 68.329696655 40.100379944 37.888210297 36.714931488 35.484828949 35.770561218 0.8760600090 2.8402900696 2.6112699509 -0.001054290 2.6112699509 0.1492500007
 412.69920000 65.812232971  -999.250000 65.749206543 40.562400818 39.317649841 38.112728119 38.188079834 38.499481201 0.8762300014 2.8513400555 2.6179239750 -0.001544950 2.6179239750 0.1611800045
 412.85160000 65.653915405  -999.250000 68.359260559 39.747138977 38.479099274 37.670871735 37.426048279 37.734249115 0.8764399886 2.8291499615 2.6252689362 -0.000878570 2.6252689362 0.1785899997
 413.00400000 65.429222107  -999.250000 69.012100220 43.045421600 34.638198853 35.254589081 35.826881409 36.108680725 0.8766499758 2.8165800571 2.6227958202 -0.001350400 2.6227958202 0.1733099967
 413.15640000 65.402038574  -999.250000 71.976249695 49.107391357 38.455398560 37.966690063 38.064140320 38.399898529 0.8766199946 2.7828900814 2.6281030178 0.0000343300 2.6281030178 0.1559299976
 413.30880000 65.178955078  -999.250000 76.966979980 43.707511902 39.764648438 37.548950195 38.096118927 38.444450378 0.8765900135 2.7770900726 2.6358649731 0.0026431100 2.6358649731 0.1650300026
 413.46120000 65.252777100  -999.250000 78.654693604 38.914508820 36.662029266 37.331501007 37.228321075 37.589691162 0.8765500188 2.7691299915 2.6444408894 0.0054373699 2.6375503540 0.1624200046
 413.61360000 65.221893311  -999.250000 79.245040894 40.159679413 35.659938812 35.691009521 35.708839417 36.067031860 0.8765199780 2.7731399536 2.6392359734 0.0048439498 2.6366510391 0.1655099988
 413.76600000 65.193275452  -999.250000 71.232742310 39.952690125 35.190269470 36.242340088 36.394989014 36.792339325 0.8767099977 2.7629299164 2.6357519627 0.0032815901 2.6357519627 0.1645900011
 413.91840000 65.057029724  -999.250000 72.087333679 40.631938934 37.232349396 36.611061096 37.012550354 37.434299469 0.8769000173 2.7860200405 2.6305160522 0.0010743099 2.6305160522 0.1499799937
 414.07080000 65.136581421  -999.250000 71.784461975 40.373428345 38.876899719 38.269561768 39.258110046 39.734920502 0.8771100044 2.8572499752 2.6247560978 -0.000596280 2.6247560978 0.1633300036
 414.22320000 65.116706848  -999.250000 71.511901855 42.579639435 38.202510834 38.113269806 39.167438507 39.657859802 0.8773300052 2.9219501019 2.6187460423 -0.001997710 2.6187460423 0.1815000027
 414.37560000 65.156761169  -999.250000 66.527389526 42.810150146 39.059650421 37.213211060 39.025909424 39.540618896 0.8775299788 2.9867899418 2.6132228374 -0.003435610 2.6132228374 0.1683599949
 414.52800000 64.816940308  -999.250000 68.923072815 42.414230347 38.464550018 37.806980133 38.876190186 39.406929016 0.8777300119 3.0160200596 2.6184430122 -0.002993110 2.6184430122 0.1644400060
 414.68040000 64.906364441  -999.250000 71.955169678 41.643051147 38.777069092 38.090728760 38.911449432 39.459629059 0.8779100180 3.0214400291 2.6249399185 -0.002732040 2.6249399185 0.1730300039
 414.83280000 64.993576050  -999.250000 72.804763794 40.757938385 38.655448914 37.866790771 38.581821442 39.139469147 0.8780800104 2.9879500866 2.6340920925 -0.001707550 2.6340920925 0.1733800024
 414.98520000 65.245697021  -999.250000 69.403236389 40.366348267 37.854469299 37.091320038 36.637840271 37.142631531 0.8777400255 2.9408800602 2.6434991360 -0.000115390 2.6434991360 0.1815499961
 415.13760000 64.884422302  -999.250000 68.674957275 42.580429077 39.204669952 39.201080322 39.441349030 40.055229187 0.8773999810 2.9365499020 2.6516180038 0.0028040400 2.6460871696 0.1776700020
 415.29000000 65.166297913  -999.250000 71.784523010 42.991180420 39.683570862 39.600898743 39.845638275 40.471931458 0.8771399856 2.9199399948 2.6549518108 0.0050714002 2.6459100246 0.1626800001
 415.44240000 65.668670654  -999.250000 71.208961487 41.950321198 38.822380066 38.568668365 38.733051300 39.352500916 0.8768699765 2.9201700687 2.6457328796 0.0046811099 2.6457328796 0.1728399992
 415.59480000 66.033973694  -999.250000 73.254989624 40.285099030 37.173809052 37.432430267 37.993518829 38.591770172 0.8769900203 2.9446001053 2.6153550148 -0.001046180 2.6153550148 0.1745900065
 415.74720000 66.363555908  -999.250000 70.526756287 36.098289490 34.675170898 35.229679108 35.833091736 36.389629364 0.8771100044 2.9563601017 2.5917799473 -0.005091910 2.6096177101 0.1670199931
 415.89960000 66.635864258  -999.250000 70.639022827 33.943168640 31.987499237 31.749019623 32.216571808 32.681121826 0.8771799803 2.9646000862 2.5743649006 -0.006835700 2.6038806438 0.1695999950
 416.05200000 66.943923950  -999.250000 72.470932007 30.585250854 27.732410431 28.033880234 28.662509918 29.037870407 0.8772500157 2.9110600948 2.5840969086 -0.002976420 2.6026029587 0.1640799940
 416.20440000 67.308341980  -999.250000 71.703933716 28.138719559 27.091440201 27.265600204 27.376699448 27.745790482 0.8774200082 2.9066801071 2.6013250351 0.0019028200 2.6013250351 0.1623699963
 416.35680000 67.345771790  -999.250000 69.978317261 31.511779785 29.438629150 29.133369446 29.573650360 29.984680176 0.8775900006 2.9177498817 2.6205458641 0.0050370698 2.6205458641 0.1602499932
 416.50920000 67.148353577  -999.250000 69.680252075 32.718990326 30.214990616 30.137880325 30.553300858 30.992429733 0.8776800036 2.9370400906 2.6249499321 0.0041084299 2.6249499321 0.1549399942
 416.66160000 67.108299255  -999.250000 71.405471802 35.269741058 31.384370804 31.468420029 31.555690765 32.018890381 0.8777700067 2.9921200275 2.6116111279 -0.000973220 2.6116111279 0.1492100060
 416.81400000 66.950447083  -999.250000 75.197540283 38.177619934 34.470550537 34.003479004 34.372100830 34.920711517 0.8777999878 3.0776801109 2.5932672024 -0.006302830 2.6067807674 0.1503999978
 416.96640000 66.461090088  -999.250000 68.444381714 42.388080597 39.567798615 38.590900421 37.394729614 37.995849609 0.8778200150 3.1610999107 2.5903291702 -0.008366589 2.6047973633 0.1685300022
 417.11880000 66.429122925  -999.250000 67.486221313 39.489791870 34.200901031 34.035400391 34.611160278 35.146129608 0.8778300285 3.1923999786 2.5971200466 -0.009019850 2.6028137207 0.1740999967
 417.27120000 66.203659058  -999.250000 68.597923279 39.010780334 38.009090424 36.716201782 35.951419830 36.529880524 0.8778399825 3.2040801048 2.6036770344 -0.009335280 2.6036770344 0.1717000008
 417.42360000 66.176651001  -999.250000 70.170227051 40.503570557 35.985591888 35.045379639 35.007270813 35.567539215 0.8775500059 3.1791200638 2.6131379604 -0.007318260 2.6131379604 0.1639699936
 417.57600000 66.244255066  -999.250000 69.360527039 40.297271729 34.339111328 33.955860138 34.017829895 34.550930023 0.8772600293 3.1956000328 2.6127610207 -0.005815510 2.6127610207 0.1760099977
