# LAS format log file from PETREL
# Project units are specified as depth units
#==================================================================
~Version information
VERS.   2.0:
WRAP.   NO:
#==================================================================
~Well
STRT .m      -0.914400000 :
STOP .m      1533.4488000 :
STEP .m     0.15240000 :
NULL .        -999.250000 :
COMP.           : COMPANY
WELL.  P-140   : WELL
FLD.            : FIELD
LOC.            : LOCATION
SRVC.           : SERVICE COMPANY
DATE.  2015-12-30 13:54:20   : Log Export Date {yyyy-MM-dd HH:mm:ss}
PROV.           : PROVINCE
UWI.      : UNIQUE WELL ID
API.            : API NUMBER
#==================================================================
~Curve
DEPT .m                   : DEPTH
DT .us/ft                 : DT
DTS .us/ft                : DTS
GR .gAPI                  : GR
AF10 .ohm.m               : AF10
AF20 .ohm.m               : AF20
AF30 .ohm.m               : AF30
AF60 .ohm.m               : AF60
AF90 .ohm.m               : AF90
AMF .ohm.m                : AMF
PEF .b/e                  : PEF
RHOB .g/cm3               : RHOB
HDRA .g/cm3               : HDRA
RHOB_despiked .g/cm3      : RHOB_despiked
NPHI_SAN .m3/m3           : NPHI_SAN
~Parameter
#==================================================================
~Ascii
# ...
 1117.5492000 66.812858582  -999.250000 92.415122986 35.867450714 52.775180817 76.068946838 59.988788605 116.06719971 0.7355899811 3.8772599697 2.7276589870 0.1731548011 2.6606884003 0.1551399976
 1117.7016000 67.400146484  -999.250000 98.364906311 32.695240021 54.533260345 65.246719360 59.642780304 74.682823181 0.7346100211 3.8111000061 2.7214398384 0.2421071082 2.6790714264 0.1809699982
 1117.8540000 68.323936462  -999.250000 107.93460083 31.219039917 47.929161072 41.011989594 42.493900299 36.818038940 0.7341200113 3.7356901169 2.6962251663 0.3111323714 2.6599552631 0.2241500020
 1118.0064000 69.835868835  -999.250000 116.68309784 24.163480759 29.077899933 26.615859985 32.331848145 22.253419876 0.7336400151 3.6587800980 2.6408390999 0.3290192783 2.6408390999 0.2265000045
 1118.1588000 70.125366211  -999.250000 120.14420319 21.806900024 20.243179321 19.997699738 21.241180420 18.648969650 0.7321699858 3.6011300087 2.6003959179 0.3170374036 2.6003959179 0.2910700142
 1118.3112000 70.261734009  -999.250000 124.07820129 26.104619980 20.309839249 20.580610275 20.283720016 18.902160645 0.7307000160 3.5757799149 2.5924088955 0.3081130981 2.5924088955 0.3418500125
 1118.4636000 71.406135559  -999.250000 124.56659698 25.366870880 24.709819794 24.411989212 21.724870682 21.537330627 0.7311099768 3.5978400707 2.6159040928 0.3300588131 2.6159040928 0.3050299883
 1118.6160000 72.960922241  -999.250000 123.23840332 27.799169540 26.423509598 25.155710220 23.356019974 22.477170944 0.7315099835 3.6377799511 2.6395409107 0.3564403057 2.6395409107 0.2906999886
 1118.7684000 73.138221741  -999.250000 115.16059875 21.910940170 26.620260239 25.253480911 23.259809494 22.342710495 0.7324000001 3.6989400387 2.6458067894 0.3574337959 2.6458067894 0.2904199958
 1118.9208000 73.087173462  -999.250000 120.32460022 21.568429947 25.081699371 24.084190369 22.239019394 21.210269928 0.7332900167 3.7711000443 2.6810309887 0.3434574902 2.6582505703 0.2685199976
 1119.0732000 72.772705078  -999.250000 117.82009888 18.151550293 23.299959183 21.057859421 20.831140518 18.185499191 0.7344499826 3.8355801105 2.7065691948 0.3026058972 2.6706941128 0.2475900054
 1119.2256000 71.574569702  -999.250000 117.14199829 20.795900345 33.159309387 31.873159409 29.603029251 28.728809357 0.7356100082 3.8401000500 2.7134881020 0.2646723092 2.6603569984 0.2428199947
 1119.3780000 70.936958313  -999.250000 113.38120270 27.834840775 29.660469055 35.389518738 29.717630386 26.889930725 0.7375500202 3.7431399822 2.6500201225 0.2414951026 2.6500201225 0.2726800144
 1119.5304000 70.891181946  -999.250000 114.76589966 21.476680756 22.343910217 25.020759583 24.071470261 25.208950043 0.7394800186 3.5620899200 2.5839078426 0.2417540997 2.5839078426 0.3834599853
 1119.6828000 63.949840546  -999.250000 108.59390259 31.237419128 30.815109253 34.597000122 31.910200119 28.669750214 0.7367399931 3.3867299557 2.5737662315 0.2484008968 2.5737662315 0.3168799877
 1119.8352000 63.304737091  -999.250000 93.579528809 33.928298950 40.237258911 43.905429840 41.158699036 32.885810852 0.7340099812 3.3252599239 2.6252369881 0.2388937920 2.6252369881 0.1456999928
 1119.9876000 63.485145569  -999.250000 77.486541748 42.017078400 61.923290253 64.883003235 61.472408295 50.898220062 0.7300999761 3.3260200024 2.6938009262 0.2571700215 2.6363799572 0.1147599965
 1120.1400000 65.829879761  -999.250000 75.588493347 24.290819168 39.258750916 66.133552551 75.925949097 41.901920319 0.7261899710 3.2574601173 2.6475229263 0.2905606925 2.6475229263 0.1066600010
 1120.2924000 66.076797485  -999.250000 82.502830505 20.344680786 29.824010849 34.664939880 39.441101074 33.608261108 0.7262799740 3.0287299156 2.5549249649 0.3468564153 2.5549249649 0.1780800074
 1120.4448000 65.211959839  -999.250000 97.613296509 15.066690445 21.459730148 23.558540344 28.463600159 24.060699463 0.7263699770 2.7602500916 2.4717118740 0.3688454926 2.5183594227 0.3303900063
 1120.5972000 67.552459717  -999.250000 106.75910187 15.116189957 20.352050781 24.808080673 26.570440292 23.502460480 0.7264800072 2.6593799591 2.4817938805 0.3557299972 2.5152387619 0.3500599861
 1120.7496000 68.064796448  -999.250000 106.88480377 14.569519997 19.393770218 22.517509460 21.952390671 22.335950851 0.7265800238 2.7686700821 2.5121178627 0.3056412041 2.5121178627 0.2872399986
 1120.9020000 69.958122253  -999.250000 96.445137024 15.337249756 17.017549515 19.982969284 20.374380112 21.002399445 0.7257199883 2.9723100662 2.5262758732 0.2496133000 2.5262758732 0.2736400068
 1121.0544000 71.999092102  -999.250000 91.043518066 16.728040695 19.754030228 20.724399567 23.392110825 24.649679184 0.7248499990 3.1649799347 2.5173079967 0.2110581100 2.5173079967 0.2440200001
 1121.2068000 73.977729797  -999.250000 88.714797974 19.629999161 29.771249771 34.397609711 35.852699280 41.674140930 0.7239900231 3.3261098862 2.5189459324 0.2036643028 2.5189459324 0.2026100010
 1121.3592000 74.017631531  -999.250000 89.882751465 18.781150818 25.276649475 35.083400726 42.588840485 49.690650940 0.7231199741 3.4340898991 2.4987199306 0.2052032948 2.5156800747 0.1981800050
 1121.5116000 75.786415100  -999.250000 98.902526855 12.972709656 18.329559326 19.710430145 25.172359467 27.801370621 0.7239400148 3.4611198902 2.4941201210 0.2160025090 2.5124144554 0.2733399868
 1121.6640000 75.858230591  -999.250000 113.36759949 10.405380249 13.877200127 14.222689629 18.060300827 19.383459091 0.7247599959 3.4154500961 2.4959299564 0.2129632980 2.5091485977 0.3622399867
 1121.8164000 75.975967407  -999.250000 125.93299866 10.726189613 14.697669983 16.186069489 19.069589615 19.648910522 0.7253900170 3.4112501144 2.5058829784 0.2108967006 2.5058829784 0.3853299916
 1121.9688000 79.094047546  -999.250000 131.37100220 12.693980217 16.420259476 18.182130814 20.849630356 20.521709442 0.7260299921 3.4451799393 2.5060219765 0.2166199982 2.5060219765 0.3995499909
 1122.1212000 79.507843018  -999.250000 124.87039948 15.793319702 20.448890686 22.718769073 22.499649048 23.035049438 0.7272400260 3.4660799503 2.5229971409 0.2399812043 2.5229971409 0.3459500074
 1122.2736000 79.264152527  -999.250000 130.19560242 21.193439484 28.298479080 30.065860748 28.041790009 35.980628967 0.7284500003 3.4262499809 2.5732300282 0.2723710835 2.5732300282 0.3106899858
 1122.4260000 76.748214722  -999.250000 131.56849670 26.235160828 36.880451202 46.923320770 36.953720093 59.146160126 0.7291799784 3.3747398853 2.5995528698 0.2982535064 2.5995528698 0.3040699959
 1122.5784000 73.249107361  -999.250000 142.04510498 28.964420319 39.924541473 46.532920837 38.461650848 58.294281006 0.7299000025 3.3550899029 2.5883741379 0.3199942112 2.5883741379 0.3181400001
 1122.7308000 72.112449646  -999.250000 148.71069336 24.295900345 41.683849335 41.235610962 40.719501495 41.001621246 0.7307999730 3.3466598988 2.5685038567 0.3298073113 2.5685038567 0.2904700041
 1122.8832000 72.490310669  -999.250000 153.21110535 24.344499588 34.389469147 33.558158875 33.044841766 31.349000931 0.7316899896 3.3618900776 2.5973379612 0.3351801038 2.5973379612 0.2775900066
 1123.0356000 72.844184875  -999.250000 150.17619324 23.414590836 28.056739807 26.260240555 29.517770767 23.149770737 0.7321000099 3.4224998951 2.6306240559 0.3304350078 2.6306240559 0.2460300028
 1123.1880000 71.727058411  -999.250000 148.98750305 28.535680771 27.907669067 27.069440842 26.505599976 22.441410065 0.7325000167 3.5132501125 2.6448199749 0.3323490918 2.6448199749 0.2659099996
 1123.3404000 70.661209106  -999.250000 144.32949829 27.323450089 36.088779449 35.884208679 32.358528137 26.210609436 0.7334799767 3.5731298923 2.6455769539 0.3389563859 2.6455769539 0.2707200050
 1123.4928000 70.138595581  -999.250000 147.77890015 30.563390732 51.848300934 55.625431061 34.684459686 37.639709473 0.7344700098 3.5384900570 2.6266808510 0.3380205929 2.6266808510 0.2729400098
 1123.6452000 70.205894470  -999.250000 148.15980530 32.980209351 40.305248260 45.161289215 36.478050232 43.020061493 0.7348700166 3.4486100674 2.5653860569 0.3238250911 2.5653860569 0.3231700063
