# LAS format log file from PETREL
# Project units are specified as depth units
#==================================================================
~Version information
VERS.   2.0:
WRAP.   NO:
#==================================================================
~Well
STRT .m      -0.914400000 :
STOP .m      1533.4488000 :
STEP .m     0.15240000 :
NULL .        -999.250000 :
COMP.           : COMPANY
WELL.  P-140   : WELL
FLD.            : FIELD
LOC.            : LOCATION
SRVC.           : SERVICE COMPANY
DATE.  2015-12-30 13:54:20   : Log Export Date {yyyy-MM-dd HH:mm:ss}
PROV.           : PROVINCE
UWI.      : UNIQUE WELL ID
API.            : API NUMBER
#==================================================================
~Curve
DEPT .m                   : DEPTH
DT .us/ft                 : DT
DTS .us/ft                : DTS
GR .gAPI                  : GR
AF10 .ohm.m               : AF10
AF20 .ohm.m               : AF20
AF30 .ohm.m               : AF30
AF60 .ohm.m               : AF60
AF90 .ohm.m               : AF90
AMF .ohm.m                : AMF
PEF .b/e                  : PEF
RHOB .g/cm3               : RHOB
HDRA .g/cm3               : HDRA
RHOB_despiked .g/cm3      : RHOB_despiked
NPHI_SAN .m3/m3           : NPHI_SAN
~Parameter
#==================================================================
~Ascii
# ...
 1323.7464000 66.921951294  -999.250000 80.248847961 20.869319916 19.437229156 21.231580734 20.644439697 20.956460953 0.7406499982 4.2583198547 2.7531340122 0.0179710407 2.7312183380 0.1579100043
 1323.8988000 68.600265503  -999.250000 80.541847229 21.657089233 20.855209351 19.254390717 19.652299881 19.227209091 0.7360699773 4.2344098091 2.7187240124 0.0856986120 2.7187240124 0.1473200023
 1324.0512000 68.921684265  -999.250000 90.793968201 15.304780006 17.260589600 16.949529648 16.630079269 16.269660950 0.7314900160 4.1481199265 2.6929991245 0.1822537929 2.6929991245 0.2125799954
 1324.2036000 68.274589539  -999.250000 107.94339752 11.438799858 14.673020363 14.121800423 13.787630081 13.696009636 0.7321799994 3.9031600952 2.6745359898 0.2401976883 2.6745359898 0.3417400122
 1324.3560000 68.263557434  -999.250000 121.81240082 12.632069588 16.509960175 14.308819771 13.979630470 13.888759613 0.7328600287 3.6999499798 2.7024590969 0.2344301045 2.7024590969 0.2621000111
 1324.5084000 68.166809082  -999.250000 114.84110260 12.952509880 15.458760262 14.608180046 13.889940262 13.986209869 0.7372900248 3.5796298981 2.6778249741 0.1568997055 2.6778249741 0.2424200028
 1324.6608000 68.735900879  -999.250000 109.15840149 16.362489700 17.611650467 16.805309296 17.140489578 16.645250320 0.7417100072 3.5347099304 2.6926109791 0.0819995403 2.6926109791 0.2431299984
 1324.8132000 68.653396606  -999.250000 104.44380188 23.497180939 22.247999191 20.463090897 20.175149918 19.230419159 0.7415999770 3.5677499771 2.6928291321 0.0197968502 2.6928291321 0.2026100010
 1324.9656000 68.710792542  -999.250000 95.262359619 24.387039185 22.430669785 21.077499390 21.042850494 19.844669342 0.7414900064 3.6922700405 2.7116699219 0.0065708198 2.7116699219 0.1856099963
 1325.1180000 69.497627258  -999.250000 92.966903687 18.277240753 19.144140244 19.290250778 19.222909927 18.570129395 0.7399200201 3.8363900185 2.6946148872 0.0228931904 2.6946148872 0.2039200068
 1325.2704000 69.743515015  -999.250000 94.603973389 14.323929787 15.215189934 15.572899818 15.689410210 15.056610107 0.7383400202 3.8836901188 2.6905968189 0.0587859191 2.6905968189 0.2441900074
 1325.4228000 69.924835205  -999.250000 99.364036560 12.971220016 12.966199875 13.053190231 13.425219536 12.442749977 0.7383499742 3.8334999084 2.6863849163 0.0773913860 2.6863849163 0.2460799962
 1325.5752000 70.885780334  -999.250000 102.81069946 12.295809746 12.913229942 13.025549889 12.895469666 12.281780243 0.7383599877 3.8000900745 2.7218220234 0.0827610493 2.7218220234 0.2592099905
 1325.7276000 70.981094360  -999.250000 102.81109619 11.812760353 12.475540161 12.311619759 12.103309631 11.835740089 0.7384499907 3.8144500256 2.7194290161 0.0712223127 2.7194290161 0.2693000138
 1325.8800000 71.081428528  -999.250000 113.11519623 11.256830215 11.441650391 11.186420441 11.132120132 11.133549690 0.7385399938 3.8392400742 2.7245991230 0.0621953011 2.7245991230 0.3098700047
 1326.0324000 70.941589355  -999.250000 113.80729675 11.520239830 11.677260399 11.297209740 11.320859909 10.956150055 0.7385399938 3.7912499905 2.7145340443 0.0415213071 2.7145340443 0.3248899877
 1326.1848000 70.388557434  -999.250000 117.18979645 12.671469688 13.387000084 12.703240395 12.630189896 12.362950325 0.7385399938 3.8116500378 2.7105748653 0.0146200703 2.7105748653 0.2639900148
 1326.3372000 71.021537781  -999.250000 109.59549713 13.982789993 15.023509979 14.261039734 14.054409981 13.645219803 0.7389500141 3.8989601135 2.7081410885 -0.003943920 2.7081410885 0.2327899933
 1326.4896000 70.703903198  -999.250000 107.05120087 15.601119995 16.515539169 15.160180092 15.085049629 14.997220039 0.7393699884 3.9798200130 2.6977858543 0.0136635303 2.6977858543 0.2195400000
 1326.6420000 71.163024902  -999.250000 99.199806213 14.424119949 16.500490189 15.492980003 15.220080376 15.358949661 0.7393699884 3.8938400745 2.6785840988 0.0641224384 2.6785840988 0.2753300071
 1326.7944000 72.020675659  -999.250000 97.888420105 14.513369560 15.998379707 14.955229759 14.583620071 15.135530472 0.7393699884 3.6950500011 2.6361019611 0.1273639053 2.6785721779 0.3076100051
 1326.9468000 71.306861877  -999.250000 102.28769684 14.383250237 15.889530182 14.670700073 13.807109833 15.005040169 0.7385299802 3.5226399899 2.6049251556 0.1945715100 2.6785604954 0.2369199991
 1327.0992000 71.897750854  -999.250000 113.05139923 12.689860344 13.590740204 12.599869728 12.846059799 12.690690041 0.7376899719 3.4283099174 2.5707290173 0.2245831043 2.6785488129 0.2293599993
 1327.2516000 71.969772339  -999.250000 116.43800354 10.547100067 10.956319809 10.449850082 11.321419716 10.691570282 0.7376300097 3.3877100945 2.5923578739 0.2183602005 2.6785368919 0.2690399885
 1327.4040000 71.763664246  -999.250000 115.16500092 11.431099892 12.023440361 11.549630165 11.581060410 11.321479797 0.7375699878 3.3723499775 2.6195290089 0.1620237976 2.6785249710 0.2841799855
 1327.5564000 73.587127686  -999.250000 101.66750336 11.824110031 12.864009857 12.970310211 12.819879532 12.803339958 0.7355300188 3.3698599339 2.6182219982 0.1159347966 2.6785132885 0.2237299979
 1327.7088000 74.090202332  -999.250000 104.48850250 11.059180260 11.585550308 11.212679863 12.152520180 12.176199913 0.7334899902 3.3898499012 2.5933768749 0.1142413989 2.6785016060 0.2835400105
 1327.8612000 75.074096680  -999.250000 103.02829742 11.168109894 12.158519745 12.006939888 11.886489868 11.843409538 0.7331900001 3.4161999226 2.5865318775 0.1626455933 2.6784896851 0.3165099919
 1328.0136000 74.508384705  -999.250000 110.36360168 12.549679756 13.426230431 12.858349800 12.182760239 12.102540016 0.7329000235 3.4564900398 2.6376919746 0.2175944000 2.6784777641 0.2331099957
 1328.1660000 74.043815613  -999.250000 114.77919769 9.7899599075 11.386859894 11.350600243 11.085209846 10.785719872 0.7351499796 3.4835999012 2.6784660816 0.2236936092 2.6784660816 0.2498500049
 1328.3184000 73.934234619  -999.250000 123.44950104 10.732669830 11.395649910 11.409390450 11.175410271 10.840689659 0.7373899817 3.5266299248 2.7029869556 0.1761393994 2.7029869556 0.3145700097
 1328.4708000 73.294067383  -999.250000 115.35769653 13.940850258 14.025480270 13.530679703 13.351790428 12.595310211 0.7379099727 3.5623199940 2.7087800503 0.0958399847 2.7087800503 0.2622100115
 1328.6232000 72.991127014  -999.250000 114.12000275 18.412759781 17.441530228 16.403949738 15.968759537 15.088120461 0.7384300232 3.6631400585 2.7420430183 0.0540871583 2.7096171379 0.2039200068
 1328.7756000 72.813369751  -999.250000 122.04450226 17.013599396 16.253559113 16.723320007 15.848509789 15.403530121 0.7387300134 3.7125799656 2.7458250523 0.0493667088 2.7104544640 0.2554900050
 1328.9280000 66.467094421  -999.250000 124.72820282 15.276659966 15.187540054 15.086039543 15.427880287 14.445409775 0.7390400171 3.6894600391 2.7499980927 0.0743668154 2.7112917900 0.3219400048
 1329.0804000 61.619586945  -999.250000 110.17140198 17.785070419 19.175659180 18.897129059 17.929119110 17.921659470 0.7391399741 3.5602099895 2.7121288776 0.0673942566 2.7121288776 0.3212400079
 1329.2328000 61.951087952  -999.250000 79.922096252 32.069190979 32.422069550 31.140499115 26.424619675 28.529819489 0.7392399907 3.4738399982 2.7129120827 0.0444292985 2.7129120827 0.2236900032
 1329.3852000 62.819190979  -999.250000 62.567340851 49.996799469 55.422439575 54.294311523 39.579990387 49.853839874 0.7364900112 3.4628899097 2.7180650234 0.0148196202 2.7180650234 0.0964099988
 1329.5376000 62.122203827  -999.250000 57.078178406 59.097728729 64.294761658 68.417648315 50.582099915 60.027301788 0.7337499857 3.5038499832 2.7389070988 0.0065767798 2.7389070988 0.0768700019
 1329.6900000 63.199764252  -999.250000 59.762161255 48.236480713 49.966350555 64.556533813 53.514419556 57.132148743 0.7327499986 3.5763900280 2.7339220047 0.0205400009 2.7339220047 0.0948000029
 1329.8424000 64.458976746  -999.250000 61.350891113 30.099460602 32.750171661 35.296539307 30.854730606 33.274921417 0.7317500114 3.6331300735 2.7006168365 0.0492610894 2.7006168365 0.0931700021
