# LAS format log file from PETREL
# Project units are specified as depth units
#==================================================================
~Version information
VERS.   2.0:
WRAP.   NO:
#==================================================================
~Well
STRT .m      -0.914400000 :
STOP .m      1533.4488000 :
STEP .m     0.15240000 :
NULL .        -999.250000 :
COMP.           : COMPANY
WELL.  P-140   : WELL
FLD.            : FIELD
LOC.            : LOCATION
SRVC.           : SERVICE COMPANY
DATE.  2015-12-30 13:54:20   : Log Export Date {yyyy-MM-dd HH:mm:ss}
PROV.           : PROVINCE
UWI.      : UNIQUE WELL ID
API.            : API NUMBER
#==================================================================
~Curve
DEPT .m                   : DEPTH
DT .us/ft                 : DT
DTS .us/ft                : DTS
GR .gAPI                  : GR
AF10 .ohm.m               : AF10
AF20 .ohm.m               : AF20
AF30 .ohm.m               : AF30
AF60 .ohm.m               : AF60
AF90 .ohm.m               : AF90
AMF .ohm.m                : AMF
PEF .b/e                  : PEF
RHOB .g/cm3               : RHOB
HDRA .g/cm3               : HDRA
RHOB_despiked .g/cm3      : RHOB_despiked
NPHI_SAN .m3/m3           : NPHI_SAN
~Parameter
#==================================================================
~Ascii
# ...
 817.62600000 65.671447754  -999.250000 66.639511108 22.441249847 21.070100784 20.656549454 20.133340836 20.325420380 0.7978799939 3.9324300289 2.6476640701 0.0031857500 2.6476640701 0.1880300045
 817.77840000 65.482131958  -999.250000 67.061500549 23.828069687 23.372989655 22.500820160 20.948350906 21.126689911 0.7965899706 4.1297497749 2.6450619698 -0.007102730 2.6450619698 0.1871600002
 817.93080000 64.747047424  -999.250000 61.173240662 24.025070190 24.037530899 23.266859055 20.423280716 20.575040817 0.7962899804 4.3016099930 2.6497981548 -0.008523230 2.6497981548 0.1797800064
 818.08320000 64.762351990  -999.250000 57.860481262 22.775810242 22.535919189 22.068529129 22.038610458 22.191740036 0.7959899902 4.4321799278 2.6667189598 -0.008298400 2.6667189598 0.1799499989
 818.23560000 64.887771606  -999.250000 57.475440979 24.430660248 21.300310135 21.625080109 22.484540939 22.620170593 0.7948799729 4.4940099716 2.6953139305 0.0009160000 2.6694076061 0.2017000020
 818.38800000 64.807243347  -999.250000 59.465751648 21.539779663 21.017990112 21.904609680 22.925140381 23.044500351 0.7937800288 4.4652600288 2.7119920254 0.0206229705 2.6683554649 0.2340800017
 818.54040000 64.709251404  -999.250000 61.640628815 22.445899963 21.881610870 22.084850311 23.126970291 23.232030869 0.7936199903 4.3101501465 2.6980509758 0.0466339625 2.6673035622 0.2331299931
 818.69280000 64.873176575  -999.250000 59.974868774 20.378389359 20.946649551 21.008100510 22.052679062 22.160299301 0.7934600115 4.1196498871 2.6774740219 0.0693950728 2.6662514210 0.2031199932
 818.84520000 65.119880676  -999.250000 61.858871460 22.402299881 20.567840576 22.099760056 21.629989624 21.715650558 0.7954199910 3.9218299389 2.6577179432 0.0696587488 2.6577179432 0.1986200064
 818.99760000 65.031303406  -999.250000 60.564029694 22.203519821 22.125379562 21.792079926 23.232980728 23.331359863 0.7973799706 3.7796399593 2.6601331234 0.0516793691 2.6601331234 0.1910600066
 819.15000000 65.089553833  -999.250000 76.048240662 25.110559464 22.432510376 22.199720383 23.163179398 23.195180893 0.7976599932 3.7152500153 2.6551320553 0.0225050393 2.6551320553 0.1775899976
 819.30240000 64.586112976  -999.250000 86.662712097 27.249080658 27.507440567 26.434659958 26.049579620 26.059999466 0.7979400158 3.6882200241 2.6568748951 0.0029013199 2.6568748951 0.1770499945
 819.45480000 64.362335205  -999.250000 89.936897278 31.227579117 33.258430481 29.789859772 28.649829865 28.473400116 0.7968699932 3.6150400639 2.6602828503 -0.003188610 2.6602828503 0.2111299932
 819.60720000 63.987239838  -999.250000 81.420326233 34.338550568 37.110900879 35.027259827 32.693088531 31.835929871 0.7957900167 3.5078198910 2.6439960003 -0.004464630 2.6439960003 0.1657799929
 819.75960000 64.391319275  -999.250000 71.708793640 35.411029816 38.566680908 39.237510681 38.132568359 36.712059021 0.7957199812 3.3419899940 2.6212260723 0.0053837299 2.6212260723 0.1492599994
 819.91200000 64.610679626  -999.250000 70.024932861 35.563049316 35.277770996 35.147159576 36.197189331 35.711978912 0.7956500053 3.2480099201 2.6220161915 0.0406999588 2.6220161915 0.1596000046
 820.06440000 64.989761353  -999.250000 60.493049622 32.247329712 31.064979553 29.843969345 31.340129852 31.180740356 0.7958599925 3.1524999142 2.6348109245 0.0802931860 2.6348109245 0.1611900032
 820.21680000 64.901611328  -999.250000 58.508510590 20.062170029 21.379100800 22.045520782 23.339450836 23.445589066 0.7960799932 3.1257801056 2.6480600834 0.1039642990 2.6480600834 0.1652200073
 820.36920000 65.034233093  -999.250000 60.818820953 14.154820442 14.651100159 15.086779594 16.056329727 16.078689575 0.7960900068 3.0898699760 2.6427049637 0.0992286205 2.6427049637 0.1756300032
 820.52160000 64.930839539  -999.250000 66.159156799 26.385210037 26.082799911 26.665460587 27.472919464 28.116519928 0.7961000204 3.0648899078 2.6596760750 0.1020104960 2.6596760750 0.1608799994
 820.67400000 64.999298096  -999.250000 70.456138611 42.666591644 42.732238770 44.416931152 44.342060089 45.846038818 0.7965000272 3.0418200493 2.6860699654 0.1043173969 2.6695604324 0.1398700029
 820.82640000 64.719009399  -999.250000 70.915931702 53.154361725 50.735328674 54.842861176 52.880981445 59.816539764 0.7968999743 3.0491499901 2.6870520115 0.0813131332 2.6711902618 0.1481799930
 820.97880000 64.911788940  -999.250000 69.869079590 50.851909637 55.830139160 56.552368164 55.726741791 59.034030914 0.7968999743 3.0959799290 2.6728200912 0.0555500984 2.6728200912 0.1438699961
 821.13120000 64.287834167  -999.250000 64.443481445 47.341999054 50.679668427 50.516590118 52.176380157 53.399150848 0.7968999743 3.1309099197 2.6595020294 0.0495197810 2.6595020294 0.1524699926
 821.28360000 63.968376160  -999.250000 63.289470673 42.819999695 43.201740265 42.993049622 44.329280853 44.221569061 0.7950699925 3.1177000999 2.6604859829 0.0686583668 2.6604859829 0.1464000046
 821.43600000 63.963867188  -999.250000 66.694259644 42.661540985 41.423061371 40.515041351 41.597778320 39.521190643 0.7932500243 3.0873301029 2.6663999557 0.0818459988 2.6663999557 0.1385100037
 821.58840000 63.683238983  -999.250000 70.214828491 43.135269165 40.015750885 39.747600555 40.591041565 39.857181549 0.7933300138 3.0952799320 2.6513490677 0.0848550797 2.6513490677 0.1393699944
 821.74080000 63.588169098  -999.250000 65.885437012 41.843650818 40.450588226 38.313331604 38.916908264 38.591018677 0.7933999896 3.1275401115 2.6616849899 0.1052608043 2.6616849899 0.1501999944
 821.89320000 63.525348663  -999.250000 66.760643005 40.850570679 36.754009247 36.171829224 36.707580566 38.705001831 0.7946400046 3.1006200314 2.6577758789 0.1075908989 2.6577758789 0.1462700069
 822.04560000 63.451644897  -999.250000 68.266563416 48.675819397 42.700859070 42.782009125 43.414981842 44.248920441 0.7958700061 3.0123600960 2.6687080860 0.0823948383 2.6687080860 0.1346099973
 822.19800000 63.462467194  -999.250000 81.326446533 55.805999756 49.553260803 50.292079926 48.007518768 50.309089661 0.7958599925 2.9379799366 2.6705119610 0.0348608531 2.6705119610 0.1464300007
 822.35040000 63.579574585  -999.250000 79.980369568 55.905929565 49.108921051 49.184978485 46.697978973 48.560791016 0.7958400249 2.8851299286 2.6736330986 0.0053312802 2.6736330986 0.1521299928
 822.50280000 63.672691345  -999.250000 80.127693176 50.862049103 45.918571472 45.396331787 44.819648743 46.621849060 0.7956299782 2.8662300110 2.6744120121 -0.001218320 2.6744120121 0.1403000057
 822.65520000 63.620994568  -999.250000 72.522987366 47.519241333 43.538150787 42.326190948 42.041961670 42.983150482 0.7954099774 2.8347399235 2.6552801132 -0.001982450 2.6552801132 0.1409199983
 822.80760000 63.893821716  -999.250000 68.752700806 43.920360565 40.362239838 39.194068909 39.024040222 39.833229065 0.7954999804 2.8090898991 2.6439590454 -0.002961870 2.6439590454 0.1561899930
 822.96000000 64.041801453  -999.250000 66.430381775 40.332580566 36.711570740 35.480148315 36.017620087 36.155250549 0.7955800295 2.7746899128 2.6321640015 -0.003472330 2.6321640015 0.1417600065
 823.11240000 63.867271423  -999.250000 63.030258179 36.865810394 34.322868347 33.167270660 33.557380676 33.579689026 0.7961699963 2.7232499123 2.6382100582 0.0004530000 2.6382100582 0.1497900039
 823.26480000 64.036346436  -999.250000 64.453483582 35.622211456 33.479518890 32.527839661 32.242240906 32.819080353 0.7967600226 2.6982800961 2.6312680244 0.0006372900 2.6378979683 0.1564999968
 823.41720000 64.044639587  -999.250000 67.244461060 35.445480347 33.165889740 32.265991211 32.004268646 32.571788788 0.7968999743 2.6962399483 2.6295340061 0.0010690700 2.6375856400 0.1391000003
 823.56960000 63.945636749  -999.250000 64.489562988 38.002159119 35.417259216 34.478031158 33.519500732 34.960510254 0.7970299721 2.7663600445 2.6106860638 -0.003854280 2.6372733116 0.1416999996
 823.72200000 63.989437103  -999.250000 64.009643555 40.917060852 37.888938904 36.550048828 35.692291260 36.743839264 0.7979999781 2.8311901093 2.6109139919 -0.005052330 2.6369612217 0.1488199979
