# LAS format log file from PETREL
# Project units are specified as depth units
#==================================================================
~Version information
VERS.   2.0:
WRAP.   NO:
#==================================================================
~Well
STRT .m      -0.914400000 :
STOP .m      1533.4488000 :
STEP .m     0.15240000 :
NULL .        -999.250000 :
COMP.           : COMPANY
WELL.  P-140   : WELL
FLD.            : FIELD
LOC.            : LOCATION
SRVC.           : SERVICE COMPANY
DATE.  2015-12-30 13:54:20   : Log Export Date {yyyy-MM-dd HH:mm:ss}
PROV.           : PROVINCE
UWI.      : UNIQUE WELL ID
API.            : API NUMBER
#==================================================================
~Curve
DEPT .m                   : DEPTH
DT .us/ft                 : DT
DTS .us/ft                : DTS
GR .gAPI                  : GR
AF10 .ohm.m               : AF10
AF20 .ohm.m               : AF20
AF30 .ohm.m               : AF30
AF60 .ohm.m               : AF60
AF90 .ohm.m               : AF90
AMF .ohm.m                : AMF
PEF .b/e                  : PEF
RHOB .g/cm3               : RHOB
HDRA .g/cm3               : HDRA
RHOB_despiked .g/cm3      : RHOB_despiked
NPHI_SAN .m3/m3           : NPHI_SAN
~Parameter
#==================================================================
~Ascii
# ...
 611.42880000 62.993900299  -999.250000 79.519653320 50.199150085 47.387290955 46.202709198 45.680309296 46.084320068 0.8381000161 2.7781100273 2.6389560699 -0.002322910 2.6389560699 0.1383100003
 611.58120000 62.803676605  -999.250000 72.662216187 51.168579102 46.253379822 45.080551147 44.329109192 44.731491089 0.8384199739 2.8672099113 2.6281089783 -0.004816530 2.6281089783 0.1336199939
 611.73360000 62.773590088  -999.250000 70.553520203 54.616138458 48.213130951 46.931098938 46.535060883 46.971561432 0.8387399912 2.8966100216 2.6275868416 -0.004806040 2.6275868416 0.1392499954
 611.88600000 62.726680756  -999.250000 73.045913696 52.759849548 47.331649780 46.756919861 47.246379852 47.717681885 0.8387200236 2.8680899143 2.6345458031 -0.003383880 2.6345458031 0.1352699995
 612.03840000 62.633445740  -999.250000 74.387863159 50.088249207 46.231880188 45.877189636 48.171230316 48.603610992 0.8386999965 2.8274300098 2.6420838833 -0.001971960 2.6420838833 0.1208399981
 612.19080000 62.746524811  -999.250000 76.168136597 55.792598724 51.843498230 52.587169647 51.377338409 51.836269379 0.8386700153 2.7963700294 2.6572208405 0.0000090600 2.6448829174 0.1346099973
 612.34320000 62.414169312  -999.250000 76.360023499 52.747070313 48.682598114 48.313961029 47.306869507 47.632888794 0.8386499882 2.8179399967 2.6578559875 -0.001125340 2.6476819515 0.1342200041
 612.49560000 62.783405304  -999.250000 74.550613403 54.483699799 49.706909180 49.150680542 48.375431061 48.718769073 0.8376299739 2.8709700108 2.6504809856 -0.002730610 2.6504809856 0.1412300020
 612.64800000 62.865795135  -999.250000 78.605743408 54.404090881 50.970001221 48.751110077 49.291011810 49.582241058 0.8366199732 2.8680000305 2.6302242279 -0.004071470 2.6302242279 0.1437399983
 612.80040000 63.366825104  -999.250000 73.771156311 45.608661652 46.106079102 44.490749359 45.090309143 45.318710327 0.8349300027 2.8125801086 2.6079571247 -0.002209190 2.6079571247 0.1341100037
 612.95280000 63.614959717  -999.250000 70.784866333 34.891151428 35.557720184 34.025360107 34.073509216 34.189861298 0.8332399726 2.7246899605 2.5812590122 0.0003807500 2.6064298153 0.1330599934
 613.10520000 63.689819336  -999.250000 62.642150879 28.150850296 28.355440140 26.975229263 28.740669250 28.817560196 0.8338599801 2.7186000347 2.5534021854 0.0002410400 2.6049027443 0.1418399960
 613.25760000 64.105171204  -999.250000 62.928020477 25.144889832 25.147340775 24.346460342 24.733459473 24.769779205 0.8344799876 2.7986299992 2.5379340649 -0.002921820 2.6033754349 0.1251199991
 613.41000000 64.170150757  -999.250000 65.733131409 32.644538879 31.318170547 30.740390778 29.578399658 29.613630295 0.8357200027 2.8730399609 2.5455639362 -0.006624460 2.6060376167 0.1280000061
 613.56240000 64.174667358  -999.250000 68.033607483 41.730651855 38.276870728 37.118209839 34.529850006 34.534870148 0.8369500041 2.8821599483 2.5671851635 -0.007985350 2.6087000370 0.1402900070
 613.71480000 64.011962891  -999.250000 70.017906189 41.118400574 36.927761078 38.479160309 35.702491760 35.664859772 0.8370699883 2.7998800278 2.5987939835 -0.005338670 2.6155514717 0.1191499978
 613.86720000 63.912689209  -999.250000 70.937171936 42.177669525 39.061069489 39.024730682 36.149959564 36.054008484 0.8371899724 2.7224199772 2.6224031448 -0.001553770 2.6224031448 0.1345600039
 614.01960000 63.708595276  -999.250000 66.774147034 42.284790039 41.999221802 40.910621643 37.418079376 37.267688751 0.8375300169 2.7225799561 2.6255810261 -0.001235250 2.6255810261 0.1353600025
 614.17200000 63.498161316  -999.250000 63.706390381 41.786018372 37.738128662 37.505760193 36.566730499 36.371650696 0.8378599882 2.7789099216 2.6129698753 -0.004525900 2.6129698753 0.1248800009
 614.32440000 63.097656250  -999.250000 61.980960846 44.925739288 40.857028961 38.800018311 37.812309265 37.580749512 0.8378300071 2.8590099812 2.5939629078 -0.007168290 2.6103234291 0.1299400032
 614.47680000 62.644813538  -999.250000 60.775920868 39.595870972 39.428630829 37.195129395 36.046070099 35.831970215 0.8378000259 2.8904800415 2.5870978832 -0.008733270 2.6076769829 0.1196999997
 614.62920000 62.776241302  -999.250000 56.366310120 37.365940094 36.635280609 33.966869354 33.495410919 33.310070038 0.8376700282 2.9086298943 2.5846879482 -0.008672000 2.6050305367 0.1278200001
 614.78160000 63.166873932  -999.250000 56.178699493 33.439411163 36.719989777 31.515989304 30.882799149 30.734809875 0.8375499845 2.9357399940 2.5822579861 -0.009749170 2.6023838520 0.1427900046
 614.93400000 63.159923553  -999.250000 57.872390747 40.593090057 29.194730759 29.956350327 28.427829742 28.301549911 0.8374099731 2.9367198944 2.5877339840 -0.007991310 2.6039431095 0.1266700029
 615.08640000 63.739440918  -999.250000 64.582847595 32.722179413 34.552410126 43.469810486 31.905450821 31.753120422 0.8372600079 2.9359500408 2.5970909595 -0.006138090 2.6055023670 0.1232500002
 615.23880000 63.909397125  -999.250000 71.704193115 36.050540924 31.687709808 40.307750702 35.691169739 35.581459045 0.8363199830 2.9255199432 2.6112670898 -0.005041840 2.6112670898 0.1418800056
 615.39120000 64.393417358  -999.250000 80.715370178 40.306098938 32.606670380 37.062019348 27.914169312 27.794109344 0.8353899717 2.9470200539 2.6175801754 -0.005475040 2.6175801754 0.1530900002
 615.54360000 64.246688843  -999.250000 84.481483459 37.324050903 30.566539764 33.910060883 33.196838379 33.047451019 0.8354200125 2.9312500954 2.6405990124 -0.001505610 2.6405990124 0.1548199952
 615.69600000 64.678405762  -999.250000 83.042762756 35.081729889 30.241220474 32.665950775 33.602050781 33.463718414 0.8354499936 2.8642599583 2.6526010036 0.0019874601 2.6416695118 0.1667200029
 615.84840000 64.463096619  -999.250000 76.140472412 36.242050171 34.133670807 31.993700027 33.941829681 33.835620880 0.8358700275 2.8569400311 2.6427400112 0.0025098301 2.6427400112 0.1531800032
 616.00080000 64.583221436  -999.250000 78.222312927 34.109249115 33.326290131 32.748550415 33.506980896 33.423900604 0.8362900019 2.9038898945 2.6167891026 -0.002268310 2.6167891026 0.1300300062
 616.15320000 64.349281311  -999.250000 78.551109314 39.017971039 37.121650696 35.382240295 34.363059998 34.317100525 0.8362900019 2.9838900566 2.6121909618 -0.004890680 2.6121909618 0.1652700007
 616.30560000 64.393630981  -999.250000 81.235153198 43.081760406 41.509830475 38.834308624 37.694290161 37.672939301 0.8362900019 3.0761699677 2.6149828434 -0.006987330 2.6149828434 0.1652300060
 616.45800000 64.082916260  -999.250000 74.524879456 44.969669342 41.579551697 38.177520752 37.737598419 37.805789948 0.8368300200 3.0895099640 2.6278328896 -0.005718710 2.6278328896 0.1615699977
 616.61040000 63.944236755  -999.250000 70.896896362 48.097721100 44.055389404 42.053928375 41.593101501 41.764148712 0.8373600245 3.0894000530 2.6320538521 -0.004365920 2.6320538521 0.1563200057
 616.76280000 63.618892670  -999.250000 67.831222534 47.491210938 43.351299286 41.799079895 40.883041382 41.139850616 0.8373600245 3.0174400806 2.6463229656 -0.000917200 2.6463229656 0.1518999934
 616.91520000 63.468776703  -999.250000 69.211669922 47.551731110 43.120460510 42.475948334 40.356689453 40.706069946 0.8373600245 3.0301799774 2.6399049759 -0.001593830 2.6399049759 0.1460500062
 617.06760000 63.034317017  -999.250000 71.346023560 48.815219879 44.304271698 42.523258209 39.692871094 40.117759705 0.8378300071 3.0337600708 2.6371099949 -0.002483130 2.6371099949 0.1434500068
 617.22000000 63.157974243  -999.250000 75.675422668 47.751518250 43.872989655 43.326400757 40.049209595 40.549560547 0.8382899761 3.0064899921 2.6417570114 -0.003074880 2.6417570114 0.1340399981
 617.37240000 62.770603180  -999.250000 75.398658752 46.822311401 44.788028717 44.237789154 41.926231384 42.519958496 0.8382899761 2.9418900013 2.6519517899 -0.002787590 2.6457123756 0.1516299993
 617.52480000 62.834186554  -999.250000 72.580642700 45.572658539 50.372131348 49.280059814 48.134429932 48.922340393 0.8382899761 2.9209098816 2.6496679783 -0.004712340 2.6496679783 0.1456000060
