# LAS format log file from PETREL
# Project units are specified as depth units
#==================================================================
~Version information
VERS.   2.0:
WRAP.   NO:
#==================================================================
~Well
STRT .m      -0.914400000 :
STOP .m      1533.4488000 :
STEP .m     0.15240000 :
NULL .        -999.250000 :
COMP.           : COMPANY
WELL.  P-140   : WELL
FLD.            : FIELD
LOC.            : LOCATION
SRVC.           : SERVICE COMPANY
DATE.  2015-12-30 13:54:20   : Log Export Date {yyyy-MM-dd HH:mm:ss}
PROV.           : PROVINCE
UWI.      : UNIQUE WELL ID
API.            : API NUMBER
#==================================================================
~Curve
DEPT .m                   : DEPTH
DT .us/ft                 : DT
DTS .us/ft                : DTS
GR .gAPI                  : GR
AF10 .ohm.m               : AF10
AF20 .ohm.m               : AF20
AF30 .ohm.m               : AF30
AF60 .ohm.m               : AF60
AF90 .ohm.m               : AF90
AMF .ohm.m                : AMF
PEF .b/e                  : PEF
RHOB .g/cm3               : RHOB
HDRA .g/cm3               : HDRA
RHOB_despiked .g/cm3      : RHOB_despiked
NPHI_SAN .m3/m3           : NPHI_SAN
~Parameter
#==================================================================
~Ascii
# ...
 105.30840000 82.057495117  -999.250000 38.142589569 9.7382001877 13.933529854 18.208459854 30.096790314 33.197299957 0.9018899798 10.000000000 2.4690120220 0.1377222985 2.4690120220 0.3811199963
 105.46080000 81.103195190  -999.250000 38.907669067 9.7382001877 13.933529854 18.208459854 30.096790314 33.197299957 0.9019100070 10.000000000 2.4674108028 0.1414557099 2.4674108028 0.3746500015
 105.61320000 79.854705811  -999.250000 41.709079742 9.7382001877 13.933529854 18.208459854 30.096790314 33.197299957 0.9019500017 10.000000000 2.4715640545 0.1469049007 2.4715640545 0.3702400029
 105.76560000 79.824501038  -999.250000 43.053340912 9.7382001877 13.933529854 18.208459854 30.096790314 33.197299957 0.9020000100 10.000000000 2.4755959511 0.1504247040 2.4755959511 0.3651199937
 105.91800000 79.584045410  -999.250000 45.265029907 9.7382001877 13.933529854 18.208459854 30.096790314 33.197299957 0.9018200040 10.000000000 2.4831779003 0.1568232030 2.4831779003 0.3595199883
 106.07040000 78.704170227  -999.250000 46.644588470 9.7382001877 13.933529854 18.208459854 30.096790314 33.197299957 0.9016399980 10.000000000 2.4870281219 0.1624825001 2.4870281219 0.3855899870
 106.22280000 78.362159729  -999.250000 50.135070801 9.7382001877 13.933529854 18.208459854 30.096790314 33.197299957 0.9014300108 10.000000000 2.4933331013 0.1680881977 2.4933331013 0.3925899863
 106.37520000 78.834777832  -999.250000 50.135040283 9.7382001877 13.933529854 18.208459854 30.096790314 33.197299957 0.9012100101 10.000000000 2.4872210026 0.1644446999 2.4872210026 0.3483999968
 106.52760000 79.255836487  -999.250000 49.357398987 9.7382001877 13.933529854 18.208459854 30.096790314 33.197299957 0.9012699723 10.000000000 2.4727480412 0.1553278118 2.4727480412 0.3709000051
 106.68000000 79.831481934  -999.250000 46.705539703 9.7382001877 13.933529854 18.208459854 30.096790314 33.197299957 0.9013299942 10.000000000 2.4572200775 0.1458100975 2.4572200775 0.3927800059
 106.83240000 80.298370361  -999.250000 44.675559998 9.7382001877 13.933529854 18.208459854 30.096790314 33.197299957 0.9012299776 10.000000000 2.4450778961 0.1392776966 2.4551270008 0.3652600050
 106.98480000 80.837295532  -999.250000 41.002868652 9.7382001877 13.933529854 18.208459854 30.096790314 33.197299957 0.9011300206 10.000000000 2.4448130131 0.1401448101 2.4530339241 0.3590700030
 107.13720000 81.212829590  -999.250000 37.892780304 9.7382001877 13.933529854 18.208459854 30.096790314 33.197299957 0.9009400010 10.000000000 2.4509408474 0.1462073028 2.4509408474 0.3775700033
 107.28960000 85.038963318  -999.250000 36.565818787 9.7382001877 13.933529854 18.208459854 30.096790314 33.197299957 0.9007599950 10.000000000 2.4626441002 0.1554774940 2.4626441002 0.3595499992
 107.44200000 80.150787354  -999.250000 36.144371033 9.7382001877 13.933529854 18.208459854 30.096790314 33.197299957 0.9007599950 10.000000000 2.4702439308 0.1602980942 2.4702439308 0.3747200072
 107.59440000 83.754646301  -999.250000 37.155738831 9.7382001877 13.933529854 18.208459854 30.096790314 33.197299957 0.9007499814 10.000000000 2.4701201916 0.1560492963 2.4701201916 0.3858399987
 107.74680000 105.96771240  -999.250000 37.054759979 9.7382001877 13.933529854 18.208459854 30.096790314 33.197299957 0.9005500078 10.000000000 2.4545681477 0.1402499974 2.4545681477 0.4108499885
 107.89920000 123.09061432  -999.250000 35.481670380 9.7382001877 13.933529854 18.208459854 30.096790314 33.197299957 0.9003599882 10.000000000 2.3894109726 0.0984995291 2.4558136463 0.5175200105
 108.05160000 123.07025146  -999.250000 31.698669434 9.7382001877 13.933529854 18.208459854 30.096790314 33.197299957 0.9001899958 10.000000000 2.2970519066 0.0514213964 2.4570591450 0.7570599914
 108.20400000 119.53624725  -999.250000 26.642910004 9.7382001877 13.933529854 18.208459854 30.096790314 33.197299957 0.9000300169 10.000000000 2.2160420418 0.0139336595 2.4583048820 0.9001700282
 108.35640000 115.07047272  -999.250000 23.971380234 9.7382001877 13.933529854 18.208459854 30.096790314 33.197299957 0.9000499845 10.000000000 2.1702640057 0.0029203899 2.4595503807 0.9314799905
 108.50880000 114.23139191  -999.250000 23.915199280 9.7382001877 13.933529854 18.208459854 30.096790314 33.197299957 0.9000599980 10.000000000 2.1515920162 0.0020701899 2.4607958794 0.8976399899
 108.66120000 109.92600250  -999.250000 32.641239166 9.7382001877 13.933529854 18.208459854 30.096790314 33.197299957 0.9000899792 10.000000000 2.2007088661 0.0420989990 2.4620413780 0.8507900238
 108.81360000 108.39401245  -999.250000 43.161819458 9.7382001877 13.933529854 18.208459854 30.096790314 33.197299957 0.9001299739 10.000000000 2.3096320629 0.1019675955 2.4632871151 0.5835899711
 108.96600000 109.03762817  -999.250000 53.959430695 9.7382001877 13.933529854 18.208459854 30.096790314 33.197299957 0.9002299905 10.000000000 2.4242858887 0.1596003026 2.4645326138 0.4634700119
 109.11840000 106.48394775  -999.250000 58.977390289 9.7382001877 13.933529854 18.208459854 30.096790314 33.197299957 0.9003199935 10.000000000 2.4657781124 0.1713475883 2.4657781124 0.4274500012
 109.27080000 106.10603333  -999.250000 60.511451721 9.7382001877 13.933529854 18.208459854 30.096790314 33.197299957 0.9001899958 10.000000000 2.4549310207 0.1606927067 2.4549310207 0.4697000086
 109.42320000 103.86715698  -999.250000 57.838088989 9.7382001877 13.933529854 18.208459854 30.096790314 33.197299957 0.9000599980 10.000000000 2.4112188816 0.1380162090 2.4482920170 0.6149100065
 109.57560000 103.12718964  -999.250000 54.054481506 9.7382001877 13.933529854 18.208459854 30.096790314 33.197299957 0.9000999928 10.000000000 2.3311779499 0.0933732986 2.4601893425 0.6811900139
 109.72800000 99.919570923  -999.250000 54.760848999 9.7382001877 13.933529854 18.208459854 30.096790314 33.197299957 0.9001500010 10.000000000 2.3152389526 0.0844948292 2.4720869064 0.7040299773
 109.88040000 96.772384644  -999.250000 65.086280823 9.7382001877 13.933529854 18.208459854 30.096790314 33.197299957 0.9002900124 10.000000000 2.3836798668 0.1129273996 2.5025210381 0.6335099936
 110.03280000 94.623176575  -999.250000 75.048553467 9.7382001877 13.933529854 18.208459854 30.096790314 33.197299957 0.9004399776 10.000000000 2.5329551697 0.1787528992 2.5052170753 0.5528399944
 110.18520000 92.917823792  -999.250000 74.755538940 9.7382001877 13.933529854 18.208459854 30.096790314 33.197299957 0.9004499912 10.000000000 2.6449141502 0.2156448066 2.5079133511 0.4967600107
 110.33760000 86.962425232  -999.250000 65.676681519 9.7382001877 13.933529854 18.208459854 30.096790314 33.197299957 0.9004499912 10.000000000 2.7035348415 0.2296092957 2.5106093884 0.4519500136
 110.49000000 86.323051453  -999.250000 61.179550171 9.7382001877 13.933529854 18.208459854 30.096790314 33.197299957 0.9006000161 10.000000000 2.6872560978 0.2221056968 2.5133056641 0.4978199899
 110.64240000 85.286178589  -999.250000 62.551609039 9.7382001877 13.933529854 18.208459854 30.096790314 33.197299957 0.9007400274 10.000000000 2.6228249073 0.2032344043 2.5160017014 0.5336300135
 110.79480000 83.665306091  -999.250000 66.122863770 9.7382001877 13.933529854 18.208459854 30.096790314 33.197299957 0.9008200169 10.000000000 2.5556578636 0.1848215908 2.5186979771 0.4750500023
 110.94720000 81.312141418  -999.250000 68.149627686 9.7382001877 13.933529854 18.208459854 30.096790314 33.197299957 0.9009000063 10.000000000 2.5213940144 0.1747100055 2.5213940144 0.4630900025
 111.09960000 79.923133850  -999.250000 66.645866394 9.7382001877 13.933529854 18.208459854 30.096790314 33.197299957 0.9010999799 10.000000000 2.5210089684 0.1731791943 2.5210089684 0.4424799979
 111.25200000 78.647270203  -999.250000 64.478607178 9.7382001877 13.933529854 18.208459854 30.096790314 33.197299957 0.9013000131 10.000000000 2.5272040367 0.1723957062 2.5272040367 0.4332799911
 111.40440000 77.656639099  -999.250000 59.542919159 9.7382001877 13.933529854 18.208459854 30.096790314 33.197299957 0.9013599753 10.000000000 2.5313510895 0.1706934124 2.5291354656 0.4050900042
