# LAS format log file from PETREL
# Project units are specified as depth units
#==================================================================
~Version information
VERS.   2.0:
WRAP.   NO:
#==================================================================
~Well
STRT .m      -0.914400000 :
STOP .m      1533.4488000 :
STEP .m     0.15240000 :
NULL .        -999.250000 :
COMP.           : COMPANY
WELL.  P-140   : WELL
FLD.            : FIELD
LOC.            : LOCATION
SRVC.           : SERVICE COMPANY
DATE.  2015-12-30 13:54:20   : Log Export Date {yyyy-MM-dd HH:mm:ss}
PROV.           : PROVINCE
UWI.      : UNIQUE WELL ID
API.            : API NUMBER
#==================================================================
~Curve
DEPT .m                   : DEPTH
DT .us/ft                 : DT
DTS .us/ft                : DTS
GR .gAPI                  : GR
AF10 .ohm.m               : AF10
AF20 .ohm.m               : AF20
AF30 .ohm.m               : AF30
AF60 .ohm.m               : AF60
AF90 .ohm.m               : AF90
AMF .ohm.m                : AMF
PEF .b/e                  : PEF
RHOB .g/cm3               : RHOB
HDRA .g/cm3               : HDRA
RHOB_despiked .g/cm3      : RHOB_despiked
NPHI_SAN .m3/m3           : NPHI_SAN
~Parameter
#==================================================================
~Ascii
# ...
 1017.5748000 62.203216553  -999.250000 70.557769775 55.706531525 51.738491058 50.775051117 49.993431091 49.335521698 0.7636100054 2.8924400806 2.7136189938 0.1376831979 2.7136189938 0.1469199955
 1017.7272000 62.204010010  -999.250000 70.471557617 65.010421753 61.523200989 61.248050690 60.796558380 58.433830261 0.7643700242 2.9399600029 2.6953930855 0.1303147972 2.6953930855 0.1377899945
 1017.8796000 62.075355530  -999.250000 64.949188232 75.008186340 69.852493286 68.773406982 66.660247803 63.306838989 0.7647200227 2.8903100491 2.6926670074 0.1389279068 2.6926670074 0.1171599999
 1018.0320000 62.073219299  -999.250000 57.705108643 82.270233154 72.914482117 71.023063660 69.686187744 66.338821411 0.7650700212 2.7860600948 2.6832251549 0.1329848915 2.6832251549 0.1181999967
 1018.1844000 62.078372955  -999.250000 60.803470612 88.604759216 78.444717407 74.824966431 73.174438477 70.728088379 0.7649999857 2.7142999172 2.6825621128 0.1124382019 2.6825621128 0.1118400022
 1018.3368000 61.869827271  -999.250000 63.186820984 86.588798523 76.998802185 72.359466553 68.979896545 68.476913452 0.7649400234 2.6817500591 2.6595199108 0.0761890411 2.6595199108 0.1146200001
 1018.4892000 62.146984100  -999.250000 69.318260193 76.364463806 68.324493408 66.723861694 63.165561676 63.217418671 0.7649099827 2.6579198837 2.6357009411 0.0446562804 2.6565620899 0.1247799993
 1018.6416000 62.085781097  -999.250000 71.127983093 69.411483765 64.754753113 61.154441833 58.270301819 58.304340363 0.7648900151 2.6640200615 2.6158301830 0.0191826802 2.6536042690 0.1389500052
 1018.7940000 62.127384186  -999.250000 75.022827148 64.688850403 63.272518158 57.340381622 54.760730743 54.129680634 0.7632700205 2.6917800903 2.6133310795 0.0253841896 2.6506466866 0.1495900005
 1018.9464000 61.989585876  -999.250000 74.294822693 70.465652466 57.482780457 54.681991577 52.294898987 50.570789337 0.7616500258 2.7484300137 2.6290450096 0.0575654469 2.6476888657 0.1379899979
 1019.0988000 61.890617371  -999.250000 73.524246216 68.222183228 57.046409607 54.770870209 53.003368378 50.199859619 0.7612800002 2.7704300880 2.6447310448 0.0863861963 2.6447310448 0.1130599976
 1019.2512000 61.792564392  -999.250000 73.257362366 64.872596741 59.320449829 59.262870789 57.569019318 50.933879852 0.7609000206 2.7754600048 2.6552300453 0.1026272997 2.6552300453 0.1262599975
 1019.4036000 61.740837097  -999.250000 71.201393127 66.140083313 62.985980988 60.878681183 56.543128967 49.557498932 0.7614399791 2.8132700920 2.6656851768 0.1315207928 2.6656851768 0.1133000031
 1019.5560000 61.759948730  -999.250000 63.446949005 65.709739685 69.764633179 59.124900818 56.485771179 51.846019745 0.7619699836 2.8512001038 2.6676378250 0.1639792919 2.6676378250 0.1075500026
 1019.7084000 61.504890442  -999.250000 58.897319794 66.534767151 74.245246887 65.576011658 63.562191010 56.150360107 0.7620400190 2.8521199226 2.6718811989 0.1722460091 2.6718811989 0.1135499999
 1019.8608000 61.340175629  -999.250000 54.577781677 65.045036316 81.160858154 69.590286255 62.783790588 60.450389862 0.7621200085 2.7628500462 2.6627500057 0.1227646023 2.6627500057 0.1027000025
 1020.0132000 61.336883545  -999.250000 55.664451599 63.478931427 70.023643494 65.093383789 59.291488647 59.053489685 0.7621700168 2.6375799179 2.6572880745 0.0601110496 2.6572880745 0.1148599982
 1020.1656000 60.872493744  -999.250000 55.319889069 60.700679779 61.086788177 57.782379150 59.898109436 59.625431061 0.7622200251 2.5717399120 2.6383550167 0.0131668998 2.6528916359 0.1100699976
 1020.3180000 61.069881439  -999.250000 50.610660553 53.249691010 49.862979889 49.745780945 53.757179260 54.155998230 0.7622200251 2.5748300552 2.6257050037 -0.002838610 2.6484949589 0.1123899966
 1020.4704000 61.033397675  -999.250000 53.429489136 48.951858521 41.173519135 43.131370544 47.700458527 48.940090179 0.7622200251 2.5651900768 2.6212480068 -0.004650830 2.6477324963 0.1052500010
 1020.6228000 61.122577667  -999.250000 60.690109253 38.723499298 33.533329010 36.512950897 41.754760742 43.314460754 0.7612500191 2.5851199627 2.6279618740 0.0130512696 2.6469702721 0.1107899994
 1020.7752000 60.749137878  -999.250000 65.056663513 32.408840179 30.104639053 32.587348938 34.526000977 36.814071655 0.7602699995 2.6674900055 2.6498420238 0.0717167780 2.6498420238 0.1352999955
 1020.9276000 61.266170502  -999.250000 60.231369019 42.640731812 37.125450134 41.399459839 41.077709198 45.373229980 0.7603499889 2.8280100822 2.6523649693 0.1498811096 2.6523649693 0.1405400038
 1021.0800000 60.875938416  -999.250000 48.955291748 49.786399841 46.107059479 50.336368561 49.403350830 53.735309601 0.7604299784 2.9340500832 2.6604008675 0.2271015942 2.6604008675 0.1382399946
 1021.2324000 60.620059967  -999.250000 47.252670288 51.149410248 47.299091339 47.517181396 46.577209473 50.807579041 0.7617099881 2.9594800472 2.6708519459 0.2636769116 2.6708519459 0.1207600012
 1021.3848000 61.397388458  -999.250000 45.514389038 56.495990753 51.390029907 49.083999634 48.584800720 52.281761169 0.7629799843 2.9468801022 2.6793057919 0.2543509007 2.6793057919 0.1157099977
 1021.5372000 61.158000946  -999.250000 45.662158966 57.800521851 56.316120148 51.775371552 51.307060242 54.483650208 0.7628200054 2.9278900623 2.7006549835 0.2278659046 2.7006549835 0.1256199926
 1021.6896000 61.158424377  -999.250000 47.880580902 59.473171234 59.398529053 53.601799011 53.477031708 55.849300385 0.7626600266 2.9120500088 2.6972548962 0.1905522048 2.6972548962 0.1230100021
 1021.8420000 61.419731140  -999.250000 47.152629852 55.295101166 58.846080780 52.756500244 50.432270050 53.314670563 0.7614600062 2.9139099121 2.6871631145 0.1705365032 2.6871631145 0.1104900017
 1021.9944000 61.472187042  -999.250000 54.397178650 52.293758392 54.631130219 48.792301178 48.608089447 48.421890259 0.7602599859 2.9315099716 2.6670510769 0.1685243100 2.6670510769 0.1265999973
 1022.1468000 61.861446381  -999.250000 60.369129181 48.913440704 52.204929352 49.323371887 48.654918671 47.552921295 0.7606400251 2.9490799904 2.6662747860 0.1867707074 2.6662747860 0.1559700072
 1022.2992000 62.020153046  -999.250000 64.826332092 48.086990356 47.729579926 49.221958160 47.683071136 44.761970520 0.7610200047 2.9729800224 2.6844561100 0.2098085880 2.6844561100 0.1414600015
 1022.4516000 62.281032562  -999.250000 62.408691406 48.196941376 46.563140869 49.269210815 48.162410736 43.888801575 0.7626699805 2.9910299778 2.6989090443 0.2152018994 2.6989090443 0.1243299991
 1022.6040000 62.357418060  -999.250000 57.484668732 47.620201111 44.195610046 45.492679596 46.712131500 43.586009979 0.7643300295 2.9882500172 2.7113111019 0.2043578923 2.7113111019 0.1316300035
 1022.7564000 62.404968262  -999.250000 62.179279327 58.671920776 47.707450867 50.141731262 49.502769470 49.399799347 0.7643300295 2.9356200695 2.7144069672 0.1683872044 2.7144069672 0.1209900007
 1022.9088000 62.236625671  -999.250000 71.764213562 69.826118469 59.364521027 58.579208374 56.614971161 57.571868896 0.7643399835 2.8444900513 2.7048897743 0.1147032008 2.7048897743 0.1283999979
 1023.0612000 62.255580902  -999.250000 78.024406433 87.476799011 76.284286499 72.020057678 68.983520508 69.685417175 0.7643499970 2.7443599701 2.6907699108 0.0541651174 2.6907699108 0.1153900027
 1023.2136000 62.232509613  -999.250000 85.141448975 91.888633728 80.008529663 76.767616272 70.391899109 77.569282532 0.7643700242 2.7530500889 2.6723191738 0.0143284798 2.6723191738 0.1189799979
 1023.3660000 62.382469177  -999.250000 88.759788513 86.680130005 78.733421326 72.320762634 67.003593445 69.137283325 0.7640600204 2.8307399750 2.6601679325 -0.003340720 2.6601679325 0.1372099966
 1023.5184000 62.383415222  -999.250000 97.366142273 87.200462341 82.645233154 75.820030212 71.184379578 71.635803223 0.7637599707 2.9879300594 2.6513550282 0.0161876697 2.6643161774 0.1507000029
 1023.6708000 63.424583435  -999.250000 95.414657593 93.833137512 87.231109619 80.030929565 72.004341125 73.373558044 0.7630900145 3.1031999588 2.6684641838 0.0669283941 2.6684641838 0.1517399997
