# LAS format log file from PETREL
# Project units are specified as depth units
#==================================================================
~Version information
VERS.   2.0:
WRAP.   NO:
#==================================================================
~Well
STRT .m      -0.914400000 :
STOP .m      1533.4488000 :
STEP .m     0.15240000 :
NULL .        -999.250000 :
COMP.           : COMPANY
WELL.  P-140   : WELL
FLD.            : FIELD
LOC.            : LOCATION
SRVC.           : SERVICE COMPANY
DATE.  2015-12-30 13:54:20   : Log Export Date {yyyy-MM-dd HH:mm:ss}
PROV.           : PROVINCE
UWI.      : UNIQUE WELL ID
API.            : API NUMBER
#==================================================================
~Curve
DEPT .m                   : DEPTH
DT .us/ft                 : DT
DTS .us/ft                : DTS
GR .gAPI                  : GR
AF10 .ohm.m               : AF10
AF20 .ohm.m               : AF20
AF30 .ohm.m               : AF30
AF60 .ohm.m               : AF60
AF90 .ohm.m               : AF90
AMF .ohm.m                : AMF
PEF .b/e                  : PEF
RHOB .g/cm3               : RHOB
HDRA .g/cm3               : HDRA
RHOB_despiked .g/cm3      : RHOB_despiked
NPHI_SAN .m3/m3           : NPHI_SAN
~Parameter
#==================================================================
~Ascii
# ...
 917.60040000 66.047996521  -999.250000 54.332050323 18.564449310 18.281589508 17.858270645 18.280719757 18.328460693 0.7767999768 2.7116498947 2.5527091026 -0.000344040 2.5931563377 0.1600999981
 917.75280000 66.251388550  -999.250000 53.612628937 18.018510818 18.240510941 17.809680939 18.107349396 18.150669098 0.7765799761 2.6895599365 2.5575680733 0.0143277599 2.5930495262 0.1898600012
 917.90520000 66.495658875  -999.250000 55.684761047 18.094650269 18.190759659 17.664239883 17.810260773 17.851860046 0.7767000198 2.6750199795 2.5626659393 0.0271635093 2.5929427147 0.1897300035
 918.05760000 67.045181274  -999.250000 55.746181488 18.072830200 17.949909210 17.363500595 17.319719315 17.364389420 0.7768300176 2.6538200378 2.5870900154 0.0408828333 2.5928359032 0.1772899926
 918.21000000 67.209770203  -999.250000 58.224819183 18.910539627 18.654319763 18.161270142 17.476440430 17.529729843 0.7768700123 2.6201000214 2.5927290916 0.0318045579 2.5927290916 0.1867199987
 918.36240000 67.109184265  -999.250000 57.873611450 19.825120926 18.969869614 19.146209717 18.223930359 18.290479660 0.7769200206 2.6059300900 2.6117699146 0.0212185401 2.6117699146 0.1694899946
 918.51480000 67.115646362  -999.250000 56.057079315 19.993289948 19.696109772 19.178310394 18.378810883 18.452669144 0.7768700123 2.6219201088 2.6061670780 0.0048401398 2.6061670780 0.1654299945
 918.66720000 66.695541382  -999.250000 55.800659180 22.648269653 22.521259308 21.771949768 20.308420181 20.409030914 0.7768300176 2.6878900528 2.6020648479 -0.001506330 2.6020648479 0.1674499959
 918.81960000 66.371940613  -999.250000 54.661350250 25.870870590 24.898839951 23.678260803 23.924570084 24.076789856 0.7767999768 2.7403700352 2.6033067703 -0.004006390 2.6033067703 0.1551000029
 918.97200000 65.840362549  -999.250000 55.704860687 33.890388489 32.733730316 33.893280029 33.409191132 33.694679260 0.7767800093 2.8163900375 2.6149971485 -0.004094600 2.6149971485 0.1654099971
 919.12440000 65.505813599  -999.250000 56.030681610 34.032199860 35.274681091 33.068431854 33.310070038 33.598720551 0.7767999768 2.8104701042 2.6327857971 -0.001366140 2.6194181442 0.1557299942
 919.27680000 65.296844482  -999.250000 54.479640961 29.569650650 28.060279846 27.842029572 28.732669830 28.982599258 0.7768200040 2.8591198921 2.6238391399 -0.002304320 2.6238391399 0.1645099968
 919.42920000 65.107719421  -999.250000 53.539928436 28.419029236 25.227060318 24.659030914 24.313650131 24.522600174 0.7768300176 2.8863999844 2.6277289391 -0.002699610 2.6277289391 0.1525100023
 919.58160000 64.831695557  -999.250000 49.078140259 26.153009415 25.713909149 24.322370529 22.605480194 22.798309326 0.7768399715 3.0600299835 2.6343219280 -0.007921220 2.6294336319 0.1500699967
 919.73400000 64.740158081  -999.250000 49.051139832 30.941719055 31.154499054 32.202529907 30.346630096 30.545749664 0.7761700153 3.2823600769 2.6432728767 -0.006086590 2.6311385632 0.1460399926
 919.88640000 64.629821777  -999.250000 49.355968475 18.271299362 17.225360870 16.269260406 15.601309776 15.692099571 0.7755100131 3.4809799194 2.6424479485 -0.003989700 2.6279551983 0.1424999982
 920.03880000 64.758720398  -999.250000 55.005821228 25.419349670 26.518100739 26.787570953 24.512269974 24.730739594 0.7751100063 3.5025000572 2.6363849640 -0.000333550 2.6247718334 0.1456400007
 920.19120000 64.750465393  -999.250000 58.236980438 26.845590591 26.228530884 25.120840073 23.897220612 24.113840103 0.7747099996 3.3120300770 2.6377439499 0.0002555800 2.6215887070 0.1587399989
 920.34360000 65.021186829  -999.250000 53.823471069 23.483900070 24.577789307 24.012369156 23.848480225 24.065639496 0.7745100260 3.0829501152 2.6355040073 0.0001783400 2.6184053421 0.1702499986
 920.49600000 64.986137390  -999.250000 53.299701691 30.602560043 23.571670532 26.349269867 25.590860367 25.844390869 0.7743200064 2.9529800415 2.6152219772 -0.001490120 2.6152219772 0.1641699970
 920.64840000 65.006340027  -999.250000 52.384780884 23.221549988 27.920070648 22.788169861 21.827369690 22.033739090 0.7741900086 2.9383199215 2.5961980820 -0.006371020 2.5961980820 0.1815200001
 920.80080000 65.128868103  -999.250000 55.500610352 24.993099213 26.125310898 25.049270630 24.533739090 24.774950027 0.7740600109 2.9254601002 2.5890691280 -0.008910890 2.5890691280 0.1756100059
 920.95320000 65.232963562  -999.250000 52.384670258 27.439449310 26.070150375 25.651689529 25.466419220 25.725299835 0.7734699845 2.9037499428 2.5900931358 -0.009539840 2.5900931358 0.1742500067
 921.10560000 65.656173706  -999.250000 53.056831360 25.798570633 25.404560089 25.405279160 25.529979706 25.780939102 0.7728800178 2.8635098934 2.5929188728 -0.009220840 2.5929188728 0.1766999960
 921.25800000 65.710884094  -999.250000 53.594318390 24.604150772 23.105850220 23.105550766 23.435110092 23.645280838 0.7724199891 2.8367400169 2.5856559277 -0.008110520 2.5929620266 0.1851499975
 921.41040000 66.392051697  -999.250000 55.868370056 21.898309708 20.618040085 20.642669678 21.506780624 21.664939880 0.7719699740 2.8025999069 2.5846722126 0.0054831500 2.5930054188 0.1662999988
 921.56280000 67.045852661  -999.250000 54.281940460 16.589580536 16.696380615 16.520149231 17.090570450 17.197849274 0.7720800042 2.8315498829 2.5867400169 0.0396361388 2.5930485725 0.1910499930
 921.71520000 66.940086365  -999.250000 54.182800293 13.833049774 14.033630371 13.904729843 14.237879753 14.309169769 0.7721899748 2.8966898918 2.5878491402 0.0789427832 2.5930919647 0.1939499974
 921.86760000 67.393539429  -999.250000 47.821929932 13.103420258 13.639849663 13.010410309 13.219300270 13.276160240 0.7722899914 2.9730999470 2.5931351185 0.1163704023 2.5931351185 0.1823800057
 922.02000000 67.716468811  -999.250000 46.785629272 14.079230309 14.487970352 14.017709732 14.039899826 14.100790024 0.7723900080 3.0006000996 2.5968339443 0.1237142012 2.5968339443 0.1943199933
 922.17240000 67.637680054  -999.250000 49.999279022 14.886850357 15.339139938 15.165180206 14.879079819 14.945679665 0.7730399966 3.0107500553 2.6131629944 0.1200230047 2.6131629944 0.1932200044
 922.32480000 67.593391418  -999.250000 55.231319427 18.095310211 17.974859238 18.000360489 17.335279465 17.420789719 0.7736999989 3.0197000504 2.6184818745 0.0957553387 2.6184818745 0.1848399937
 922.47720000 67.433677673  -999.250000 61.890460968 22.396589279 22.243560791 22.292240143 21.843919754 21.941129684 0.7743499875 3.0582399368 2.6262881756 0.0698401853 2.6262881756 0.1753900051
 922.62960000 67.208488464  -999.250000 66.759826660 25.634260178 24.999889374 24.464889526 24.666330338 24.841930389 0.7750099897 3.0814299583 2.6166729927 0.0406732596 2.6166729927 0.1993699968
 922.78200000 66.900642395  -999.250000 66.968681335 25.184989929 25.921730042 26.114509583 26.773099899 27.046390533 0.7749000192 3.0507299900 2.6135358810 0.0173833407 2.6135358810 0.2166199982
 922.93440000 66.087860107  -999.250000 57.398239136 22.695020676 23.989900589 24.511690140 24.384199142 24.726030350 0.7747899890 2.9935300350 2.5992980003 0.0022542500 2.5992980003 0.1855800003
 923.08680000 65.687568665  -999.250000 51.359180450 21.492919922 23.348310471 23.258819580 22.758739471 23.184980392 0.7746499777 2.9295001030 2.5824019909 -0.004910470 2.5940756798 0.1784300059
 923.23920000 64.860893250  -999.250000 49.205211639 23.185909271 23.329650879 23.145109177 22.509689331 22.692089081 0.7745100260 2.9211599827 2.5754351616 0.0130917998 2.5888533592 0.1830600053
 923.39160000 65.826774597  -999.250000 53.007408142 22.993169785 24.707540512 22.942510605 22.912889481 23.011119843 0.7749800086 2.9608600140 2.5953049660 0.0544476509 2.5953049660 0.1842299998
 923.54400000 66.381202698  -999.250000 55.929790497 21.645290375 22.945110321 21.994039536 22.781719208 22.667970657 0.7754600048 3.0688800812 2.6252570152 0.1088955030 2.6252570152 0.1972000003
 923.69640000 66.819595337  -999.250000 66.206886292 25.351539612 25.422750473 25.485359192 25.081800461 25.030780792 0.7761700153 3.1658799648 2.6054008007 0.1512792110 2.6054008007 0.1630699933
