# LAS format log file from PETREL
# Project units are specified as depth units
#==================================================================
~Version information
VERS.   2.0:
WRAP.   NO:
#==================================================================
~Well
STRT .m      -0.914400000 :
STOP .m      1533.4488000 :
STEP .m     0.15240000 :
NULL .        -999.250000 :
COMP.           : COMPANY
WELL.  P-140   : WELL
FLD.            : FIELD
LOC.            : LOCATION
SRVC.           : SERVICE COMPANY
DATE.  2015-12-30 13:54:20   : Log Export Date {yyyy-MM-dd HH:mm:ss}
PROV.           : PROVINCE
UWI.      : UNIQUE WELL ID
API.            : API NUMBER
#==================================================================
~Curve
DEPT .m                   : DEPTH
DT .us/ft                 : DT
DTS .us/ft                : DTS
GR .gAPI                  : GR
AF10 .ohm.m               : AF10
AF20 .ohm.m               : AF20
AF30 .ohm.m               : AF30
AF60 .ohm.m               : AF60
AF90 .ohm.m               : AF90
AMF .ohm.m                : AMF
PEF .b/e                  : PEF
RHOB .g/cm3               : RHOB
HDRA .g/cm3               : HDRA
RHOB_despiked .g/cm3      : RHOB_despiked
NPHI_SAN .m3/m3           : NPHI_SAN
~Parameter
#==================================================================
~Ascii
# ...
 5.3340000000  -999.250000  -999.250000 22.205669403  -999.250000  -999.250000  -999.250000  -999.250000  -999.250000  -999.250000 10.000000000 2.1742188931 0.0228056908 2.1742188931 0.8760200143
 5.4864000000  -999.250000  -999.250000 26.359849930  -999.250000  -999.250000  -999.250000  -999.250000  -999.250000  -999.250000 10.000000000 2.1742188931 0.0228056908 2.1742188931 0.7507200241
 5.6388000000  -999.250000  -999.250000 33.792831421  -999.250000  -999.250000  -999.250000  -999.250000  -999.250000  -999.250000 10.000000000 2.1742188931 0.0228056908 2.1742188931 0.7357500196
 5.7912000000  -999.250000  -999.250000 61.393249512  -999.250000  -999.250000  -999.250000  -999.250000  -999.250000  -999.250000 10.000000000 2.1742188931 0.0228056908 2.1742188931 0.7848100066
 5.9436000000  -999.250000  -999.250000 105.59030151  -999.250000  -999.250000  -999.250000  -999.250000  -999.250000  -999.250000 10.000000000 2.1742188931 0.0228056908 2.1742188931 0.7002000213
 6.0960000000  -999.250000  -999.250000 127.55130005  -999.250000  -999.250000  -999.250000  -999.250000  -999.250000  -999.250000 10.000000000 2.1742188931 0.0228056908 2.1742188931 0.7123699784
 6.2484000000  -999.250000  -999.250000 108.23339844  -999.250000  -999.250000  -999.250000  -999.250000  -999.250000  -999.250000 10.000000000 2.1742188931 0.0228056908 2.1742188931 0.6717799902
 6.4008000000  -999.250000  -999.250000 66.138420105  -999.250000  -999.250000  -999.250000  -999.250000  -999.250000  -999.250000 10.000000000 2.1885161400 0.0177245103 2.1885161400 0.6917999983
 6.5532000000  -999.250000  -999.250000 43.989521027  -999.250000  -999.250000  -999.250000  -999.250000  -999.250000  -999.250000 10.000000000 2.2529580593 0.0282213707 2.2529580593 0.6545900106
 6.7056000000  -999.250000  -999.250000 40.111930847  -999.250000  -999.250000  -999.250000  -999.250000  -999.250000  -999.250000 10.000000000 2.3065528870 0.0494864024 2.3065528870 0.6340600252
 6.8580000000  -999.250000  -999.250000 38.202060699  -999.250000  -999.250000  -999.250000  -999.250000  -999.250000  -999.250000 10.000000000 2.3373448849 0.0671765804 2.3373448849 0.6028299928
 7.0104000000  -999.250000  -999.250000 34.041469574  -999.250000  -999.250000  -999.250000  -999.250000  -999.250000  -999.250000 10.000000000 2.3568558693 0.0813562945 2.3568558693 0.5417900085
 7.1628000000  -999.250000  -999.250000 32.704608917  -999.250000  -999.250000  -999.250000  -999.250000  -999.250000  -999.250000 10.000000000 2.3633468151 0.0858938694 2.3633468151 0.5343800187
 7.3152000000  -999.250000  -999.250000 34.165798187  -999.250000  -999.250000  -999.250000  -999.250000  -999.250000  -999.250000 10.000000000 2.3649950027 0.0889649466 2.3649950027 0.5429000258
 7.4676000000  -999.250000  -999.250000 34.628410339  -999.250000  -999.250000  -999.250000  -999.250000  -999.250000  -999.250000 10.000000000 2.3634099960 0.0941717625 2.3634099960 0.4937500060
 7.6200000000  -999.250000  -999.250000 33.965579987  -999.250000  -999.250000  -999.250000  -999.250000  -999.250000  -999.250000 10.000000000 2.3627538681 0.1019168049 2.3627538681 0.4976400137
 7.7724000000  -999.250000  -999.250000 33.884281158  -999.250000  -999.250000  -999.250000  -999.250000  -999.250000  -999.250000 10.000000000 2.3684442043 0.1147858948 2.3684442043 0.5100399852
 7.9248000000  -999.250000  -999.250000 34.687831879  -999.250000  -999.250000  -999.250000  -999.250000  -999.250000  -999.250000 10.000000000 2.3728549480 0.1265394986 2.3728549480 0.4925799966
 8.0772000000  -999.250000  -999.250000 35.730651855  -999.250000  -999.250000  -999.250000  -999.250000  -999.250000  -999.250000 10.000000000 2.3762228489 0.1356749982 2.3762228489 0.4958499968
 8.2296000000  -999.250000  -999.250000 35.492919922  -999.250000  -999.250000  -999.250000  -999.250000  -999.250000  -999.250000 10.000000000 2.3787350655 0.1397368908 2.3787350655 0.5253400207
 8.3820000000  -999.250000  -999.250000 35.952091217 9.7382001877 13.933529854 18.208459854 30.096790314 33.197299957  -999.250000 10.000000000 2.3766980171 0.1386682987 2.3766980171 0.5628499985
 8.5344000000  -999.250000  -999.250000 36.454540253 9.7382001877 13.933529854 18.208459854 30.096790314 33.197299957  -999.250000 10.000000000 2.3782548904 0.1378869861 2.3782548904 0.5772799850
 8.6868000000  -999.250000  -999.250000 37.345249176 9.7382001877 13.933529854 18.208459854 30.096790314 33.197299957  -999.250000 10.000000000 2.3784818649 0.1370034069 2.3784818649 0.5248900056
 8.8392000000  -999.250000  -999.250000 37.574409485 9.7382001877 13.933529854 18.208459854 30.096790314 33.197299957  -999.250000 10.000000000 2.3794250488 0.1367364079 2.3794250488 0.5258200169
 8.9916000000  -999.250000  -999.250000 38.503868103 9.7382001877 13.933529854 18.208459854 30.096790314 33.197299957  -999.250000 10.000000000 2.3730800152 0.1339674145 2.3730800152 0.5734800100
 9.1440000000  -999.250000  -999.250000 38.105560303 9.7382001877 13.933529854 18.208459854 30.096790314 33.197299957  -999.250000 10.000000000 2.3647880554 0.1314896941 2.3647880554 0.5700799823
 9.2964000000  -999.250000  -999.250000 39.167690277 9.7382001877 13.933529854 18.208459854 30.096790314 33.197299957  -999.250000 10.000000000 2.3593311310 0.1305740029 2.3593311310 0.5552600026
 9.4488000000  -999.250000  -999.250000 37.983119965 9.7382001877 13.933529854 18.208459854 30.096790314 33.197299957  -999.250000 10.000000000 2.3624751568 0.1324031055 2.3624751568 0.5415800214
 9.6012000000  -999.250000  -999.250000 39.555091858 9.7382001877 13.933529854 18.208459854 30.096790314 33.197299957  -999.250000 10.000000000 2.3707759380 0.1345240921 2.3707759380 0.5414199829
 9.7536000000  -999.250000  -999.250000 37.431339264 9.7382001877 13.933529854 18.208459854 30.096790314 33.197299957  -999.250000 10.000000000 2.3772280216 0.1360532939 2.3772280216 0.5225399733
 9.9060000000  -999.250000  -999.250000 36.718040466 9.7382001877 13.933529854 18.208459854 30.096790314 33.197299957  -999.250000 10.000000000 2.3814718723 0.1389050037 2.3814718723 0.5481799841
 10.058400000  -999.250000  -999.250000 34.017448425 9.7382001877 13.933529854 18.208459854 30.096790314 33.197299957  -999.250000 10.000000000 2.3813941479 0.1416132897 2.3813941479 0.5246300101
 10.210800000  -999.250000  -999.250000 31.126029968 9.7382001877 13.933529854 18.208459854 30.096790314 33.197299957  -999.250000 10.000000000 2.3805348873 0.1440653950 2.3805348873 0.5195800066
 10.363200000  -999.250000  -999.250000 31.406330109 9.7382001877 13.933529854 18.208459854 30.096790314 33.197299957  -999.250000 10.000000000 2.3737370968 0.1433016956 2.3737370968 0.5279399753
 10.515600000  -999.250000  -999.250000 30.936019897 9.7382001877 13.933529854 18.208459854 30.096790314 33.197299957  -999.250000 10.000000000 2.3709130287 0.1437494904 2.3709130287 0.5069900155
 10.668000000  -999.250000  -999.250000 34.140689850 9.7382001877 13.933529854 18.208459854 30.096790314 33.197299957  -999.250000 10.000000000 2.3733980656 0.1471392959 2.3733980656 0.4855900109
 10.820400000  -999.250000  -999.250000 35.010330200 9.7382001877 13.933529854 18.208459854 30.096790314 33.197299957  -999.250000 10.000000000 2.3759131432 0.1510937065 2.3759131432 0.4812900126
 10.972800000  -999.250000  -999.250000 37.475818634 9.7382001877 13.933529854 18.208459854 30.096790314 33.197299957  -999.250000 10.000000000 2.3753499985 0.1557158977 2.3753499985 0.4899600148
 11.125200000  -999.250000  -999.250000 38.599758148 9.7382001877 13.933529854 18.208459854 30.096790314 33.197299957 0.9020299911 10.000000000 2.3827309608 0.1638448089 2.3827309608 0.4955300093
 11.277600000  -999.250000  -999.250000 39.848571777 9.7382001877 13.933529854 18.208459854 30.096790314 33.197299957 0.9001200199 10.000000000 2.3945610523 0.1700613946 2.3945610523 0.5158900023
 11.430000000  -999.250000  -999.250000 40.337459564 9.7382001877 13.933529854 18.208459854 30.096790314 33.197299957 0.9003800154 10.000000000 2.4080061913 0.1698663086 2.4080061913 0.4785000086
