~Version information
VERS.   2.0:
WRAP.   NO:
#==================================================================
~Well
STRT .m      3.0480000000 :
STOP .m      1342.0344000 :
STEP .m     0.15240000 :
NULL .        -999.250000 :
COMP.      			UNKNOWN                    : Company
WELL.data          MURPHY_et_al_BIRCH_GROVE_1  : Well Name
FLD . 				SSSB                       : Field
LOC . 				46-145 059-935	           : Location
CNTY.                                          : County
PROV. 				NS                         : Province
CTRY.				CAN                        : Country
UWI . 				4004614505993500           : Unique Well ID
DATE. 				1968-05-16                 : Log Date(s)
SON .                                          : Service Order No(s)
LIC . 				P-84                       : License No
~Parameter Information
#MNEM.UNIT       DATA                           : DESCRIPTION
#----.----       ---------                      : -----------
EKB .M            49.7400                      : Elevation Kelly Bushing
EGL .M            46.4500                      : Elevation Ground Level
DREF.M                 KB                      : Depth Reference
EREF.M            49.7400                      : Elevation of Depth Reference
DIGS.          QCDATA                          : Digitizing Company
SRVC. UNKNOWN OPERATOR-ADDRESS USED BY FIELD S : Service Company
RUN .                   1                      : Run Number
TDL .M          1342.9488                      : Total Depth, Logger
TDD .M          1343.5584                      : Total Depth, Driller
BOTL.M          1341.7296                      : Bottom of Logged Interval
TOPL.M           191.1096                      : Top of Logged Interval
CSGL.M           191.1096                      : Casing Bottom, Logger
CSGD.M           191.7192                      : Casing Bottom, Driller
CSGS.IN           10.7500                      : Casing Size (diameter)
CSGW.                                          : Casing Weight
BS  .MM              7.88                      : Bit Size
MUD .            GEL CHEM                      : API Mud Type
MUDD.KG/M3          11.00                      : Mud Density
MUDV.               75.00                      : Mud Viscosity
FL  .C3            8.0000                      : Fluid Loss
PH  .             11.5000                      : Mud Ph
MUDS.                CIRC                      : Mud Sample Location
RM  .OHM/M          1.300                      : Mud Resistivity
RMT .degF           60.00                      : Mud Temperature
RMF .OHM/M          1.100                      : Mud Filtrate Resistivity
RMFT.DEGC           60.00                      : Mud Filtrate Temperature
RMC .               1.500                      : Mud Cake Resistivity
RMCT.DEGC           60.00                      : Mud Cake Temperature
RW  .OHM/M                                     : Water Resistivity
RWT .DEGC                                      : Water Temperature
TMAX.DEGC          120.00                      : Max Temperature
TIMC.                 6.0                      : Hours Since Circ. Stopped
TIML.                                          : Date/Time Logger on Bottom
UNIT.                                          : Unit Number 
BASE.                                          : Logging Unit Home Base
ENG .                                          : Recording Engineer
WIT .                                          : Witnessed By
~Curve Information
# MNEM  .UNIT        API CODE   : Curve Description
#-----  .----      ------------ : -------------------
DEPT   .M      00 001 00 00 : 1 DEPTH
CALI .in       42 280 01 00 : 5 Density Caliper
DT .us/ft      61 520 32 00 : 7 Delta-T Compressional
RES .ohm.m     05 040 16 00 : 3 Resistivity (unspecified)
ILD .ohm.m     05 060 64 00 : 4 Induction Deep Resistivity
RHOB .g/cm3    42 350 01 00 : 6 Bulk Density
GR .gAPI       61 310 01 00 : 8 GAMMA RAY LOG FROM FDC A_0 CNL
SP .MV         05 010 01 00 : 2 Spontaneous Potential 
#==================================================================
~Ascii
# ...
 953.56680000 11.424601555 82.920776367 31.445499420 21.041799545 2.4905810356 90.000000000 -47.94639969
 953.71920000 11.124814987 91.580818176 31.358900070 21.491600037 2.5940909386 81.504997253 -51.04919815
 953.87160000 10.678842545 80.247528076 31.321800232 22.791500092 2.6218523979 74.495002747 -53.27019882
 954.02400000 10.404247284 63.190010071 31.136100769 23.398300171 2.6208605766 60.475200653 -54.60270309
 954.17640000 10.354850769 99.881195068 30.841600418 23.453100204 2.6153082848 50.693901062 -56.07730103
 954.32880000 10.064862251 56.509368896 30.643600464 23.158300400 2.6252231598 52.530601501 -57.39279938
 954.48120000 9.8353538513 54.613853455 30.395999908 21.474700928 2.6258180141 58.653099060 -58.25819778
 954.63360000 9.7873744965 47.187030792 30.395999908 20.393800735 2.6218523979 56.571399689 -58.22449875
 954.78600000 9.7575750351 39.821784973 30.643600464 20.000000000 2.6416814327 53.974899292 -58.21780014
 954.93840000 9.7676773071 53.069309235 30.990100861 20.197999954 2.6474320889 51.373401642 -58.21780014
 955.09080000 9.7575750351 66.459991455 31.336599350 20.643600464 2.6690461636 48.894401550 -58.06930161
 955.24320000 9.7575750351 66.640014648 31.633699417 20.990100861 2.6989886761 45.217399597 -57.17819977
 955.39560000 9.7474756241 67.089981079 32.029701233 21.435600281 2.6894705296 46.545501709 -56.27980042
 955.54800000 9.6666650772 67.029998779 32.425701141 21.732700348 2.6690461636 43.515201569 -55.67380142
 955.70040000 9.6060590744 66.582893372 32.871299744 22.227699280 2.6785643101 41.212100983 -55.51350021
 955.85280000 9.5555553436 66.078811646 33.217800140 22.574300766 2.6900653839 43.030300140 -55.95199966
 956.00520000 9.5050516129 65.752464294 33.811901093 23.069299698 2.6839182377 48.709201813 -55.50000000
 956.15760000 9.4646453857 65.752464294 34.505001068 23.514900208 2.6740036011 51.006301880 -55.04999924
 956.31000000 9.4444456100 65.930709839 35.147098541 24.455400467 2.6644856930 52.936199188 -55.20000076
 956.46240000 9.4949493408 66.019798279 35.784301758 25.049499512 2.6630973816 53.883899689 -55.20000076
 956.61480000 9.5060749054 66.410827637 36.473499298 26.049499512 2.6529843807 55.819999695 -55.17959976
 956.76720000 9.4671297073 66.118499756 37.018798828 26.705400467 2.6480269432 58.239299774 -54.55699921
 956.91960000 9.4282407761 65.435531616 37.418800354 27.014900208 2.6494150162 61.590900421 -54.38430023
 957.07200000 9.3896846771 64.659629822 37.573299408 26.928199768 2.6609160900 66.122200012 -54.36110306
 957.22440000 9.3506851196 64.419998169 37.628700256 26.683200836 2.6684513092 70.418998718 -54.64290237
 957.37680000 9.3214092255 64.870002747 37.585201263 26.633699417 2.6615109444 76.362701416 -55.22629929
 957.52920000 9.2920665741 64.480010986 37.443599701 26.534700394 2.6545705795 83.401802063 -55.66300201
 957.68160000 9.2725944519 65.139991760 37.449699402 26.485099792 2.6484236717 86.971603394 -55.80210114
 957.83400000 9.2626256943 80.235282898 37.548999786 26.336599350 2.6381123066 81.839996338 -56.54999924
 957.98640000 9.2525234222 88.780006409 37.597999573 26.386100769 2.6258180141 77.760002136 -57.30000305
 958.13880000 9.2525234222 79.617630005 37.548999786 26.782199860 2.6307752132 75.839996338 -57.45000076
 958.29120000 9.2626256943 62.633655548 37.303901672 27.178199768 2.6331548691 75.360000610 -56.54999924
 958.44360000 9.2727289200 57.549987793 36.813701630 27.524799347 2.6341464520 72.000000000 -55.79999924
 958.59600000 9.2828264236 63.287120819 36.274501801 27.574300766 2.6317667961 68.435600281 -55.64999771
 958.74840000 9.2828264236 63.732673645 35.686298370 27.128700256 2.6232402325 64.871299744 -55.64999771
 958.90080000 9.3030309677 63.910888672 35.196098328 26.633699417 2.6129288673 61.901000977 -55.50000000
 959.05320000 9.3232326508 64.600013733 34.801998138 26.039600372 2.6123340130 58.787899017 -55.20000076
 959.20560000 9.3535346985 65.139991760 34.405899048 25.891099930 2.6218523979 55.151500702 -55.20000076
 959.35800000 9.3636379242 65.139991760 33.960399628 25.742599487 2.6153082848 54.787899017 -55.64999771
 959.51040000 9.3838386536 65.139991760 33.663398743 25.594100952 2.6258180141 56.606098175 -55.79999924
 959.66280000 9.3939409256 65.325675964 33.465301514 25.297000885 2.6301803589 55.005298615 -55.65870285
 959.81520000 9.4343423843 65.813789368 33.267299652 25.197999954 2.6198692322 56.795200348 -54.92280197
 959.96760000 9.4848470688 65.911262512 33.168300629 24.950000763 2.6123340130 60.633899689 -54.63750076
 960.12000000 9.5252523422 65.858779907 33.118801117 24.850000381 2.6069800854 59.157798767 -54.65079880
 960.27240000 9.5555553436 65.800010681 33.069301605 24.700599670 2.6119372845 58.158100128 -54.64270020
 960.42480000 9.5656576157 65.800010681 33.069301605 24.353000641 2.6063849926 61.505599976 -54.62909698
 960.57720000 9.5656576157 65.769989014 33.168300629 24.106199265 2.6083679199 60.875801086 -54.46600342
 960.72960000 9.5656576157 65.889991760 33.366298676 23.959800720 2.6083679199 62.285400391 -54.45329666
 960.88200000 9.5656576157 66.099990845 33.712898254 24.059400558 2.6030139923 62.255401611 -54.15000153
 961.03440000 9.5656576157 66.249984741 34.306900024 24.257400513 2.5974619389 61.745601654 -54.00000000
 961.18680000 9.5656576157 66.040008545 34.901000977 24.702999115 2.5994448662 62.915298462 -53.55000305
 961.33920000 9.5656576157 65.800010681 35.392200470 25.197999954 2.5964703560 63.965000153 -53.25000000
 961.49160000 9.5656576157 65.649986267 35.882400513 25.841600418 2.5905215740 62.375400543 -52.79999924
 961.64400000 9.5656576157 65.649986267 36.617599487 26.287099838 2.5944871902 64.025001526 -52.65000153
 961.79640000 9.5757598877 65.619995117 37.402000427 26.930700302 2.6024191380 60.515899658 -52.20000076
 961.94880000 9.5656576157 65.409988403 38.088199615 27.326700211 2.6010310650 59.400299072 -51.29999924
 962.10120000 9.5656576157 65.139991760 39.019599915 27.821800232 2.6093595028 59.248901367 -50.54999924
 962.25360000 9.5757598877 64.900001526 40.000000000 28.267299652 2.6083679199 61.025699615 -50.40000153
 962.40600000 9.5757598877 64.540000916 41.138599396 28.811899185 2.5954787731 62.915298462 -50.40000153
 962.55840000 9.5757598877 63.316837311 42.524799347 29.405899048 2.5909183025 62.645301819 -49.79999924
 962.71080000 9.5757598877 59.229984283 44.061298370 31.739099503 2.5740630627 64.415496826 -48.75000000
 962.86320000 9.5858583450 55.616764069 45.891101837 35.049198151 2.5429308414 61.506999969 -47.70000076
 963.01560000 9.5858583450 62.166397095 52.000000000 41.656600952 2.5110054016 61.594699860 -47.09999847
 963.16800000 9.5858583450 59.860008240 54.000000000 57.000000000 2.4901843071 58.915298462 -46.04999924
 963.32040000 9.5940237045 64.059997559 57.000000000 71.000000000 2.4763038158 61.224899292 -45.29999924
 963.47280000 9.6116685867 64.000015259 58.500000000 76.500000000 2.4499306679 63.173099518 -43.96039963
 963.62520000 9.6192207336 64.299995422 58.500000000 71.000000000 2.4108664989 66.444702148 -42.47520065
 963.77760000 9.5964689255 62.454677582 58.500000000 61.500000000 2.3559389114 66.832496643 -41.43560028
 963.93000000 9.5635824203 60.249996185 58.500000000 51.500000000 2.3077533245 63.985000610 -40.09899902
 964.08240000 9.5104885101 58.359992981 58.000000000 39.754901886 2.2659130096 59.690799713 -38.61389923
 964.23480000 9.4980592728 55.424251556 57.500000000 35.784301758 2.2236764431 60.684200287 -36.83169937
 964.38720000 9.5257711411 52.861370087 57.500000000 33.366298676 2.1479277611 63.354801178 -35.49500275
 964.53960000 9.6666650772 51.881195068 55.000000000 30.940599442 2.0406503677 64.822502136 -34.73130035
 964.69200000 10.142857552 55.696956635 52.500000000 30.693099976 2.0380725861 67.493400574 -34.40750122
 964.84440000 11.485149384 67.530632019 48.762401581 31.831699371 2.2163395882 70.283897400 -34.23149872
 964.99680000 12.950963974 84.940597534 48.613899231 37.402000427 2.3757684231 75.679702759 -33.90479660
 965.14920000 12.861102104 81.882354736 48.316799164 55.000000000 2.4544913769 81.523300171 -33.59999847
