~Version information
VERS.   2.0:
WRAP.   NO:
#==================================================================
~Well
STRT .m      3.0480000000 :
STOP .m      1342.0344000 :
STEP .m     0.15240000 :
NULL .        -999.250000 :
COMP.      			UNKNOWN                    : Company
WELL.data          MURPHY_et_al_BIRCH_GROVE_1  : Well Name
FLD . 				SSSB                       : Field
LOC . 				46-145 059-935	           : Location
CNTY.                                          : County
PROV. 				NS                         : Province
CTRY.				CAN                        : Country
UWI . 				4004614505993500           : Unique Well ID
DATE. 				1968-05-16                 : Log Date(s)
SON .                                          : Service Order No(s)
LIC . 				P-84                       : License No
~Parameter Information
#MNEM.UNIT       DATA                           : DESCRIPTION
#----.----       ---------                      : -----------
EKB .M            49.7400                      : Elevation Kelly Bushing
EGL .M            46.4500                      : Elevation Ground Level
DREF.M                 KB                      : Depth Reference
EREF.M            49.7400                      : Elevation of Depth Reference
DIGS.          QCDATA                          : Digitizing Company
SRVC. UNKNOWN OPERATOR-ADDRESS USED BY FIELD S : Service Company
RUN .                   1                      : Run Number
TDL .M          1342.9488                      : Total Depth, Logger
TDD .M          1343.5584                      : Total Depth, Driller
BOTL.M          1341.7296                      : Bottom of Logged Interval
TOPL.M           191.1096                      : Top of Logged Interval
CSGL.M           191.1096                      : Casing Bottom, Logger
CSGD.M           191.7192                      : Casing Bottom, Driller
CSGS.IN           10.7500                      : Casing Size (diameter)
CSGW.                                          : Casing Weight
BS  .MM              7.88                      : Bit Size
MUD .            GEL CHEM                      : API Mud Type
MUDD.KG/M3          11.00                      : Mud Density
MUDV.               75.00                      : Mud Viscosity
FL  .C3            8.0000                      : Fluid Loss
PH  .             11.5000                      : Mud Ph
MUDS.                CIRC                      : Mud Sample Location
RM  .OHM/M          1.300                      : Mud Resistivity
RMT .degF           60.00                      : Mud Temperature
RMF .OHM/M          1.100                      : Mud Filtrate Resistivity
RMFT.DEGC           60.00                      : Mud Filtrate Temperature
RMC .               1.500                      : Mud Cake Resistivity
RMCT.DEGC           60.00                      : Mud Cake Temperature
RW  .OHM/M                                     : Water Resistivity
RWT .DEGC                                      : Water Temperature
TMAX.DEGC          120.00                      : Max Temperature
TIMC.                 6.0                      : Hours Since Circ. Stopped
TIML.                                          : Date/Time Logger on Bottom
UNIT.                                          : Unit Number 
BASE.                                          : Logging Unit Home Base
ENG .                                          : Recording Engineer
WIT .                                          : Witnessed By
~Curve Information
# MNEM  .UNIT        API CODE   : Curve Description
#-----  .----      ------------ : -------------------
DEPT   .M      00 001 00 00 : 1 DEPTH
CALI .in       42 280 01 00 : 5 Density Caliper
DT .us/ft      61 520 32 00 : 7 Delta-T Compressional
RES .ohm.m     05 040 16 00 : 3 Resistivity (unspecified)
ILD .ohm.m     05 060 64 00 : 4 Induction Deep Resistivity
RHOB .g/cm3    42 350 01 00 : 6 Bulk Density
GR .gAPI       61 310 01 00 : 8 GAMMA RAY LOG FROM FDC A_0 CNL
SP .MV         05 010 01 00 : 2 Spontaneous Potential 
#==================================================================
~Ascii
# ...
 495.90960000 11.809999466 64.239982605 38.284301758 29.900999069 2.6615109444 41.479400635 -47.07920074
 496.06200000 11.790000916 64.600013733 37.548999786 28.762399673 2.6555621624 38.075000763 -47.67330170
 496.21440000 11.770000458 64.990005493 36.813701630 28.217800140 2.6539754868 38.814701080 -47.97029877
 496.36680000 11.752038956 66.004196167 36.225498199 27.772300720 2.6551656723 36.513099670 -47.82740021
 496.51920000 11.734581947 67.466506958 35.784301758 27.524799347 2.6402933598 35.080799103 -47.38689804
 496.67160000 11.736878395 68.179008484 35.343101501 26.930700302 2.6412849426 34.864898682 -46.79460144
 496.82400000 11.779433250 67.241500854 34.901000977 26.287099838 2.6444575787 37.085399628 -46.04950333
 496.97640000 11.859999657 67.779991150 34.405899048 25.445499420 2.6400952339 39.643901825 -46.04999924
 497.12880000 11.909999847 66.909996033 33.910900116 25.148500443 2.6285941601 43.428001404 -45.60000229
 497.28120000 11.930000305 67.600006104 33.366298676 24.752500534 2.6194725037 47.231098175 -45.00000000
 497.43360000 11.940000534 67.150001526 33.366298676 24.604000092 2.6159031391 49.915298462 -44.55450058
 497.58600000 11.950000763 67.690010071 33.762401581 24.455400467 2.6184811592 48.119998932 -44.25740051
 497.73840000 11.969999313 68.769981384 34.207901001 24.653499603 2.6254212856 45.428600311 -44.10890198
 497.89080000 11.989999771 69.669998169 35.000000000 24.851499557 2.6174895763 44.693901062 -44.10890198
 498.04320000 12.019803047 68.979988098 35.841598511 25.841600418 2.6170930862 43.591800690 -44.10890198
 498.19560000 12.039602280 68.290016174 37.277198792 27.079200745 2.6309735775 42.378200531 -43.81189728
 498.34800000 12.059405327 68.560005188 38.514900208 28.514900208 2.6250247955 40.076801300 -42.62379837
 498.50040000 12.069307327 68.200004578 39.950500488 30.940599442 2.6295855045 43.014999390 -42.17819977
 498.65280000 12.079208374 67.960006714 41.336601257 33.366298676 2.6305770874 45.574501038 -41.58420181
 498.80520000 12.059405327 67.299995422 42.722801208 35.445499420 2.6420781612 48.599998474 -40.84160233
 498.95760000 12.039602280 66.699996948 44.207901001 37.326698303 2.6440610886 49.439998627 -39.65349960
 499.11000000 12.019803047 66.099990845 45.395999908 38.910900116 2.6440610886 48.959999084 -39.20790100
 499.26240000 12.009902000 65.500000000 46.336601257 40.742599487 2.6414833069 51.119998932 -39.05940247
 499.41480000 12.000000000 65.373931885 47.326698303 42.128700256 2.6389055252 55.334701538 -38.74940109
 499.56720000 11.990043640 65.336349487 47.920799255 43.069301605 2.6414833069 59.451499939 -38.28620148
 499.71960000 11.980137825 65.178794861 47.970298767 43.168300629 2.6450524330 61.513401031 -37.82070160
 499.87200000 11.970283508 64.811302185 48.019798279 42.722801208 2.6563553810 60.350700378 -37.80270004
 500.02440000 11.950496674 63.939876556 47.871299744 41.683200836 2.6724171638 57.701599121 -38.23279953
 500.17680000 11.930693626 64.299995422 47.623798370 40.297000885 2.6634938717 53.966800690 -38.06319809
 500.32920000 11.910889626 64.299995422 47.277198792 38.811901093 2.6664686203 49.889701843 -37.44760132
 500.48160000 11.910889626 64.750007629 47.029701233 37.475200653 2.6674597263 48.714401245 -36.38929749
 500.63400000 11.920791626 65.200012207 46.633701324 36.782199860 2.6755900383 48.599998474 -35.19799805
 500.78640000 11.950496674 65.950004578 46.584201813 37.029701233 2.6809442043 54.720001221 -33.71290207
 500.93880000 11.990098953 65.320014954 46.584201813 37.475200653 2.6759865284 60.959999084 -32.07920074
 501.09120000 12.010000229 64.809989929 46.534698486 37.920799255 2.6690461636 67.199996948 -30.89109993
 501.24360000 12.029999733 65.979995728 46.485099792 38.715400696 2.6690461636 72.119003296 -30.00000000
 501.39600000 12.060000420 68.530014038 46.336601257 38.570701599 2.6498115063 78.086898804 -29.39999962
 501.54840000 12.070000648 71.176467896 46.188098907 38.082599640 2.6393020153 84.202499390 -29.54999924
 501.70080000 12.070000648 70.000007629 46.039600372 37.792999268 2.6946263313 88.272796631 -29.85000038
 501.85320000 12.070000648 67.480010986 45.841598511 37.402000427 2.7148523331 87.326698303 -30.44549942
 502.00560000 12.070000648 67.510002136 45.148498535 37.205898285 2.7025580406 85.188102722 -31.03959846
 502.15800000 12.070000648 68.560005188 44.653499603 37.156898499 2.6876859665 83.639999390 -31.78219795
 502.31040000 12.119999886 70.852951050 44.009899139 36.862701416 2.6658735275 81.000000000 -33.11880112
 502.46280000 12.191645622 73.800399780 43.418998718 36.129600525 2.6714258194 77.532897949 -34.16659927
 502.61520000 12.263342857 78.202407837 42.930000305 35.689300537 2.6744000912 76.712799072 -35.37030029
 502.76760000 12.304881096 73.589965820 42.590999603 35.542999268 2.6944279671 73.990097046 -36.87879944
 502.92000000 12.286779404 66.821456909 41.959300995 35.791698456 2.6920483112 67.075202942 -38.54669952
 503.07240000 12.217822075 64.540000916 41.274501801 35.891101837 2.6755900383 59.758098602 -39.75000000
 503.22480000 12.168314934 65.440010071 40.588199615 35.693099976 2.6765813828 53.363098145 -40.35000229
 503.37720000 12.148515701 66.099990845 39.950500488 35.098999023 2.6769778728 51.694099426 -40.64999771
 503.52960000 12.138613701 66.699996948 39.455398560 34.215698242 2.6674597263 53.636001587 -41.09999847
 503.68200000 12.148515701 66.939994812 39.059398651 33.627498627 2.6630973816 55.319999695 -41.70000076
 503.83440000 12.168314934 67.089981079 38.861400604 33.529399872 2.6595280170 51.959999084 -41.70000076
 503.98680000 12.158416748 66.970016479 38.861400604 33.823501587 2.6654767990 49.080001831 -41.54999924
 504.13920000 12.118810654 67.419990540 38.861400604 34.509799957 2.6660721302 48.240001678 -41.70000076
 504.29160000 12.079208374 68.013984680 38.910900116 35.098999023 2.6585366726 46.812400818 -42.14999771
 504.44400000 12.069307327 68.246482849 38.811901093 35.198001862 2.6381123066 46.236801147 -42.59999847
 504.59640000 12.079208374 70.067634583 38.514900208 34.558799744 2.6410865784 47.115398407 -43.20000076
 504.74880000 12.118810654 72.736770630 38.168300629 33.529399872 2.6450524330 48.234100342 -43.65000153
 504.90120000 12.148515701 70.029418945 37.821800232 32.500000000 2.6327583790 49.319999695 -44.25000000
 505.05360000 12.148515701 64.569992065 37.524799347 30.784299850 2.6238350868 46.424198151 -44.55000305
 505.20600000 12.138613701 65.619995117 37.178199768 29.059400558 2.6168947220 48.479999542 -45.44550323
 505.35840000 12.138613701 67.539993286 37.178199768 27.524799347 2.6103510857 50.159999847 -46.48509979
 505.51080000 12.136905670 67.444007874 37.425701141 26.633699417 2.6030139923 47.757598877 -47.64830017
 505.66320000 12.124814034 66.356483459 37.722801208 25.792100906 2.5990481377 41.454498291 -48.21379852
 505.81560000 12.072783470 66.918991089 37.524799347 25.495100021 2.6024191380 36.606098175 -48.18680191
 505.96800000 12.060468674 67.451507568 37.326698303 26.138599396 2.6089627743 32.638301849 -48.15670013
 506.12040000 12.099999428 68.410011292 37.233299255 27.079200745 2.6143169403 34.316600800 -47.84439850
 506.27280000 12.159999847 69.219993591 37.240200043 28.366300583 2.6244299412 36.482700348 -46.49329758
 506.42520000 12.210000038 68.560005188 37.689498901 29.900999069 2.6379137039 38.407299042 -45.89369965
 506.57760000 12.259999275 67.330017090 38.087100983 31.632799149 2.6529843807 40.442199707 -45.14860153
 506.73000000 12.300000191 65.350006104 38.529399872 33.316799164 2.6682529449 44.392799377 -44.39999771
 506.88240000 12.269999504 65.230003357 38.970600128 34.851501465 2.6807456017 48.489799500 -44.10000229
 507.03480000 12.210000038 65.769989014 39.117599487 36.029399872 2.6747968197 50.816299438 -44.10000229
 507.18720000 12.159999847 66.400009155 39.264701843 36.372501373 2.6613128185 52.408199310 -44.10000229
 507.33960000 12.119999886 67.000007629 39.411800385 36.519599915 2.6553637981 53.020401001 -44.07180023
 507.49200000 12.079998970 67.000007629 39.705898285 36.666698456 2.6615109444 52.897998810 -44.18610001
