~Version information
VERS.   2.0:
WRAP.   NO:
#==================================================================
~Well
STRT .m      3.0480000000 :
STOP .m      1342.0344000 :
STEP .m     0.15240000 :
NULL .        -999.250000 :
COMP.      			UNKNOWN                    : Company
WELL.data          MURPHY_et_al_BIRCH_GROVE_1  : Well Name
FLD . 				SSSB                       : Field
LOC . 				46-145 059-935	           : Location
CNTY.                                          : County
PROV. 				NS                         : Province
CTRY.				CAN                        : Country
UWI . 				4004614505993500           : Unique Well ID
DATE. 				1968-05-16                 : Log Date(s)
SON .                                          : Service Order No(s)
LIC . 				P-84                       : License No
~Parameter Information
#MNEM.UNIT       DATA                           : DESCRIPTION
#----.----       ---------                      : -----------
EKB .M            49.7400                      : Elevation Kelly Bushing
EGL .M            46.4500                      : Elevation Ground Level
DREF.M                 KB                      : Depth Reference
EREF.M            49.7400                      : Elevation of Depth Reference
DIGS.          QCDATA                          : Digitizing Company
SRVC. UNKNOWN OPERATOR-ADDRESS USED BY FIELD S : Service Company
RUN .                   1                      : Run Number
TDL .M          1342.9488                      : Total Depth, Logger
TDD .M          1343.5584                      : Total Depth, Driller
BOTL.M          1341.7296                      : Bottom of Logged Interval
TOPL.M           191.1096                      : Top of Logged Interval
CSGL.M           191.1096                      : Casing Bottom, Logger
CSGD.M           191.7192                      : Casing Bottom, Driller
CSGS.IN           10.7500                      : Casing Size (diameter)
CSGW.                                          : Casing Weight
BS  .MM              7.88                      : Bit Size
MUD .            GEL CHEM                      : API Mud Type
MUDD.KG/M3          11.00                      : Mud Density
MUDV.               75.00                      : Mud Viscosity
FL  .C3            8.0000                      : Fluid Loss
PH  .             11.5000                      : Mud Ph
MUDS.                CIRC                      : Mud Sample Location
RM  .OHM/M          1.300                      : Mud Resistivity
RMT .degF           60.00                      : Mud Temperature
RMF .OHM/M          1.100                      : Mud Filtrate Resistivity
RMFT.DEGC           60.00                      : Mud Filtrate Temperature
RMC .               1.500                      : Mud Cake Resistivity
RMCT.DEGC           60.00                      : Mud Cake Temperature
RW  .OHM/M                                     : Water Resistivity
RWT .DEGC                                      : Water Temperature
TMAX.DEGC          120.00                      : Max Temperature
TIMC.                 6.0                      : Hours Since Circ. Stopped
TIML.                                          : Date/Time Logger on Bottom
UNIT.                                          : Unit Number 
BASE.                                          : Logging Unit Home Base
ENG .                                          : Recording Engineer
WIT .                                          : Witnessed By
~Curve Information
# MNEM  .UNIT        API CODE   : Curve Description
#-----  .----      ------------ : -------------------
DEPT   .M      00 001 00 00 : 1 DEPTH
CALI .in       42 280 01 00 : 5 Density Caliper
DT .us/ft      61 520 32 00 : 7 Delta-T Compressional
RES .ohm.m     05 040 16 00 : 3 Resistivity (unspecified)
ILD .ohm.m     05 060 64 00 : 4 Induction Deep Resistivity
RHOB .g/cm3    42 350 01 00 : 6 Bulk Density
GR .gAPI       61 310 01 00 : 8 GAMMA RAY LOG FROM FDC A_0 CNL
SP .MV         05 010 01 00 : 2 Spontaneous Potential 
#==================================================================
~Ascii
# ...
 1258.6716000 8.2755079269 54.987167358 140.50000000 214.35639954 2.6020226479 44.639999390 -58.75869751
 1258.8240000 8.2755079269 54.038600922 142.00000000 222.27720642 2.5754511356 43.200000763 -59.39279938
 1258.9764000 8.2346935272 53.421195984 142.00000000 203.46530151 2.5609755516 47.278598785 -59.81960297
 1259.1288000 8.2346935272 53.323112488 142.00000000 174.75250244 2.5895299911 54.181800842 -60.52789688
 1259.2812000 8.2346935272 55.336101532 141.50000000 155.44549561 2.5929009914 65.719299316 -60.94330215
 1259.4336000 8.2959175110 55.719207764 141.50000000 142.50000000 2.6049969196 79.082496643 -62.40649796
 1259.5860000 8.3889999390 55.959999084 141.50000000 133.50000000 2.6202657223 87.683197021 -64.80000305
 1259.7384000 8.3702402115 57.267318726 142.00000000 136.50000000 2.6123340130 95.049499512 -63.75000000
 1259.8908000 8.4427556992 55.920009613 142.50000000 145.50000000 2.5750546455 97.319999695 -61.65000153
 1260.0432000 8.5957555771 54.240013123 142.50000000 155.94059753 2.5639503002 95.524696350 -60.60000229
 1260.1956000 8.6161613464 54.602695465 143.00000000 191.58419800 2.5359904766 93.619102478 -60.60000229
 1260.3480000 8.5858583450 56.119350433 144.50000000 222.77229309 2.5195319653 97.433502197 -60.75000000
 1260.5004000 8.4040393829 55.741825104 147.00000000 244.05940247 2.5804085732 98.859901428 -61.05000305
 1260.6528000 8.2020196915 55.385875702 149.00000000 267.82180786 2.6020226479 99.565902710 -61.50000000
 1260.8052000 8.2943544388 55.702960968 151.48519897 289.60400391 2.5780289173 92.400001526 -61.94999695
 1260.9576000 8.4167909622 54.910877228 153.46530151 305.44558716 2.5459051132 86.400001526 -62.54999924
 1261.1100000 8.4182558060 55.049499512 156.93069458 284.15838623 2.6464405060 78.534698486 -63.29999924
 1261.2624000 8.3396692276 54.099014282 160.39599609 252.97030640 2.6569502354 67.485099792 -64.04999542
 1261.4148000 8.2505035400 53.599994659 163.78529358 223.26730347 2.6870911121 59.486900330 -64.50000000
 1261.5672000 8.2209997177 53.979988098 167.67939758 209.40589905 2.6740036011 55.070301056 -65.25000000
 1261.7196000 8.1812753677 54.458583832 171.08580017 209.90100098 2.6609160900 52.376499176 -65.70000458
 1261.8720000 8.1716375351 53.220001221 175.00959778 210.89109802 2.6420781612 49.091400146 -66.29999542
 1262.0244000 8.1717166901 53.024227142 178.54110718 209.90100098 2.6192741394 45.939399719 -66.90000153
 1262.1768000 8.1717166901 65.142219543 182.07969666 208.91090393 2.5960738659 40.242401123 -67.65000153
 1262.3292000 8.1717166901 53.417144775 185.60049438 209.40589905 2.5744597912 32.326499939 -68.09999847
 1262.4816000 8.1717166901 53.419158936 188.60820007 213.86140442 2.5940909386 28.040800095 -68.54999542
 1262.6340000 8.1713619232 53.900009155 191.58419800 221.28709412 2.5940909386 27.061199188 -69.44999695
 1262.7864000 8.1709327698 50.404045105 194.55450439 225.24749756 2.6073768139 26.081600189 -70.79999542
 1262.9388000 8.1705036163 47.247535706 196.53469849 230.19799805 2.6153082848 26.816299438 -72.44999695
 1263.0912000 8.1700782776 49.841598511 197.52470398 231.68319702 2.6391036510 24.612199783 -71.25000000
 1263.2436000 8.1683034897 48.990108490 197.52470398 224.75250244 2.6490185261 23.030300140 -69.75000000
 1263.3960000 8.1561689377 54.554443359 198.01980591 221.78219604 2.6391036510 24.734699249 -68.54999542
 1263.5484000 8.1540470123 52.619998932 198.51480103 221.78219604 2.6337497234 28.040800095 -67.95000458
 1263.7008000 8.1519098282 52.120006561 198.51480103 226.23759460 2.6287922859 29.755100250 -67.95000458
 1263.8532000 8.1497640610 50.848472595 198.51480103 235.14849854 2.6317667961 33.428600311 -68.40000153
 1264.0056000 8.1476097107 51.616176605 198.01980591 228.71290588 2.6069800854 33.673500061 -68.54999542
 1264.1580000 8.1454410553 54.000015259 197.52470398 219.30690002 2.6024191380 36.363601685 -68.25000000
 1264.3104000 8.1432638168 54.198013306 198.01980591 216.83169556 2.6321632862 40.121200562 -68.09999847
 1264.4628000 8.1425590515 53.660011292 198.01980591 218.35549927 2.6272060871 43.385101318 -68.69999695
 1264.6152000 8.1320438385 52.639995575 198.51480103 220.38619995 2.6416814327 41.180400848 -67.65000153
 1264.7676000 8.1317081451 55.276149750 198.51480103 224.42579651 2.6504065990 39.332000732 -66.75000000
 1264.9200000 8.1313743591 56.938804626 198.01980591 222.98829651 2.6490185261 37.229698181 -66.15000153
 1265.0724000 8.1313152313 55.041942596 198.01600647 221.50000000 2.6519930363 35.757099152 -65.55000305
 1265.2248000 8.1313152313 39.434780121 197.51400757 225.00000000 2.6539754868 38.681400299 -64.65000153
 1265.3772000 8.1313152313 45.523311615 197.50729370 223.00000000 2.6555621624 40.376499176 -64.34999847
 1265.5296000 8.1313152313 52.378902435 197.00149536 216.50000000 2.6569502354 41.456699371 -64.34999847
 1265.6820000 8.1313152313 52.919986725 196.50000000 211.00000000 2.6268093586 43.492000580 -64.80000305
 1265.8344000 8.1313152313 53.680004120 195.50000000 211.50000000 2.6450524330 38.853801727 -64.34999847
 1265.9868000 8.1212129593 52.960006714 194.50000000 219.00000000 2.6434662342 34.820701599 -63.75000000
 1266.1392000 8.1212129593 53.619987488 195.50000000 225.50000000 2.6317667961 31.518899918 -63.75000000
 1266.2916000 8.1212129593 52.559986115 194.00000000 219.50000000 2.6272060871 32.848499298 -63.75000000
 1266.4440000 8.1212129593 50.585857391 193.50000000 219.00000000 2.6139202118 38.666698456 -63.60000229
 1266.5964000 8.1212129593 45.801990509 193.00000000 223.00000000 2.6139202118 45.333301544 -64.04999542
 1266.7488000 8.1212129593 51.555545807 193.00000000 226.50000000 2.5970652103 44.727298737 -63.15000534
 1266.9012000 8.1212129593 54.455444336 193.00000000 234.00000000 2.5810034275 44.340301514 -61.94999695
 1267.0536000 8.1212129593 53.060012817 193.00000000 238.00000000 2.5875470638 42.007598877 -63.29999924
 1267.2060000 8.1212129593 53.459999084 193.00000000 242.00000000 2.6040055752 39.550598145 -64.80000305
 1267.3584000 8.1212129593 52.319988251 193.00000000 244.50000000 2.6139202118 38.793201447 -65.55000305
 1267.5108000 8.1212129593 54.218250275 193.00000000 234.93440247 2.6053936481 39.636398315 -65.06999969
 1267.6632000 8.1212129593 54.258605957 193.50000000 230.85989380 2.6093595028 41.696998596 -63.23249817
 1267.8156000 8.1111106873 54.677978516 193.50000000 226.81340027 2.6252231598 43.272701263 -60.19499969
 1267.9680000 8.1111106873 53.579998016 193.50000000 225.75799561 2.6426730156 39.878799438 -57.90700150
 1268.1204000 8.1093072891 54.243427277 192.01629639 226.73269653 2.6327583790 35.040000916 -58.35330200
 1268.2728000 8.1070432663 53.569118500 192.53430176 229.70300293 2.6194725037 31.680000305 -58.80539703
 1268.4252000 8.1047639847 52.293926239 192.05479431 233.66340637 2.6309735775 34.080001831 -59.10630035
 1268.5776000 8.1024761200 53.459148407 191.08419800 235.14849854 2.6264128685 37.939399719 -59.70279694
 1268.7300000 8.1020393372 53.499988556 190.09899902 234.15840149 2.6174895763 41.818199158 -60.44999695
 1268.8824000 8.1020393372 52.799983978 188.61390686 234.65350342 2.6125319004 46.787899017 -61.65000153
 1269.0348000 8.1020393372 52.879997253 187.12869263 240.59410095 2.6462423801 45.090900421 -63.90000153
 1269.1872000 8.1020393372 53.239997864 185.64360046 244.55450439 2.6785643101 40.848499298 -65.25000000
 1269.3396000 8.1020393372 54.297042847 184.65350342 239.10890198 2.6924450397 37.333301544 -66.29999542
 1269.4920000 8.1020393372 54.712882996 183.16830444 238.61390686 2.6745984554 40.121200562 -65.84999847
 1269.6444000 8.1020393372 54.217826843 182.67329407 240.59410095 2.6609160900 41.212100983 -64.34999847
 1269.7968000 8.1020393372 54.514854431 181.18809509 246.53469849 2.6565537453 42.303001404 -63.29999924
 1269.9492000 8.1122446060 54.079200745 180.69309998 253.46530151 2.6565537453 45.333301544 -62.10000229
 1270.1016000 8.1122446060 54.514854431 179.70300293 254.95050049 2.6791591644 45.212100983 -60.89999771
 1270.2540000 8.1122446060 53.579998016 179.20790100 253.46530151 2.6777710915 48.848499298 -60.89999771
