~Version information
VERS.   2.0:
WRAP.   NO:
#==================================================================
~Well
STRT .m      3.0480000000 :
STOP .m      1342.0344000 :
STEP .m     0.15240000 :
NULL .        -999.250000 :
COMP.      			UNKNOWN                    : Company
WELL.data          MURPHY_et_al_BIRCH_GROVE_1  : Well Name
FLD . 				SSSB                       : Field
LOC . 				46-145 059-935	           : Location
CNTY.                                          : County
PROV. 				NS                         : Province
CTRY.				CAN                        : Country
UWI . 				4004614505993500           : Unique Well ID
DATE. 				1968-05-16                 : Log Date(s)
SON .                                          : Service Order No(s)
LIC . 				P-84                       : License No
~Parameter Information
#MNEM.UNIT       DATA                           : DESCRIPTION
#----.----       ---------                      : -----------
EKB .M            49.7400                      : Elevation Kelly Bushing
EGL .M            46.4500                      : Elevation Ground Level
DREF.M                 KB                      : Depth Reference
EREF.M            49.7400                      : Elevation of Depth Reference
DIGS.          QCDATA                          : Digitizing Company
SRVC. UNKNOWN OPERATOR-ADDRESS USED BY FIELD S : Service Company
RUN .                   1                      : Run Number
TDL .M          1342.9488                      : Total Depth, Logger
TDD .M          1343.5584                      : Total Depth, Driller
BOTL.M          1341.7296                      : Bottom of Logged Interval
TOPL.M           191.1096                      : Top of Logged Interval
CSGL.M           191.1096                      : Casing Bottom, Logger
CSGD.M           191.7192                      : Casing Bottom, Driller
CSGS.IN           10.7500                      : Casing Size (diameter)
CSGW.                                          : Casing Weight
BS  .MM              7.88                      : Bit Size
MUD .            GEL CHEM                      : API Mud Type
MUDD.KG/M3          11.00                      : Mud Density
MUDV.               75.00                      : Mud Viscosity
FL  .C3            8.0000                      : Fluid Loss
PH  .             11.5000                      : Mud Ph
MUDS.                CIRC                      : Mud Sample Location
RM  .OHM/M          1.300                      : Mud Resistivity
RMT .degF           60.00                      : Mud Temperature
RMF .OHM/M          1.100                      : Mud Filtrate Resistivity
RMFT.DEGC           60.00                      : Mud Filtrate Temperature
RMC .               1.500                      : Mud Cake Resistivity
RMCT.DEGC           60.00                      : Mud Cake Temperature
RW  .OHM/M                                     : Water Resistivity
RWT .DEGC                                      : Water Temperature
TMAX.DEGC          120.00                      : Max Temperature
TIMC.                 6.0                      : Hours Since Circ. Stopped
TIML.                                          : Date/Time Logger on Bottom
UNIT.                                          : Unit Number 
BASE.                                          : Logging Unit Home Base
ENG .                                          : Recording Engineer
WIT .                                          : Witnessed By
~Curve Information
# MNEM  .UNIT        API CODE   : Curve Description
#-----  .----      ------------ : -------------------
DEPT   .M      00 001 00 00 : 1 DEPTH
CALI .in       42 280 01 00 : 5 Density Caliper
DT .us/ft      61 520 32 00 : 7 Delta-T Compressional
RES .ohm.m     05 040 16 00 : 3 Resistivity (unspecified)
ILD .ohm.m     05 060 64 00 : 4 Induction Deep Resistivity
RHOB .g/cm3    42 350 01 00 : 6 Bulk Density
GR .gAPI       61 310 01 00 : 8 GAMMA RAY LOG FROM FDC A_0 CNL
SP .MV         05 010 01 00 : 2 Spontaneous Potential 
#==================================================================
~Ascii
# ...
 1023.9756000 11.554456711 60.639991760 42.009799957 40.196098328 2.3337299824 90.220596313 -19.35000038
 1024.1280000 12.039602280 61.969131470 41.372501373 28.069299698 2.2827682495 83.286796570 -19.79999924
 1024.2804000 12.000000000 63.455699921 41.326099396 25.000000000 2.2371604443 84.000000000 -19.82040024
 1024.4328000 11.851483345 63.215610504 41.969501495 24.750000000 2.1848106384 85.911598206 -19.39769936
 1024.5852000 12.179449081 62.495429993 42.171798706 25.395999908 2.1405909061 90.911796570 -19.87089920
 1024.7376000 12.859567642 64.900001526 41.682300568 26.930700302 2.1594285965 94.103996277 -20.49029922
 1024.8900000 13.326732635 78.554458618 41.435600281 29.702999115 2.2141582966 91.722801208 -21.08909988
 1025.0424000 13.297027588 93.819999695 41.287101746 35.000000000 2.2742414474 91.960403442 -21.53470039
 1025.1948000 12.779999733 85.269989014 41.089099884 43.168300629 2.3672416210 92.197998047 -20.49510002
 1025.3472000 12.210000038 72.010002136 40.841598511 51.980201721 2.4435851574 90.534698486 -18.86140060
 1025.4996000 11.633661270 60.496124268 40.594100952 53.960399628 2.4301013947 87.089103699 -16.93449974
 1025.6520000 11.019803047 59.963764191 39.951000214 50.098999023 2.3916320801 83.881202698 -17.53610039
 1025.8044000 10.959593773 58.950759888 39.215698242 34.257400513 2.3603014946 86.851501465 -19.48649979
 1025.9568000 11.257425308 60.698574066 38.529399872 28.118799210 2.3208408356 86.257400513 -20.84710121
 1026.1092000 12.569999695 65.019996643 37.941200256 24.399999619 2.3638706207 93.029701233 -21.45000076
 1026.2616000 14.559999466 73.235298157 37.451000214 23.000000000 2.4148325920 100.63369751 -20.54999924
 1026.4140000 15.445543289 75.411758423 36.960800171 23.000000000 2.3910372257 105.26730347 -19.35000038
 1026.5664000 15.277227402 78.168304443 36.519599915 24.149999619 2.3628792763 108.59410095 -18.30000114
 1026.7188000 14.729999542 81.239830017 36.323501587 26.534700394 2.3396787643 109.30690002 -17.72519875
 1026.8712000 14.310000420 79.118156433 36.323501587 28.910900116 2.3458259106 111.20790100 -18.20440102
 1027.0236000 14.229999542 76.639854431 36.519599915 30.445499420 2.3710093498 120.12120056 -19.42320061
 1027.1760000 13.653464317 75.850090027 36.764701843 31.534700394 2.4069006443 127.39389801 -19.89590073
 1027.3284000 12.990000725 72.113273621 36.666698456 32.376201630 2.3852865696 135.51519775 -19.75250053
 1027.4808000 13.445543289 70.924919128 36.519599915 30.940599442 2.4158239365 144.48750305 -18.86140060
 1027.6332000 14.010000229 71.615074158 36.421600342 29.257400513 2.4495339394 132.84849548 -16.63370132
 1027.7856000 13.910889626 73.027946472 36.470600128 27.227699280 2.4449732304 119.76840210 -14.25000000
 1027.9380000 13.900991440 74.764701843 36.813701630 25.594100952 2.4237556458 109.54460144 -13.64999962
 1028.0904000 14.259999275 75.411758423 37.254901886 24.950500488 2.3706126213 110.37619781 -14.69999981
 1028.2428000 14.089999199 74.411766052 37.745098114 25.049499512 2.3543524742 108.11879730 -16.03960037
 1028.3952000 13.653464317 77.396034241 38.382400513 25.693099976 2.3666467667 100.99009705 -17.82180023
 1028.5476000 13.118810654 71.620018005 39.166698456 26.732700348 2.3646638393 96.475303650 -17.37619972
 1028.7000000 13.108909607 67.089981079 39.705898285 28.069299698 2.3819155693 93.045799255 -15.59410000
 1028.8524000 13.366337776 70.000007629 40.395999908 29.802000046 2.4168152809 95.170799255 -14.55000019
 1029.0048000 13.247524261 74.264701843 41.336601257 31.485099792 2.4614317417 98.138603210 -14.25000000
 1029.1572000 13.435641289 74.911758423 42.326698303 33.564399719 2.4584572315 100.03959656 -13.94999981
 1029.3096000 13.465346336 74.117637634 43.415798187 35.245098114 2.4320840836 98.257400513 -13.80000019
 1029.4620000 12.990000725 73.117652893 44.207901001 36.617599487 2.4049177170 100.99009705 -14.39999962
 1029.6144000 12.659999847 71.500015259 44.950500488 36.764701843 2.3725957870 101.46530151 -14.55000019
 1029.7668000 11.605940819 71.143852234 46.089099884 35.884201050 2.3725957870 98.732696533 -14.69999981
 1029.9192000 10.441952705 70.969390869 47.673301697 34.950698853 2.3908388615 90.868499756 -14.69999981
 1030.0716000 10.080559731 64.140953064 48.465301514 34.262500763 2.3940114975 84.395698547 -15.00000000
 1030.2240000 10.201916695 57.639812469 48.613899231 33.921001434 2.3460245132 79.611099243 -15.29699993
 1030.3764000 10.858586311 63.820362091 48.168300629 33.235298157 2.3708109856 80.792098999 -15.74259949
 1030.5288000 12.415842056 70.716064453 47.871299744 32.696098328 2.4191949368 89.017196655 -16.48509979
 1030.6812000 12.346535683 71.943954468 47.821800232 32.500000000 2.4572675228 98.531402588 -17.67329979
 1030.8336000 11.544554710 73.292724609 47.871299744 32.303901672 2.5080308914 102.77829742 -17.52479935
 1030.9860000 11.198019981 72.010002136 47.920799255 33.039199829 2.5175490379 101.70300293 -16.48509979
 1031.1384000 10.898988724 69.099990845 47.673301697 34.509799957 2.4925639629 98.257400513 -16.03960037
 1031.2908000 10.828283310 69.040008545 47.475200653 36.237598419 2.4568707943 95.643600464 -16.03960037
 1031.4432000 10.848484039 64.449989319 47.029701233 36.287101746 2.4485425949 96.237602234 -15.29699993
 1031.5956000 10.737374306 63.257427216 46.386100769 34.754901886 2.4259369373 93.481796265 -14.07190037
 1031.7480000 11.099007607 66.520011902 45.594100952 32.794101715 2.4334721565 91.551597595 -13.14089966
 1031.9004000 11.475248337 70.900016785 44.852901459 30.882400513 2.4106681347 95.679298401 -13.85299969
 1032.0528000 11.821783066 70.450012207 44.068599701 29.950500488 2.3718025684 100.04550171 -14.26449966
 1032.2052000 11.742574692 70.840003967 42.941200256 29.108900070 2.3257980347 96.950500488 -14.25740051
 1032.3576000 11.594058037 70.059989929 42.107799530 28.217800140 2.2772159576 94.098999023 -14.25740051
 1032.5100000 11.465346336 68.290016174 41.225498199 26.980199814 2.2391433716 96.237602234 -14.10890007
 1032.6624000 11.524751663 66.819992065 40.294101715 25.990100861 2.1679556370 94.811897278 -14.10890007
 1032.8148000 12.148515701 70.095771790 39.347900391 25.237600327 2.1286933422 96.237602234 -14.10890007
 1032.9672000 12.980196953 74.624786377 38.745800018 25.324300766 2.2910966873 99.802001953 -14.40590000
 1033.1196000 13.270000458 76.876380920 38.392398834 26.648500443 2.2821733952 104.91089630 -15.00000000
 1033.2720000 13.029999733 74.336151123 38.040699005 27.675699234 2.2421178818 105.50499725 -15.29719925
 1033.4244000 12.952378273 71.904884338 37.352901459 28.811899185 2.2014672756 102.77230072 -15.26790047
 1033.5768000 12.944799423 73.959785461 36.813701630 29.059400558 2.2573864460 101.58419800 -15.82809925
 1033.7292000 12.358881950 75.705001831 36.470600128 27.475200653 2.2920877934 98.257400513 -15.94219875
 1033.8816000 11.831685066 70.239944458 36.176498413 26.435600281 2.2385485172 93.239997864 -15.75710106
 1034.0340000 11.851483345 64.574745178 35.490200043 25.643600464 2.2054333687 87.720001221 -15.44999981
 1034.1864000 12.970000267 65.984657288 34.752498627 25.297000885 2.2554035187 84.720001221 -15.75000000
 1034.3388000 13.851484299 71.379981995 34.108898163 26.435600281 2.2401349545 90.480003357 -16.65000153
 1034.4912000 14.279999733 72.549987793 33.762401581 27.326700211 2.2375569344 94.680000305 -17.39999962
 1034.6436000 13.633661270 73.265235901 33.118801117 27.227699280 2.2431092262 98.257400513 -16.79640007
 1034.7960000 12.409999847 73.620384216 32.178199768 26.831699371 2.2020626068 101.34649658 -16.19460106
 1034.9484000 11.970294952 76.227096558 31.485099792 25.841600418 2.1969065666 97.782203674 -15.89369965
 1035.1008000 11.930693626 84.879730225 30.990100861 24.350000381 2.1695418358 102.05940247 -15.89149952
 1035.2532000 12.039999962 76.970596313 30.693099976 22.549999237 2.1292881966 102.29699707 -16.48509979
 1035.4056000 12.630000114 59.163478851 30.346500397 21.649999619 2.0870516300 102.65350342 -18.11880112
 1035.5580000 13.217823029 63.582927704 30.197999954 21.049999237 2.0680150986 104.19799805 -19.75250053
