~Version information
VERS.   2.0:
WRAP.   NO:
#==================================================================
~Well
STRT .m      3.0480000000 :
STOP .m      1342.0344000 :
STEP .m     0.15240000 :
NULL .        -999.250000 :
COMP.      			UNKNOWN                    : Company
WELL.data          MURPHY_et_al_BIRCH_GROVE_1  : Well Name
FLD . 				SSSB                       : Field
LOC . 				46-145 059-935	           : Location
CNTY.                                          : County
PROV. 				NS                         : Province
CTRY.				CAN                        : Country
UWI . 				4004614505993500           : Unique Well ID
DATE. 				1968-05-16                 : Log Date(s)
SON .                                          : Service Order No(s)
LIC . 				P-84                       : License No
~Parameter Information
#MNEM.UNIT       DATA                           : DESCRIPTION
#----.----       ---------                      : -----------
EKB .M            49.7400                      : Elevation Kelly Bushing
EGL .M            46.4500                      : Elevation Ground Level
DREF.M                 KB                      : Depth Reference
EREF.M            49.7400                      : Elevation of Depth Reference
DIGS.          QCDATA                          : Digitizing Company
SRVC. UNKNOWN OPERATOR-ADDRESS USED BY FIELD S : Service Company
RUN .                   1                      : Run Number
TDL .M          1342.9488                      : Total Depth, Logger
TDD .M          1343.5584                      : Total Depth, Driller
BOTL.M          1341.7296                      : Bottom of Logged Interval
TOPL.M           191.1096                      : Top of Logged Interval
CSGL.M           191.1096                      : Casing Bottom, Logger
CSGD.M           191.7192                      : Casing Bottom, Driller
CSGS.IN           10.7500                      : Casing Size (diameter)
CSGW.                                          : Casing Weight
BS  .MM              7.88                      : Bit Size
MUD .            GEL CHEM                      : API Mud Type
MUDD.KG/M3          11.00                      : Mud Density
MUDV.               75.00                      : Mud Viscosity
FL  .C3            8.0000                      : Fluid Loss
PH  .             11.5000                      : Mud Ph
MUDS.                CIRC                      : Mud Sample Location
RM  .OHM/M          1.300                      : Mud Resistivity
RMT .degF           60.00                      : Mud Temperature
RMF .OHM/M          1.100                      : Mud Filtrate Resistivity
RMFT.DEGC           60.00                      : Mud Filtrate Temperature
RMC .               1.500                      : Mud Cake Resistivity
RMCT.DEGC           60.00                      : Mud Cake Temperature
RW  .OHM/M                                     : Water Resistivity
RWT .DEGC                                      : Water Temperature
TMAX.DEGC          120.00                      : Max Temperature
TIMC.                 6.0                      : Hours Since Circ. Stopped
TIML.                                          : Date/Time Logger on Bottom
UNIT.                                          : Unit Number 
BASE.                                          : Logging Unit Home Base
ENG .                                          : Recording Engineer
WIT .                                          : Witnessed By
~Curve Information
# MNEM  .UNIT        API CODE   : Curve Description
#-----  .----      ------------ : -------------------
DEPT   .M      00 001 00 00 : 1 DEPTH
CALI .in       42 280 01 00 : 5 Density Caliper
DT .us/ft      61 520 32 00 : 7 Delta-T Compressional
RES .ohm.m     05 040 16 00 : 3 Resistivity (unspecified)
ILD .ohm.m     05 060 64 00 : 4 Induction Deep Resistivity
RHOB .g/cm3    42 350 01 00 : 6 Bulk Density
GR .gAPI       61 310 01 00 : 8 GAMMA RAY LOG FROM FDC A_0 CNL
SP .MV         05 010 01 00 : 2 Spontaneous Potential 
#==================================================================
~Ascii
# ...
 566.31840000 11.579487801 66.640014648 45.299999237 33.366298676 2.6979973316 43.757598877 -44.40589905
 566.47080000 11.622756004 66.934173584 46.507198334 34.414699554 2.7029545307 42.909099579 -43.95829773
 566.62320000 11.666004181 66.296195984 47.660800934 35.769100189 2.7039461136 44.121200562 -42.76239777
 566.77560000 11.709035873 66.288818359 48.361301422 38.063800812 2.7098951340 47.030300140 -41.85950089
 566.92800000 11.712231636 66.311462402 48.563598633 39.752300262 2.7194130421 50.301898956 -41.85160065
 567.08040000 11.653465271 66.009986877 48.465301514 41.049999237 2.7178266048 53.939399719 -42.12519836
 567.23280000 11.603960037 66.489990234 47.821800232 41.400001526 2.7136623859 52.363601685 -42.54240036
 567.38520000 11.574255943 66.579994202 46.683200836 40.750000000 2.7196114063 49.818199158 -43.10949707
 567.53760000 11.554456711 66.160011292 45.148498535 39.257400513 2.7182233334 47.393901825 -43.81919861
 567.69000000 11.554456711 66.160011292 43.450000763 37.722801208 2.7144556046 49.212100983 -44.55360031
 567.84240000 11.524751663 66.160011292 41.450000763 35.148498535 2.7047393322 50.787899017 -45.29859924
 567.99480000 11.495051384 66.219993591 40.000000000 32.250000000 2.6898672581 51.151500702 -45.89379883
 568.14720000 11.495051384 66.579994202 38.811901093 29.257400513 2.6825301647 52.363601685 -47.37739944
 568.29960000 11.495051384 66.934020996 37.574298859 27.277200699 2.6906602383 51.878799438 -48.97940063
 568.45200000 11.514849663 67.346504211 36.386100769 24.900999069 2.6926434040 49.454498291 -50.72349930
 568.60440000 11.544554710 67.488998413 35.841598511 24.059400558 2.6793575287 45.818199158 -52.17440033
 568.75680000 11.594058037 68.021484375 35.297000885 23.613899231 2.6595280170 41.696998596 -52.73040009
 568.90920000 11.693071365 68.619987488 34.700000763 23.415800095 2.6311719418 38.787899017 -53.15439987
 569.06160000 11.851483345 69.160003662 34.599998474 23.366300583 2.6113421917 36.969699860 -52.68939972
 569.21400000 12.050000191 69.639999390 34.250000000 23.267299652 2.5869522095 37.454498291 -51.77529907
 569.36640000 12.210000038 69.490013123 33.950000763 23.366300583 2.5629584789 37.333301544 -51.30450058
 569.51880000 12.309999466 68.613983154 33.652698517 23.673000336 2.5631568432 36.606098175 -51.28740311
 569.67120000 12.289999962 68.036514282 33.407199860 24.329099655 2.5486814976 38.666698456 -51.27180099
 569.82360000 12.240000725 67.758987427 33.212501526 25.628700256 2.5554232597 40.000000000 -50.95829773
 569.97600000 12.139999390 68.171508789 33.117900848 27.967800140 2.5589926243 39.393901825 -50.64639664
 570.12840000 12.070000648 72.134399414 33.069301605 30.297000885 2.5554232597 37.720901489 -50.34650040
 570.28080000 12.039999962 77.050048828 33.069301605 29.554500580 2.5290501118 38.478401184 -49.60400009
 570.43320000 12.070000648 68.139991760 33.118801117 27.227699280 2.5030734539 39.599700928 -49.00989914
 570.58560000 12.190000534 66.550003052 33.019798279 24.752500534 2.4842355251 39.630298615 -47.82180023
 570.73800000 12.549999237 65.110000610 33.019798279 22.178199768 2.4558794498 41.357601166 -46.33659744
 570.89040000 12.599999428 63.969993591 33.217800140 21.633699417 2.4233591557 42.357601166 -45.14849854
 571.04280000 12.520000458 62.830009460 33.910900116 22.574300766 2.3906404972 45.902999878 -43.21780014
 571.19520000 12.420000076 61.239990234 35.000000000 23.564399719 2.3735871315 51.714000702 -41.43560028
 571.34760000 12.329999924 102.49000549 36.099998474 25.049499512 2.3470156193 59.543998718 -39.80199814
 571.50000000 12.269999504 110.06931305 37.099998474 26.534700394 2.3307557106 71.574096680 -38.31680298
 571.65240000 12.369999886 99.970008850 38.650001526 28.960399628 2.3946063519 79.924201965 -36.08909988
 571.80480000 12.500000000 98.229995728 40.792098999 34.455398560 2.5379734039 83.043403625 -33.71290207
 571.95720000 12.309999466 60.610000610 42.821800232 42.376201630 2.6995835304 83.547599792 -31.63370132
 572.10960000 11.980196953 62.960399628 44.901000977 45.148498535 2.7344834805 86.323097229 -31.03959846
 572.26200000 11.801980019 68.290016174 45.990100861 45.643600464 2.7475709915 88.015197754 -30.89109993
 572.41440000 11.772274971 68.349998474 46.138599396 45.990100861 2.7420186996 86.727600098 -30.89109993
 572.56680000 11.734653473 65.886451721 46.089099884 45.198001862 2.7420186996 84.238098145 -31.33939934
 572.71920000 11.657920837 66.448715210 45.445499420 39.253299713 2.7360699177 79.580101013 -32.68489838
 572.87160000 11.600991249 70.571319580 45.000000000 34.539100647 2.7235774994 80.663497925 -34.03770065
 573.02400000 11.593563080 73.742576599 44.455398560 33.809101105 2.7164385319 79.721000671 -35.69709778
 573.17640000 11.594058037 74.449348450 43.722499847 33.069301605 2.7209994793 77.237602234 -37.78440094
 573.32880000 11.623763084 73.015998840 42.843498230 32.524799347 2.7325005531 73.790100098 -40.00499725
 573.48120000 11.623763084 70.471984863 41.767799377 31.980199814 2.7087051868 65.703002930 -42.51239777
 573.63360000 11.623763084 67.869995117 40.789798737 31.237600327 2.7029545307 57.238601685 -44.11590195
 573.78600000 11.623763084 65.889991760 39.750000000 30.000000000 2.6989886761 48.360000610 -45.15000153
 573.93840000 11.594058037 66.520011902 38.450000763 28.861400604 2.6910569668 42.489799500 -45.89999771
 574.09080000 11.613862038 66.520011902 37.200000763 26.782199860 2.6819353104 42.000000000 -47.09999847
 574.24320000 11.653465271 66.370018005 36.150001526 25.395999908 2.6779694557 42.244899750 -48.59999847
 574.39560000 11.653465271 66.368705750 35.250000000 24.549999237 2.6745984554 43.600799561 -49.64999771
 574.54800000 11.603960037 67.150001526 34.653499603 23.950000763 2.6700375080 41.417999268 -50.25000000
 574.70040000 11.564358711 67.899993896 33.910900116 23.250000000 2.6585366726 38.273601532 -50.70000076
 574.85280000 11.594058037 68.680007935 33.564399719 22.950000763 2.6398968697 37.085399628 -50.84999847
 575.00520000 11.673268318 69.158264160 33.267299652 22.700000763 2.6363275051 34.040798187 -50.84999847
 575.15760000 11.742574692 69.638328552 33.168300629 22.649999619 2.6545705795 35.387798309 -50.40000153
 575.31000000 11.772274971 70.000007629 33.069301605 22.600000381 2.6599247456 35.877601624 -49.64999771
 575.46240000 11.801980019 69.333679199 33.069301605 22.700000763 2.6579418182 36.484798431 -49.19999695
 575.61480000 11.813862801 68.418029785 33.217800140 22.700000763 2.6575450897 38.666698456 -48.75000000
 575.76720000 11.796535492 67.531455994 33.366298676 22.750000000 2.6484236717 35.390598297 -48.90000153
 575.91960000 11.759405136 68.463867188 33.663398743 22.600000381 2.6389055252 31.258100510 -48.90000153
 576.07200000 11.771783829 69.486412048 34.108898163 22.549999237 2.6230421066 37.212100983 -48.59999847
 576.22440000 11.792078972 69.454528809 34.604000092 22.700000763 2.6109457016 38.084300995 -48.30000305
 576.37680000 11.841583252 68.818168640 35.250000000 23.000000000 2.6119372845 39.205200195 -48.00000000
 576.52920000 11.891090393 68.696983337 36.049999237 23.850000381 2.6180844307 41.537998199 -47.54999924
 576.68160000 11.910889626 68.969688416 37.000000000 25.000000000 2.6089627743 46.055000305 -46.79999924
 576.83400000 11.920791626 69.484863281 37.900001526 26.633699417 2.6075749397 43.393901825 -46.20000076
 576.98640000 11.930693626 68.878791809 39.000000000 28.267299652 2.6125319004 42.666698456 -45.75000000
 577.13880000 11.930693626 68.060623169 40.098999023 31.336599350 2.6099543571 45.090900421 -45.15000153
 577.29120000 11.900991440 67.939407349 40.940601349 34.505001068 2.6004362106 45.939399719 -44.70299911
 577.44360000 11.861385345 67.121231079 41.732700348 39.099998474 2.5915129185 45.479400635 -44.10890198
 577.59600000 11.821783066 65.696952820 41.831699371 43.960399628 2.5825896263 44.903800964 -43.06929779
 577.74840000 11.801980019 67.484855652 41.980201721 45.297000885 2.5695023537 46.509498596 -42.62379837
 577.90080000 11.762373924 68.727279663 41.485099792 43.861400604 2.5455086231 47.751598358 -42.32669830
