~Version information
VERS.   2.0:
WRAP.   NO:
#==================================================================
~Well
STRT .m      3.0480000000 :
STOP .m      1342.0344000 :
STEP .m     0.15240000 :
NULL .        -999.250000 :
COMP.      			UNKNOWN                    : Company
WELL.data          MURPHY_et_al_BIRCH_GROVE_1  : Well Name
FLD . 				SSSB                       : Field
LOC . 				46-145 059-935	           : Location
CNTY.                                          : County
PROV. 				NS                         : Province
CTRY.				CAN                        : Country
UWI . 				4004614505993500           : Unique Well ID
DATE. 				1968-05-16                 : Log Date(s)
SON .                                          : Service Order No(s)
LIC . 				P-84                       : License No
~Parameter Information
#MNEM.UNIT       DATA                           : DESCRIPTION
#----.----       ---------                      : -----------
EKB .M            49.7400                      : Elevation Kelly Bushing
EGL .M            46.4500                      : Elevation Ground Level
DREF.M                 KB                      : Depth Reference
EREF.M            49.7400                      : Elevation of Depth Reference
DIGS.          QCDATA                          : Digitizing Company
SRVC. UNKNOWN OPERATOR-ADDRESS USED BY FIELD S : Service Company
RUN .                   1                      : Run Number
TDL .M          1342.9488                      : Total Depth, Logger
TDD .M          1343.5584                      : Total Depth, Driller
BOTL.M          1341.7296                      : Bottom of Logged Interval
TOPL.M           191.1096                      : Top of Logged Interval
CSGL.M           191.1096                      : Casing Bottom, Logger
CSGD.M           191.7192                      : Casing Bottom, Driller
CSGS.IN           10.7500                      : Casing Size (diameter)
CSGW.                                          : Casing Weight
BS  .MM              7.88                      : Bit Size
MUD .            GEL CHEM                      : API Mud Type
MUDD.KG/M3          11.00                      : Mud Density
MUDV.               75.00                      : Mud Viscosity
FL  .C3            8.0000                      : Fluid Loss
PH  .             11.5000                      : Mud Ph
MUDS.                CIRC                      : Mud Sample Location
RM  .OHM/M          1.300                      : Mud Resistivity
RMT .degF           60.00                      : Mud Temperature
RMF .OHM/M          1.100                      : Mud Filtrate Resistivity
RMFT.DEGC           60.00                      : Mud Filtrate Temperature
RMC .               1.500                      : Mud Cake Resistivity
RMCT.DEGC           60.00                      : Mud Cake Temperature
RW  .OHM/M                                     : Water Resistivity
RWT .DEGC                                      : Water Temperature
TMAX.DEGC          120.00                      : Max Temperature
TIMC.                 6.0                      : Hours Since Circ. Stopped
TIML.                                          : Date/Time Logger on Bottom
UNIT.                                          : Unit Number 
BASE.                                          : Logging Unit Home Base
ENG .                                          : Recording Engineer
WIT .                                          : Witnessed By
~Curve Information
# MNEM  .UNIT        API CODE   : Curve Description
#-----  .----      ------------ : -------------------
DEPT   .M      00 001 00 00 : 1 DEPTH
CALI .in       42 280 01 00 : 5 Density Caliper
DT .us/ft      61 520 32 00 : 7 Delta-T Compressional
RES .ohm.m     05 040 16 00 : 3 Resistivity (unspecified)
ILD .ohm.m     05 060 64 00 : 4 Induction Deep Resistivity
RHOB .g/cm3    42 350 01 00 : 6 Bulk Density
GR .gAPI       61 310 01 00 : 8 GAMMA RAY LOG FROM FDC A_0 CNL
SP .MV         05 010 01 00 : 2 Spontaneous Potential 
#==================================================================
~Ascii
# ...
 261.21360000 14.360000610 92.128730774 24.299999237 15.049500465 2.6720206738 106.50260162 -52.12870026
 261.36600000 14.420000076 94.750007629 24.799999237 15.841600418 2.6630973816 108.80380249 -51.83169937
 261.51840000 14.449999809 94.179992676 25.395999908 16.831699371 2.6515963078 106.91480255 -51.38610077
 261.67080000 14.449999809 86.128707886 25.940599442 18.224399567 2.6311719418 104.76670074 -50.77379990
 261.82320000 14.449999809 81.069999695 26.237600327 19.625099182 2.6424746513 107.76110077 -50.15420151
 261.97560000 14.430000305 85.415840149 26.188100815 20.630300522 2.6595280170 111.12000275 -49.68099976
 262.12800000 14.350000381 84.168319702 25.990100861 20.294599533 2.6579418182 110.76000214 -49.35529709
 262.28040000 14.210000038 84.136962891 25.594100952 19.600799561 2.6555621624 106.95259857 -49.04999924
 262.43280000 14.050000191 85.739295959 25.247499466 18.904899597 2.6400952339 108.29389954 -48.59999847
 262.58520000 13.960397720 83.863525391 25.297000885 18.162900925 2.6339480877 108.92379761 -48.59999847
 262.73760000 13.900991440 80.961372375 25.445499420 17.424499512 2.6809442043 106.67500305 -49.04999924
 262.89000000 13.762374878 81.934661865 25.643600464 17.079200745 2.6839182377 104.16799927 -49.35000229
 263.04240000 13.584157944 87.251464844 26.089099884 17.524799347 2.6785643101 107.76110077 -49.64999771
 263.19480000 13.405941010 89.749298096 26.732700348 17.970300674 2.6765813828 111.12000275 -49.79999924
 263.34720000 13.326732635 89.831779480 27.425699234 18.465299606 2.6609160900 113.04000092 -49.50000000
 263.49960000 13.287129402 92.333335876 28.118799210 19.455400467 2.6440610886 113.06269836 -49.04999924
 263.65200000 13.277228355 93.134750366 29.059400558 20.049499512 2.6295855045 116.33489990 -48.75000000
 263.80440000 13.227724075 90.502586365 29.950500488 20.841600418 2.6220502853 114.92530060 -48.90000153
 263.95680000 13.188117981 88.297180176 30.544599533 21.485099792 2.6260163784 112.67279816 -49.04999924
 264.10920000 13.207921028 87.429718018 31.089099884 22.079200745 2.6170930862 113.05319977 -49.19999695
 264.26160000 13.168314934 84.155158997 31.386100769 22.722799301 2.6159031391 108.53150177 -49.64999771
 264.41400000 13.089110374 80.598991394 31.435600281 23.415800095 2.6194725037 107.84449768 -50.25000000
 264.56640000 13.039602280 82.714187622 31.435600281 23.613899231 2.6125319004 110.37100220 -50.54999924
 264.71880000 12.918133736 88.053550720 31.247600555 23.719999313 2.6000397205 114.89109802 -50.40000153
 264.87120000 12.796366692 86.679695129 30.814399719 23.679599762 2.5905215740 115.36630249 -50.25000000
 265.02360000 12.724846840 82.127693176 29.985099792 23.290000916 2.5770375729 113.22769928 -49.79999924
 265.17600000 12.693476677 79.683494568 28.512399673 22.048999786 2.5605790615 110.85150146 -49.64999771
 265.32840000 12.652803421 80.095252991 27.079200745 20.159700394 2.5439221859 108.73650360 -49.34110260
 265.48080000 12.582322121 79.971168518 25.594100952 16.839899063 2.5280587673 107.45709991 -49.32999802
 265.63320000 12.461638451 82.504943848 23.907499313 15.099699974 2.5100138187 109.27100372 -48.87319946
 265.78560000 12.410299301 87.524749756 22.028499603 13.315999985 2.4929604530 111.43879700 -48.12040329
 265.93800000 12.369999886 93.065864563 20.594100952 12.277199745 2.4695618153 113.60710144 -47.82180023
 266.09040000 12.400000572 98.080009460 19.600000381 11.881199837 2.4112632275 113.63760376 -47.52479935
 266.24280000 12.549999237 100.00000000 19.250000000 11.633700371 2.3926231861 114.73709869 -47.97029877
 266.39520000 12.590000153 99.970283508 19.299999237 11.534700394 2.4078919888 112.50759888 -48.56439972
 266.54760000 12.590000153 106.74256897 19.549999237 11.485099792 2.3930199146 108.35639954 -48.86140060
 266.70000000 12.599999428 112.71287537 19.750000000 11.584199905 2.3583185673 104.51999664 -49.15840149
 266.85240000 12.680000305 115.17822266 19.850000381 11.732700348 2.3224270344 105.12000275 -49.15840149
 267.00480000 12.840000153 105.61000061 19.950000763 11.336600304 2.3182632923 103.44000244 -48.86140060
 267.15720000 13.118810654 99.842391968 20.000000000 10.891099930 2.3896489143 106.58499908 -48.41579819
 267.30960000 13.158417702 114.51039886 20.346500397 10.643600464 2.4707515240 103.85340118 -47.67330170
 267.46200000 13.148515701 122.05596924 21.138599396 11.089099884 2.4747173786 100.16510010 -46.93070221
 267.61440000 13.188117981 113.99188232 22.425699234 12.277199745 2.4529047012 101.03260040 -46.33659744
 267.76680000 13.247524261 104.61671448 24.067300797 13.273900032 2.4642081261 106.32350159 -46.45830154
 267.91920000 13.336634636 100.92079926 27.645999908 14.525600433 2.5328178406 110.73269653 -46.57379913
 268.07160000 13.287129402 101.57426453 29.836599350 16.524099350 2.5625619888 111.08910370 -47.43770218
 268.22400000 13.207921028 99.970283508 32.057399750 20.499700546 2.5730714798 107.52449799 -47.70610046
 268.37640000 13.146819115 79.178207397 34.273101807 24.200000763 2.5863573551 103.26200104 -48.00000000
 268.52880000 13.075078964 73.966819763 36.599300385 27.425699234 2.5958755016 99.103202820 -47.85000229
 268.68120000 12.784519196 69.490013123 38.475898743 29.455400467 2.6036088467 96.239303589 -47.70000076
 268.83360000 12.475484848 69.099990845 40.148399353 30.544300079 2.6119372845 95.881103516 -47.70000076
 268.98600000 12.198019981 74.425727844 41.683200836 30.792100906 2.6129288673 95.405899048 -47.54999924
 269.13840000 12.049503326 78.702987671 43.465301514 30.990100861 2.6174895763 96.000000000 -47.85000229
 269.29080000 11.980196953 79.237640381 45.247501373 31.732700348 2.6139202118 100.08000183 -48.75000000
 269.44320000 11.960396767 77.485160828 52.970298767 33.514900208 2.6040055752 95.762397766 -49.64999771
 269.59560000 11.960396767 72.729179382 54.455398560 35.539199829 2.5960738659 89.346496582 -50.70000076
 269.74800000 11.960396767 68.306594849 56.435600281 37.745098114 2.5919096470 79.919998169 -51.75000000
 269.90040000 11.900991440 72.332427979 58.415798187 40.594100952 2.5819947720 75.480003357 -52.50000000
 270.05280000 11.742574692 79.297035217 60.395999908 41.534698486 2.5714852810 73.800003052 -52.79999924
 270.20520000 11.574255943 66.339996338 60.395999908 41.732700348 2.5675191879 71.881202698 -52.94999695
 270.35760000 11.435641289 65.110000610 60.395999908 41.732700348 2.5738646984 73.080001831 -52.79999924
 270.51000000 11.405941010 65.649986267 60.395999908 41.584201813 2.5629584789 75.120002747 -52.94999695
 270.66240000 11.396039963 67.419990540 58.910900116 41.485099792 2.5544319153 75.720001221 -53.10000229
 270.81480000 11.393960953 69.424110413 55.952400208 41.138599396 2.5574061871 77.054100037 -53.39999771
 270.96720000 11.391488075 76.477767944 53.480899811 40.198001862 2.5504660606 75.399398804 -53.55000305
 271.11960000 11.428606033 93.859779358 45.297000885 38.186298370 2.5484831333 72.916603088 -53.25000000
 271.27200000 11.406333923 99.971717834 42.425701141 34.207901001 2.5425341129 70.211799622 -52.50000000
 271.42440000 11.356436729 99.940475464 39.558799744 30.544599533 2.5355939865 70.930702209 -51.73649979
 271.57680000 11.346534729 110.06931305 36.421600342 27.524799347 2.5312314034 76.535400391 -50.82379913
 271.72920000 11.356436729 110.60396576 33.217800140 23.861400604 2.5223081112 83.605201721 -50.06449890
 271.88160000 11.396039963 99.940017700 30.445499420 20.346500397 2.5044615269 90.055801392 -49.75479889
 272.03400000 11.445543289 81.014106750 27.524799347 17.750000000 2.4757089615 96.024002075 -49.75249863
 272.18640000 11.504948616 91.179183960 24.604000092 15.100000381 2.4396193027 99.893600464 -49.90100098
 272.33880000 11.633661270 99.909996033 22.920799255 14.108900070 2.3886578083 99.563400269 -50.19799805
 272.49120000 11.871287346 108.36998749 21.485099792 13.267299652 2.3426532745 98.753303528 -50.34650040
 272.64360000 12.148515701 139.59403992 20.792100906 12.970299721 2.3029944897 90.178199768 -50.04949951
 272.79600000 12.603960991 154.02986145 20.693099976 12.920800209 2.2669045925 81.480003357 -49.45540237
