~Version information
VERS.   2.0:
WRAP.   NO:
#==================================================================
~Well
STRT .m      3.0480000000 :
STOP .m      1342.0344000 :
STEP .m     0.15240000 :
NULL .        -999.250000 :
COMP.      			UNKNOWN                    : Company
WELL.data          MURPHY_et_al_BIRCH_GROVE_1  : Well Name
FLD . 				SSSB                       : Field
LOC . 				46-145 059-935	           : Location
CNTY.                                          : County
PROV. 				NS                         : Province
CTRY.				CAN                        : Country
UWI . 				4004614505993500           : Unique Well ID
DATE. 				1968-05-16                 : Log Date(s)
SON .                                          : Service Order No(s)
LIC . 				P-84                       : License No
~Parameter Information
#MNEM.UNIT       DATA                           : DESCRIPTION
#----.----       ---------                      : -----------
EKB .M            49.7400                      : Elevation Kelly Bushing
EGL .M            46.4500                      : Elevation Ground Level
DREF.M                 KB                      : Depth Reference
EREF.M            49.7400                      : Elevation of Depth Reference
DIGS.          QCDATA                          : Digitizing Company
SRVC. UNKNOWN OPERATOR-ADDRESS USED BY FIELD S : Service Company
RUN .                   1                      : Run Number
TDL .M          1342.9488                      : Total Depth, Logger
TDD .M          1343.5584                      : Total Depth, Driller
BOTL.M          1341.7296                      : Bottom of Logged Interval
TOPL.M           191.1096                      : Top of Logged Interval
CSGL.M           191.1096                      : Casing Bottom, Logger
CSGD.M           191.7192                      : Casing Bottom, Driller
CSGS.IN           10.7500                      : Casing Size (diameter)
CSGW.                                          : Casing Weight
BS  .MM              7.88                      : Bit Size
MUD .            GEL CHEM                      : API Mud Type
MUDD.KG/M3          11.00                      : Mud Density
MUDV.               75.00                      : Mud Viscosity
FL  .C3            8.0000                      : Fluid Loss
PH  .             11.5000                      : Mud Ph
MUDS.                CIRC                      : Mud Sample Location
RM  .OHM/M          1.300                      : Mud Resistivity
RMT .degF           60.00                      : Mud Temperature
RMF .OHM/M          1.100                      : Mud Filtrate Resistivity
RMFT.DEGC           60.00                      : Mud Filtrate Temperature
RMC .               1.500                      : Mud Cake Resistivity
RMCT.DEGC           60.00                      : Mud Cake Temperature
RW  .OHM/M                                     : Water Resistivity
RWT .DEGC                                      : Water Temperature
TMAX.DEGC          120.00                      : Max Temperature
TIMC.                 6.0                      : Hours Since Circ. Stopped
TIML.                                          : Date/Time Logger on Bottom
UNIT.                                          : Unit Number 
BASE.                                          : Logging Unit Home Base
ENG .                                          : Recording Engineer
WIT .                                          : Witnessed By
~Curve Information
# MNEM  .UNIT        API CODE   : Curve Description
#-----  .----      ------------ : -------------------
DEPT   .M      00 001 00 00 : 1 DEPTH
CALI .in       42 280 01 00 : 5 Density Caliper
DT .us/ft      61 520 32 00 : 7 Delta-T Compressional
RES .ohm.m     05 040 16 00 : 3 Resistivity (unspecified)
ILD .ohm.m     05 060 64 00 : 4 Induction Deep Resistivity
RHOB .g/cm3    42 350 01 00 : 6 Bulk Density
GR .gAPI       61 310 01 00 : 8 GAMMA RAY LOG FROM FDC A_0 CNL
SP .MV         05 010 01 00 : 2 Spontaneous Potential 
#==================================================================
~Ascii
# ...
 1329.0804000 7.9595942497 54.860008240 99.000000000 61.500000000 2.6555621624 49.675701141 -80.60610199
 1329.2328000 7.9595942497 56.719985962 96.500000000 58.500000000 2.6337497234 46.491100311 -81.36360168
 1329.3852000 7.9595942497 56.160011292 95.500000000 55.000000000 2.6396985054 42.339801788 -81.21210480
 1329.5376000 7.9595942497 55.299983978 94.500000000 51.500000000 2.6172912121 37.945598602 -79.24240112
 1329.6900000 7.9595942497 57.260002136 93.500000000 44.851501465 2.6387071609 39.515201569 -81.04900360
 1329.8424000 7.9595942497 59.720012665 93.500000000 41.138599396 2.6252231598 37.090900421 -81.48639679
 1329.9948000 7.9595942497 62.495033264 92.500000000 40.098999023 2.6281974316 34.912498474 -81.16909790
 1330.1472000 7.9595942497 58.599994659 93.000000000 40.940601349 2.6153082848 32.002399445 -81.30379486
 1330.2996000 7.9595942497 60.039596558 95.500000000 41.287101746 2.6139202118 28.960300446 -82.65000153
 1330.4520000 7.9595942497 62.970310211 98.000000000 51.000000000 2.6222486496 24.603200912 -83.70000458
 1330.6044000 7.9595942497 65.725486755 100.99009705 53.000000000 2.6168947220 26.166599274 -84.15000153
 1330.7568000 7.9595942497 60.673274994 105.44550323 58.000000000 2.6123340130 30.123100281 -83.84999847
 1330.9092000 7.9595942497 57.619998932 110.89109802 66.500000000 2.6238350868 30.348400116 -84.44999695
 1331.0616000 7.9595942497 59.640003204 115.84159851 78.000000000 2.6198692322 37.818199158 -84.59999847
 1331.2140000 7.9595942497 56.020015717 119.80200195 96.000000000 2.6024191380 35.758300781 -83.54999542
 1331.3664000 7.9595942497 53.540008545 123.76239777 107.92079926 2.6059885025 30.548299789 -82.34999847
 1331.5188000 7.9595942497 56.420005798 126.73269653 115.34649658 2.6287922859 26.526199341 -82.03320313
 1331.6712000 7.9595942497 56.599990845 129.20790100 114.35639954 2.6278007030 25.162700653 -82.76700592
 1331.8236000 7.9595942497 55.139995575 130.69309998 116.83170319 2.6069800854 24.891000748 -83.80650330
 1331.9760000 7.9595942497 54.360012054 131.18809509 118.81189728 2.6218523979 20.854600906 -83.79100037
 1332.1284000 7.9595942497 52.123970032 130.69309998 117.32669830 2.6272060871 15.279399872 -83.35039520
 1332.2808000 7.9595942497 53.469142914 129.20790100 116.33660126 2.6127305031 19.062900543 -83.52400208
 1332.4332000 7.9595942497 53.874042511 127.22769928 111.38610077 2.6305770874 20.788299561 -83.85109711
 1332.5856000 7.9595942497 55.405689240 126.23760223 104.95050049 2.6379137039 23.871299744 -85.40360260
 1332.7380000 7.9595942497 55.465339661 124.75250244 99.000000000 2.6295855045 26.064800262 -89.08160400
 1332.8904000 7.9696965218 54.376228333 123.26730347 97.000000000 2.6270077229 21.927799225 -93.33329773
 1333.0428000 7.9696965218 55.861400604 121.28710175 92.000000000 2.6385087967 19.866199493 -96.36359406
 1333.1952000 7.9696965218 55.821773529 120.79209900 90.000000000 2.6579418182 16.844800949 -98.03029633
 1333.3476000 7.9696965218 56.683929443 119.30690002 88.000000000 2.6404917240 20.509500504 -100.0303040
 1333.5000000 7.9696965218 57.889263153 117.32669830 86.000000000 2.6244299412 25.394300461 -101.8863983
 1333.6524000 7.9696965218 56.774150848 114.85150146 84.000000000 2.6410865784 23.599000931 -98.74240112
 1333.8048000 7.9696965218 57.539108276 111.38610077 82.000000000 2.6519930363 21.690200806 -102.2651978
 1333.9572000 7.9696965218 58.080005646 106.43560028 76.000000000 2.6504065990 21.599500656 -106.6700974
 1334.1096000 7.9595942497 56.040008545 101.48509979 69.500000000 2.6264128685 16.417100906 -110.3274002
 1334.2620000 7.9595942497 55.346530914 96.000000000 58.500000000 2.5994448662 16.690299988 -108.5101013
 1334.4144000 7.9595942497 55.425746918 90.000000000 44.356399536 2.6099543571 12.842300415 -106.6827011
 1334.5668000 7.9616651535 58.043979645 84.000000000 35.346500397 2.6135237217 14.806599617 -106.5578003
 1334.7192000 7.9642519951 62.792091370 81.000000000 27.128700256 2.5964703560 12.295700073 -108.8771973
 1334.8716000 7.9665827751 69.677276611 77.000000000 23.316799164 2.6010310650 14.130700111 -110.4253006
 1335.0240000 7.9691734314 58.479385376 73.500000000 19.100000381 2.5865557194 14.035400391 -108.4790039
 1335.1764000 7.9595942497 58.560005188 71.000000000 18.149999619 2.5649414063 16.079999924 -107.4242020
 1335.3288000 7.9595942497 60.039596558 70.000000000 17.549999237 2.5564148426 12.960000038 -109.2424011
 1335.4812000 7.9595942497 61.980194092 69.500000000 17.250000000 2.5474917889 8.9696998596 -106.2121048
 1335.6336000 7.9595942497 65.920799255 69.500000000 17.500000000 2.5615704060 8.1211996078 -103.7754974
 1335.7860000 7.9595942497 64.653472900 69.500000000 17.750000000 2.5720801353 9.6732997894 -100.8673019
 1335.9384000 7.9595942497 60.950489044 69.000000000 18.350000381 2.5829863548 10.491299629 -97.95919800
 1336.0908000 7.9595942497 59.899997711 67.500000000 19.149999619 2.5919096470 13.969799995 -95.20410156
 1336.2432000 7.9292917252 60.950489044 67.000000000 20.049499512 2.5790205002 17.457799911 -94.13269806
 1336.3956000 7.8606576920 62.099006653 67.000000000 20.643600464 2.5679159164 19.006099701 -93.82649994
 1336.5480000 7.8026418686 62.673282623 67.000000000 21.336599350 2.5520522594 22.369699478 -92.75510406
 1336.7004000 7.8049726486 66.732666016 68.500000000 21.980199814 2.5615704060 25.244400024 -92.14289856
 1336.8528000 7.8075633049 69.544570923 69.500000000 22.821800232 2.5754511356 24.975000381 -89.54550171
 1337.0052000 7.8080787659 62.792091370 72.000000000 23.910900116 2.5980567932 25.190000534 -84.84850311
 1337.1576000 7.8181810379 58.680004120 73.000000000 25.197999954 2.6133253574 27.110500336 -81.06060028
 1337.3100000 7.8181810379 60.138626099 73.500000000 26.732700348 2.6059885025 30.873399734 -76.81819916
 1337.4624000 7.8181810379 60.455432892 74.500000000 28.514900208 2.5859606266 34.409000397 -73.79999542
 1337.6148000 7.7999997139 60.079219818 75.000000000 31.930700302 2.5635533333 29.498300552 -73.94999695
 1337.7672000 7.7722206116 58.739990234 75.000000000 36.633701324 2.5429308414 29.362499237 -75.30439758
 1337.9196000 7.7646455765 58.239997864 76.000000000 39.059398651 2.5225064754 25.337299347 -76.83110046
 1338.0720000 7.7772717476 60.712871552 77.500000000 41.089099884 2.5080308914 26.546600342 -76.52980042
 1338.2244000 7.8467755318 63.568325043 79.040100098 41.930698395 2.4941504002 29.683599472 -74.10000610
 1338.3768000 7.9250864983 64.698860168 81.084098816 43.564399719 2.4739243984 26.867300034 -74.69999695
 1338.5292000 7.9528584480 63.518581390 84.110801697 45.297000885 2.4513185024 23.428699493 -75.15309906
 1338.6816000 7.9504766464 61.379528046 86.626998901 50.990100861 2.3969860077 22.914800644 -74.84999847
 1338.8340000 7.9500002861 59.040004730 89.108901978 51.980201721 2.3321435452 24.734699249 -74.55000305
 1338.9864000 7.9500002861 58.159984589 89.603996277 53.465301514 2.2732501030 27.183700562 -74.55000305
 1339.1388000 8.1313152313 60.460006714 90.098999023 56.435600281 2.3351180553 25.714300156 -75.15309906
 1339.2912000 8.6767673492 59.219985962 90.098999023 59.901000977 2.3188579082 22.302999496 -75.61220551
 1339.4436000 9.1182365417 56.040008545 90.098999023 63.366298676 2.3809239864 21.454500198 -75.64350128
 1339.5960000 8.8647680283 57.679985046 89.108901978 67.821800232 2.4725360870 23.878799438 -75.83570099
 1339.7484000 8.5416698456 58.040016174 88.118797302 71.782203674 2.5240929127 23.272699356 -76.02410126
 1339.9008000 8.1900825500 54.118824005 86.633697510 72.772300720 2.4981162548 20.848499298 -76.06330109
 1340.0532000 8.0600004196 53.859989166 85.148498535 70.792098999 2.5114018917 24.979600906 -75.61220551
 1340.2056000 8.0399999619 54.772285461 84.158401489 67.821800232 2.5375769138 23.030300140 -75.30609894
 1340.3580000 8.0299997330 55.841587067 83.168296814 62.871299744 2.5139796734 24.000000000 -74.69999695
 1340.5104000 8.0100002289 54.475257874 83.168296814 61.881198883 2.5060482025 25.714300156 -73.50000000
 1340.6628000 7.9878778458 56.083992004 83.663398743 60.891101837 2.5246877670 27.061199188 -72.48000336
