~Version information
VERS.   2.0:
WRAP.   NO:
#==================================================================
~Well
STRT .m      3.0480000000 :
STOP .m      1342.0344000 :
STEP .m     0.15240000 :
NULL .        -999.250000 :
COMP.      			UNKNOWN                    : Company
WELL.data          MURPHY_et_al_BIRCH_GROVE_1  : Well Name
FLD . 				SSSB                       : Field
LOC . 				46-145 059-935	           : Location
CNTY.                                          : County
PROV. 				NS                         : Province
CTRY.				CAN                        : Country
UWI . 				4004614505993500           : Unique Well ID
DATE. 				1968-05-16                 : Log Date(s)
SON .                                          : Service Order No(s)
LIC . 				P-84                       : License No
~Parameter Information
#MNEM.UNIT       DATA                           : DESCRIPTION
#----.----       ---------                      : -----------
EKB .M            49.7400                      : Elevation Kelly Bushing
EGL .M            46.4500                      : Elevation Ground Level
DREF.M                 KB                      : Depth Reference
EREF.M            49.7400                      : Elevation of Depth Reference
DIGS.          QCDATA                          : Digitizing Company
SRVC. UNKNOWN OPERATOR-ADDRESS USED BY FIELD S : Service Company
RUN .                   1                      : Run Number
TDL .M          1342.9488                      : Total Depth, Logger
TDD .M          1343.5584                      : Total Depth, Driller
BOTL.M          1341.7296                      : Bottom of Logged Interval
TOPL.M           191.1096                      : Top of Logged Interval
CSGL.M           191.1096                      : Casing Bottom, Logger
CSGD.M           191.7192                      : Casing Bottom, Driller
CSGS.IN           10.7500                      : Casing Size (diameter)
CSGW.                                          : Casing Weight
BS  .MM              7.88                      : Bit Size
MUD .            GEL CHEM                      : API Mud Type
MUDD.KG/M3          11.00                      : Mud Density
MUDV.               75.00                      : Mud Viscosity
FL  .C3            8.0000                      : Fluid Loss
PH  .             11.5000                      : Mud Ph
MUDS.                CIRC                      : Mud Sample Location
RM  .OHM/M          1.300                      : Mud Resistivity
RMT .degF           60.00                      : Mud Temperature
RMF .OHM/M          1.100                      : Mud Filtrate Resistivity
RMFT.DEGC           60.00                      : Mud Filtrate Temperature
RMC .               1.500                      : Mud Cake Resistivity
RMCT.DEGC           60.00                      : Mud Cake Temperature
RW  .OHM/M                                     : Water Resistivity
RWT .DEGC                                      : Water Temperature
TMAX.DEGC          120.00                      : Max Temperature
TIMC.                 6.0                      : Hours Since Circ. Stopped
TIML.                                          : Date/Time Logger on Bottom
UNIT.                                          : Unit Number 
BASE.                                          : Logging Unit Home Base
ENG .                                          : Recording Engineer
WIT .                                          : Witnessed By
~Curve Information
# MNEM  .UNIT        API CODE   : Curve Description
#-----  .----      ------------ : -------------------
DEPT   .M      00 001 00 00 : 1 DEPTH
CALI .in       42 280 01 00 : 5 Density Caliper
DT .us/ft      61 520 32 00 : 7 Delta-T Compressional
RES .ohm.m     05 040 16 00 : 3 Resistivity (unspecified)
ILD .ohm.m     05 060 64 00 : 4 Induction Deep Resistivity
RHOB .g/cm3    42 350 01 00 : 6 Bulk Density
GR .gAPI       61 310 01 00 : 8 GAMMA RAY LOG FROM FDC A_0 CNL
SP .MV         05 010 01 00 : 2 Spontaneous Potential 
#==================================================================
~Ascii
# ...
 1106.1192000 12.267327309 65.865211487 34.306900024 19.752500534 2.2579813004 82.329200745 -15.00000000
 1106.2716000 10.818181038 59.480712891 35.686298370 21.250000000 2.2738449574 78.736000061 -15.44999981
 1106.4240000 10.636362076 64.652168274 37.058799744 22.950000763 2.1425738335 77.163497925 -15.59999943
 1106.5764000 11.584157944 75.673278809 38.186298370 24.299999237 2.1643862724 83.616203308 -15.75000000
 1106.7288000 12.930692673 76.941177368 38.039199829 25.495100021 2.3033907413 85.618400574 -16.20000076
 1106.8812000 13.459999084 86.794487000 38.529399872 25.594100952 2.2573864460 85.113403320 -17.10000038
 1107.0336000 12.485149384 79.326728821 40.000000000 26.188100815 2.2782073021 84.725799561 -16.95000076
 1107.1860000 10.989999771 50.722774506 41.039600372 31.633699417 2.4318857193 86.760002136 -16.79999924
 1107.3384000 10.750000000 54.730010986 40.742599487 35.245098114 2.6164982319 88.080001831 -16.20000076
 1107.4908000 10.580000877 61.659999847 39.852901459 33.316799164 2.5994448662 86.040000916 -15.30000019
 1107.6432000 10.510000229 63.880016327 39.117599487 28.960399628 2.5564148426 84.000000000 -14.55449963
 1107.7956000 10.460000038 63.249996185 38.137298584 23.750000000 2.5534400940 86.135398865 -14.55449963
 1107.9480000 10.390000343 69.069999695 37.058799744 19.306900024 2.4852271080 85.264602661 -14.40590000
 1108.1004000 10.570000648 75.435653687 36.176498413 18.366300583 2.3969860077 83.680198669 -14.70300007
 1108.2528000 11.386137962 75.524742126 35.245098114 18.366300583 2.4792783260 86.166198730 -14.85150051
 1108.4052000 12.287130356 73.891075134 34.455398560 18.514900208 2.4614317417 82.574302673 -15.15000057
 1108.5576000 11.950496674 72.346534729 33.663398743 18.861400604 2.4568707943 81.148498535 -15.59999943
 1108.7100000 11.960396767 74.930694580 32.227699280 18.960399628 2.3612928391 81.029701233 -15.44999981
 1108.8624000 12.514850616 79.356445313 30.792100906 18.960399628 2.3343245983 82.693099976 -16.65000153
 1109.0148000 13.171665192 79.748634338 30.197999954 19.009899139 2.3603014946 84.598800659 -19.05000114
 1109.1672000 12.766830444 79.191917419 30.940599442 19.207899094 2.3618876934 83.641998291 -22.35000038
 1109.3196000 10.876106262 99.961174011 31.485099792 19.802000046 2.4703550339 84.834197998 -21.60000038
 1109.4720000 10.524925232 75.616912842 30.990100861 20.450000763 2.5395598412 82.081001282 -19.20000076
 1109.6244000 10.331929207 75.679275513 30.494100571 19.454399109 2.4534997940 87.189598083 -17.24570084
 1109.7768000 11.039602280 78.053733826 30.147899628 18.010799408 2.4265317917 88.362701416 -18.13559914
 1109.9292000 12.118810654 76.020652771 29.653499603 16.510400772 2.4717431068 86.190002441 -16.04259872
 1110.0816000 12.861386299 75.077941895 29.059400558 15.002499580 2.4352564812 87.844100952 -14.10039997
 1110.2340000 13.110000610 74.366325378 28.564399719 14.703000069 2.4421970844 85.680000305 -15.56549931
 1110.3864000 13.359999657 76.058815002 28.465299606 14.356399536 2.3890542984 83.643600464 -17.02140045
 1110.5388000 13.450000763 76.970596313 29.009899139 14.207900047 2.2748360634 84.599998474 -18.48449898
 1110.6912000 13.359999657 77.617652893 29.504899979 14.257399559 2.2020626068 84.599998474 -19.35530090
 1110.8436000 13.050000191 83.277244568 30.147100449 14.703000069 2.0926036835 87.120002747 -19.94009972
 1110.9960000 12.762373924 85.861396790 31.274499893 15.199999809 2.0079317093 89.639999390 -20.07719994
 1111.1484000 13.329999924 82.207908630 32.843101501 17.100000381 2.1727147102 87.839996338 -20.36249924
 1111.3008000 13.119999886 78.345367432 34.264701843 19.100000381 2.2272455692 85.800003052 -19.45769882
 1111.4532000 12.990098953 77.722785950 35.792098999 22.500000000 2.3069601059 84.000000000 -18.24399948
 1111.6056000 13.789999962 76.297012329 37.722801208 26.188100815 2.3936150074 82.098999023 -16.57379913
 1111.7580000 11.584157944 67.059989929 39.950500488 34.313701630 2.4776918888 80.316802979 -15.79260063
 1111.9104000 10.602039337 59.455444336 42.009799957 38.762401581 2.6161015034 81.386100769 -15.60719967
 1112.0628000 10.295299530 64.059509277 42.151401520 41.267299652 2.6720206738 84.839996338 -15.74850082
 1112.2152000 10.335181236 65.431968689 41.504501343 38.153999329 2.6085665226 89.040000916 -16.49329948
 1112.3676000 10.476173401 59.405612946 39.817798615 36.179901123 2.5625619888 87.959999084 -17.83029938
 1112.5200000 10.363818169 60.428916931 38.236900330 32.872600555 2.5695023537 90.839996338 -18.41769981
 1112.6724000 10.233881950 61.683166504 36.571701050 24.455400467 2.5304381847 94.919998169 -19.01759911
 1112.8248000 10.235818863 62.603969574 34.851501465 21.287099838 2.4636130333 95.879997253 -18.28189850
 1112.9772000 10.297929764 66.339996338 32.920799255 17.964500427 2.3793377876 99.089103699 -17.99100113
 1113.1296000 10.429772377 70.089126587 31.435600281 16.434099197 2.3053736687 102.41580200 -18.89799881
 1113.2820000 10.970000267 72.376228333 30.148500443 15.247500420 2.2762243748 103.24749756 -20.09999847
 1113.4344000 12.820000648 76.352943420 29.356399536 15.247500420 2.3725957870 100.03959656 -20.09999847
 1113.5868000 13.930693626 80.188125610 28.910900116 15.296999931 2.3926231861 95.639999390 -19.35000038
 1113.7392000 14.760000229 80.188125610 28.613899231 15.494999886 2.4049177170 91.680000305 -20.25000000
 1113.8916000 14.980000496 84.823524475 28.366300583 16.386100769 2.3785445690 91.559997559 -22.36569977
 1114.0440000 14.820000648 84.588249207 28.564399719 17.079200745 2.3918299675 88.440002441 -23.28100014
 1114.1964000 14.470000267 74.188110352 29.009899139 18.811899185 2.4503271580 84.000000000 -21.50880051
 1114.3488000 13.762374878 73.861389160 29.702999115 19.604000092 2.4271266460 84.480003357 -21.67889977
 1114.5012000 13.128712654 68.200004578 30.395999908 20.099000931 2.3741819859 82.693099976 -21.53470039
 1114.6536000 12.710000992 67.029998779 30.841600418 20.099000931 2.2490580082 79.960403442 -20.49510002
 1114.8060000 12.300000191 73.504959106 30.940599442 19.752500534 2.2000792027 79.009902954 -20.64359856
 1114.9584000 12.369999886 82.029418945 30.940599442 19.108900070 2.1158041954 80.910896301 -20.19799995
 1115.1108000 12.530937195 78.977005005 31.197999954 18.762399673 2.1600236893 83.166702271 -19.91090012
 1115.2632000 13.009944916 72.538223267 31.705400467 19.504899979 2.2359707355 84.238899231 -19.02820015
 1115.4156000 13.767606735 70.169258118 31.569299698 19.653499603 2.1629981995 82.325103760 -17.54209900
 1115.5680000 13.089956284 70.800315857 30.987600327 20.199899673 2.0809042454 81.961097717 -16.19939995
 1115.7204000 12.108908653 87.759994507 30.544599533 21.000000000 2.0283560753 79.665199280 -16.20000076
 1115.8728000 11.009901047 79.970596313 32.178199768 21.200000763 2.1144161224 80.123802185 -16.04999924
 1116.0252000 10.470960617 56.259983063 33.663398743 22.049999237 1.9948443174 80.222602844 -15.90000057
 1116.1776000 10.265633583 61.719985962 33.762401581 22.049999237 1.9861193895 81.153099060 -15.15000057
 1116.3300000 11.275197029 76.297012329 32.970298767 20.899999619 2.1618084908 83.049499512 -14.55449963
 1116.4824000 12.728102684 78.019805908 31.534700394 19.752500534 2.2371604443 85.319999695 -14.40590000
 1116.6348000 12.785224915 77.485160828 30.346500397 18.762399673 2.2544121742 89.400001526 -14.85150051
 1116.7872000 11.099519730 69.940017700 29.851499557 18.168300629 2.3658535480 86.760002136 -14.85150051
 1116.9396000 10.336735725 63.910007477 29.752500534 17.673299789 2.4705531597 84.000000000 -14.70300007
 1117.0920000 9.9595947266 67.629997253 28.960399628 18.217800140 2.3386871815 80.658401489 -14.55449963
 1117.2444000 10.765307426 74.302925110 28.217800140 18.217800140 2.4651992321 86.740699768 -15.30000019
 1117.3968000 12.603960991 80.484245300 27.574300766 17.128700256 2.5605790615 91.014099121 -16.34999847
 1117.5492000 13.359264374 77.999992371 27.029699326 15.594099998 2.5254807472 88.633697510 -16.34999847
 1117.7016000 13.109496117 75.049499512 26.485099792 14.000000000 2.4390244484 90.772300720 -15.30000019
