~Version information
VERS.   2.0:
WRAP.   NO:
#==================================================================
~Well
STRT .m      3.0480000000 :
STOP .m      1342.0344000 :
STEP .m     0.15240000 :
NULL .        -999.250000 :
COMP.      			UNKNOWN                    : Company
WELL.data          MURPHY_et_al_BIRCH_GROVE_1  : Well Name
FLD . 				SSSB                       : Field
LOC . 				46-145 059-935	           : Location
CNTY.                                          : County
PROV. 				NS                         : Province
CTRY.				CAN                        : Country
UWI . 				4004614505993500           : Unique Well ID
DATE. 				1968-05-16                 : Log Date(s)
SON .                                          : Service Order No(s)
LIC . 				P-84                       : License No
~Parameter Information
#MNEM.UNIT       DATA                           : DESCRIPTION
#----.----       ---------                      : -----------
EKB .M            49.7400                      : Elevation Kelly Bushing
EGL .M            46.4500                      : Elevation Ground Level
DREF.M                 KB                      : Depth Reference
EREF.M            49.7400                      : Elevation of Depth Reference
DIGS.          QCDATA                          : Digitizing Company
SRVC. UNKNOWN OPERATOR-ADDRESS USED BY FIELD S : Service Company
RUN .                   1                      : Run Number
TDL .M          1342.9488                      : Total Depth, Logger
TDD .M          1343.5584                      : Total Depth, Driller
BOTL.M          1341.7296                      : Bottom of Logged Interval
TOPL.M           191.1096                      : Top of Logged Interval
CSGL.M           191.1096                      : Casing Bottom, Logger
CSGD.M           191.7192                      : Casing Bottom, Driller
CSGS.IN           10.7500                      : Casing Size (diameter)
CSGW.                                          : Casing Weight
BS  .MM              7.88                      : Bit Size
MUD .            GEL CHEM                      : API Mud Type
MUDD.KG/M3          11.00                      : Mud Density
MUDV.               75.00                      : Mud Viscosity
FL  .C3            8.0000                      : Fluid Loss
PH  .             11.5000                      : Mud Ph
MUDS.                CIRC                      : Mud Sample Location
RM  .OHM/M          1.300                      : Mud Resistivity
RMT .degF           60.00                      : Mud Temperature
RMF .OHM/M          1.100                      : Mud Filtrate Resistivity
RMFT.DEGC           60.00                      : Mud Filtrate Temperature
RMC .               1.500                      : Mud Cake Resistivity
RMCT.DEGC           60.00                      : Mud Cake Temperature
RW  .OHM/M                                     : Water Resistivity
RWT .DEGC                                      : Water Temperature
TMAX.DEGC          120.00                      : Max Temperature
TIMC.                 6.0                      : Hours Since Circ. Stopped
TIML.                                          : Date/Time Logger on Bottom
UNIT.                                          : Unit Number 
BASE.                                          : Logging Unit Home Base
ENG .                                          : Recording Engineer
WIT .                                          : Witnessed By
~Curve Information
# MNEM  .UNIT        API CODE   : Curve Description
#-----  .----      ------------ : -------------------
DEPT   .M      00 001 00 00 : 1 DEPTH
CALI .in       42 280 01 00 : 5 Density Caliper
DT .us/ft      61 520 32 00 : 7 Delta-T Compressional
RES .ohm.m     05 040 16 00 : 3 Resistivity (unspecified)
ILD .ohm.m     05 060 64 00 : 4 Induction Deep Resistivity
RHOB .g/cm3    42 350 01 00 : 6 Bulk Density
GR .gAPI       61 310 01 00 : 8 GAMMA RAY LOG FROM FDC A_0 CNL
SP .MV         05 010 01 00 : 2 Spontaneous Potential 
#==================================================================
~Ascii
# ...
 190.80480000  -999.250000  -999.250000  -999.250000  -999.250000  -999.250000 44.727298737  -999.250000
 190.95720000  -999.250000  -999.250000  -999.250000  -999.250000  -999.250000 44.606098175  -999.250000
 191.10960000 10.414142609 104.13494873 4.3534002304 3.8066000938 2.5401546955 46.181800842 -54.20789719
 191.26200000 10.434342384 109.38729095 6.1916999817 5.0992999077 2.5633552074 47.515201569 -59.55449677
 191.41440000 10.434342384 114.61546326 9.8044004440 5.1981000900 2.5970652103 51.599998474 -64.94999695
 191.56680000 10.474747658 123.90309143 15.287500381 4.7402000427 2.6623041630 57.859798431 -70.62870026
 191.71920000 10.545456886 121.57313538 20.397899628 7.4642000198 2.7154471874 64.372901917 -75.08290100
 191.87160000 10.626263618 112.24646759 22.592100143 10.347499847 2.6876859665 71.124198914 -77.91560364
 192.02400000 10.787877083 102.97030640 25.393600464 8.3507995605 2.6510014534 76.073997498 -80.45940399
 192.17640000 11.158417702 100.10988617 28.019800186 9.8999996185 2.6662700176 83.040000916 -82.71170044
 192.32880000 11.475248337 113.54454803 30.490200043 14.604000092 2.6797540188 98.934997559 -84.80390167
 192.48120000 11.544554710 121.46240234 32.696098328 24.500000000 2.7055323124 112.40290070 -86.58480072
 192.63360000 11.594058037 110.84158325 35.148498535 33.235298157 2.7291295528 119.99400330 -88.05649567
 192.78600000 11.564358711 120.22000885 37.772300720 32.156898499 2.7396388054 121.44000244 -89.40000153
 192.93840000 11.564358711 114.70298004 40.000000000 29.306900024 2.7317073345 119.63999939 -90.61220551
 193.09080000 11.554456711 84.792068481 41.078399658 31.029399872 2.7287328243 119.40000153 -91.68370056
 193.24320000 11.554456711 80.603965759 42.107799530 32.843101501 2.7370612621 118.80000305 -92.75510406
 193.39560000 11.544554710 83.009902954 43.284301758 34.607799530 2.7287328243 117.86519623 -93.36730194
 193.54800000 11.534653664 83.366333008 44.656898499 36.386100769 2.7182233334 116.69319916 -93.82649994
 193.70040000 11.544554710 83.188117981 45.940601349 37.970298767 2.7104897499 113.48470306 -94.28569794
 193.85280000 11.544554710 82.920776367 46.831699371 40.048999786 2.7055323124 110.87310028 -94.74489594
 194.00520000 11.564358711 82.059410095 46.930698395 42.402000427 2.6999802589 108.95999908 -95.35710144
 194.15760000 11.623763084 77.455444336 46.336601257 43.039199829 2.6910569668 111.23999786 -96.73470306
 194.31000000 11.683169365 73.980201721 45.544601440 41.225498199 2.6807456017 112.55999756 -97.80610657
 194.46240000 11.702971458 71.117645264 44.558799744 38.514900208 2.6662700176 114.83999634 -98.57139587
 194.61480000 11.702971458 69.754058838 43.627498627 34.019599915 2.6529843807 117.36000061 -99.16500092
 194.76720000 11.722771645 73.891075134 42.794101715 30.245100021 2.6569502354 118.19999695 -99.75109863
 194.91960000 11.752476692 76.766929626 42.352901459 28.069299698 2.6569502354 117.83999634 -100.1823959
 195.07200000 11.811882019 78.442497253 42.303901672 27.178199768 2.6434662342 117.95999908 -100.0050964
 195.22440000 11.881188393 80.574241638 42.597999573 27.227699280 2.6395003796 115.34519958 -99.69699860
 195.37680000 11.980196953 83.217811584 42.745098114 28.415800095 2.6214554310 114.53540039 -100.0000000
 195.52920000 12.130000114 87.035545349 42.597999573 30.097999573 2.6000397205 113.72260284 -100.1515045
 195.68160000 12.309999466 89.950538635 42.205898285 31.813699722 2.5639503002 112.67279816 -100.3030014
 195.83400000 12.599999428 82.736434937 41.225498199 33.823501587 2.5336110592 110.40000153 -100.6061020
 195.98640000 12.820000648 75.333183289 39.950500488 34.607799530 2.5395598412 107.04000092 -101.2120972
 196.13880000 12.729999542 73.484169006 38.316799164 32.696098328 2.5187387466 105.72000122 -101.6666946
 196.29120000 12.590000153 72.942665100 36.485099792 29.108900070 2.5044615269 102.83999634 -101.6666946
 196.44360000 12.360000610 71.911766052 34.607799530 24.702999115 2.4876065254 101.18399811 -101.3636017
 196.59600000 12.159999847 70.411758423 32.647098541 18.799999237 2.4509220123 102.05400085 -100.9090958
 196.74840000 12.070000648 71.588226318 30.784299850 16.200000763 2.4207816124 103.76399994 -100.9090958
 196.90080000 12.060000420 74.128700256 29.356399536 14.207900047 2.3920285702 108.47389984 -100.9090958
 197.05320000 12.149999619 78.964355469 28.217800140 13.415800095 2.3610944748 115.68000031 -100.7575989
 197.20560000 12.289999962 86.947273254 27.425699234 12.871299744 2.3109259605 121.31999969 -100.6061020
 197.35800000 12.489999771 92.697883606 27.128700256 12.524800301 2.2554035187 115.80000305 -100.0000000
 197.51040000 12.739999771 96.220390320 27.227699280 12.475199699 2.2119770050 106.91999817 -99.39389801
 197.66280000 12.880232811 99.940597534 27.524799347 12.475199699 2.1540749073 96.264099121 -98.93939972
 197.81520000 12.850688934 100.47524261 27.623800278 12.673299789 2.0989489555 76.355003357 -98.78789520
 197.96760000 12.781543732 102.94058990 27.574300766 13.514900208 2.0539362431 61.283901215 -98.78789520
 198.12000000 12.702826500 107.84250641 27.524799347 14.604000092 1.9940510988 58.055900574 -99.24239349
 198.27240000 12.613862038 123.76190186 27.623800278 15.808699608 1.9623240232 56.008300781 -99.66670227
 198.42480000 12.544555664 127.98999786 27.871299744 16.714500427 1.9990085363 80.354400635 -99.93180084
 198.57720000 12.504948616 123.49152374 28.366300583 17.268999100 2.1744992733 98.991203308 -99.89389801
 198.72960000 12.495050430 109.98019409 29.108900070 17.523500443 2.2837595940 103.79609680 -100.1591034
 198.88200000 12.485149384 88.868247986 29.851499557 18.069299698 2.4277215004 104.27999878 -100.6061020
 199.03440000 12.445543289 72.705863953 30.297000885 18.663400650 2.5137815475 107.63999939 -100.9090958
 199.18680000 11.980196953 76.653457642 30.544599533 18.663400650 2.5599842072 109.08000183 -101.3636017
 199.33920000 11.792078972 100.02896118 30.346500397 18.019800186 2.5550267696 107.76000214 -101.5152054
 199.49160000 11.831685066 113.66336823 30.197999954 17.079200745 2.5474917889 105.00599670 -101.8181992
 199.64400000 11.900991440 119.53000641 30.099000931 16.435600281 2.5385682583 99.040298462 -101.8181992
 199.79640000 12.019803047 84.385314941 30.346500397 16.386100769 2.5187387466 92.614799500 -101.6666946
 199.94880000 12.207921982 99.911674500 31.188100815 17.475200653 2.4866151810 90.477500916 -101.5152054
 200.10120000 12.227724075 104.52363586 32.524799347 19.009899139 2.4628198147 89.639999390 -101.6666946
 200.25360000 12.118810654 95.403678894 34.455398560 20.891099930 2.4931585789 91.919998169 -101.9696960
 200.40600000 11.970294952 80.514839172 36.225498199 23.811899185 2.6250247955 89.879997253 -102.5757980
 200.55840000 11.831685066 75.999992371 37.696098328 25.792100906 2.6910569668 86.760002136 -103.4848022
 200.71080000 11.829661369 85.677055359 38.732898712 27.732700348 2.6866943836 88.454200745 -104.3938980
 200.86320000 11.856835365 67.226478577 38.742298126 28.289600372 2.6747968197 98.267501831 -104.6969986
 201.01560000 11.834760666 65.478996277 37.863098145 27.460399628 2.6652789116 107.84539795 -105.1520004
 201.16800000 11.832231522 65.981491089 37.177398682 26.037099838 2.6642870903 110.60929871 -105.3031998
 201.32040000 11.881188393 70.000007629 36.443099976 24.851499557 2.6599247456 110.26200104 -105.6061020
 201.47280000 11.930693626 74.680023193 36.007400513 23.811899185 2.6613128185 108.35810089 -105.4544983
 201.62520000 11.990098953 79.534660339 35.574901581 22.524799347 2.6672616005 107.40409851 -105.1514969
 201.77760000 12.108960152 80.930709839 35.193698883 22.029699326 2.6563553810 108.59970093 -105.1514969
 201.93000000 12.237625122 80.158409119 34.801998138 21.584199905 2.6619076729 112.58290100 -105.6061020
 202.08240000 12.277228355 76.534637451 34.108898163 21.386100769 2.6718223095 113.45259857 -105.7575989
 202.23480000 12.267327309 72.558830261 33.168300629 20.990100861 2.6638906002 113.96250153 -105.9091034
 202.38720000 12.277228355 76.326728821 32.673301697 20.395999908 2.6628990173 115.31520081 -105.9091034
