~Version information
VERS.   2.0:
WRAP.   NO:
#==================================================================
~Well
STRT .m      3.0480000000 :
STOP .m      1342.0344000 :
STEP .m     0.15240000 :
NULL .        -999.250000 :
COMP.      			UNKNOWN                    : Company
WELL.data          MURPHY_et_al_BIRCH_GROVE_1  : Well Name
FLD . 				SSSB                       : Field
LOC . 				46-145 059-935	           : Location
CNTY.                                          : County
PROV. 				NS                         : Province
CTRY.				CAN                        : Country
UWI . 				4004614505993500           : Unique Well ID
DATE. 				1968-05-16                 : Log Date(s)
SON .                                          : Service Order No(s)
LIC . 				P-84                       : License No
~Parameter Information
#MNEM.UNIT       DATA                           : DESCRIPTION
#----.----       ---------                      : -----------
EKB .M            49.7400                      : Elevation Kelly Bushing
EGL .M            46.4500                      : Elevation Ground Level
DREF.M                 KB                      : Depth Reference
EREF.M            49.7400                      : Elevation of Depth Reference
DIGS.          QCDATA                          : Digitizing Company
SRVC. UNKNOWN OPERATOR-ADDRESS USED BY FIELD S : Service Company
RUN .                   1                      : Run Number
TDL .M          1342.9488                      : Total Depth, Logger
TDD .M          1343.5584                      : Total Depth, Driller
BOTL.M          1341.7296                      : Bottom of Logged Interval
TOPL.M           191.1096                      : Top of Logged Interval
CSGL.M           191.1096                      : Casing Bottom, Logger
CSGD.M           191.7192                      : Casing Bottom, Driller
CSGS.IN           10.7500                      : Casing Size (diameter)
CSGW.                                          : Casing Weight
BS  .MM              7.88                      : Bit Size
MUD .            GEL CHEM                      : API Mud Type
MUDD.KG/M3          11.00                      : Mud Density
MUDV.               75.00                      : Mud Viscosity
FL  .C3            8.0000                      : Fluid Loss
PH  .             11.5000                      : Mud Ph
MUDS.                CIRC                      : Mud Sample Location
RM  .OHM/M          1.300                      : Mud Resistivity
RMT .degF           60.00                      : Mud Temperature
RMF .OHM/M          1.100                      : Mud Filtrate Resistivity
RMFT.DEGC           60.00                      : Mud Filtrate Temperature
RMC .               1.500                      : Mud Cake Resistivity
RMCT.DEGC           60.00                      : Mud Cake Temperature
RW  .OHM/M                                     : Water Resistivity
RWT .DEGC                                      : Water Temperature
TMAX.DEGC          120.00                      : Max Temperature
TIMC.                 6.0                      : Hours Since Circ. Stopped
TIML.                                          : Date/Time Logger on Bottom
UNIT.                                          : Unit Number 
BASE.                                          : Logging Unit Home Base
ENG .                                          : Recording Engineer
WIT .                                          : Witnessed By
~Curve Information
# MNEM  .UNIT        API CODE   : Curve Description
#-----  .----      ------------ : -------------------
DEPT   .M      00 001 00 00 : 1 DEPTH
CALI .in       42 280 01 00 : 5 Density Caliper
DT .us/ft      61 520 32 00 : 7 Delta-T Compressional
RES .ohm.m     05 040 16 00 : 3 Resistivity (unspecified)
ILD .ohm.m     05 060 64 00 : 4 Induction Deep Resistivity
RHOB .g/cm3    42 350 01 00 : 6 Bulk Density
GR .gAPI       61 310 01 00 : 8 GAMMA RAY LOG FROM FDC A_0 CNL
SP .MV         05 010 01 00 : 2 Spontaneous Potential 
#==================================================================
~Ascii
# ...
 871.42320000 15.158417702 84.910881042 29.923299789 28.042100906 2.1919491291 92.792098999 -23.87829971
 871.57560000 14.831685066 92.217819214 29.143600464 28.153499603 2.2010707855 94.217796326 -23.89229965
 871.72800000 14.396039009 79.764701843 28.314399719 27.819299698 2.2470750809 96.475303650 -23.75919914
 871.88040000 14.168314934 73.558815002 27.425699234 27.425699234 2.2530241013 99.896102905 -23.63100052
 872.03280000 14.158416748 76.029708862 27.227699280 26.039600372 2.2613523006 99.272499084 -23.35409927
 872.18520000 13.689999580 74.794105530 26.980199814 22.950000763 2.1965100765 96.154403687 -23.37490082
 872.33760000 13.220000267 73.647056580 26.336599350 20.700000763 2.1386079788 94.593399048 -23.39579964
 872.49000000 13.059999466 80.147071838 25.544599533 18.316799164 2.0924053192 93.764701843 -23.39999962
 872.64240000 13.880000114 87.189987183 24.850000381 17.079200745 2.1104500294 92.941200256 -23.25000000
 872.79480000 14.405940056 81.970596313 24.250000000 16.584199905 2.1699388027 92.352897644 -24.00000000
 872.94720000 14.881189346 99.910881042 23.549999237 16.683200836 2.1689469814 93.176498413 -24.89999962
 873.09960000 15.059405327 106.32999420 23.149999619 16.881200790 2.2113821507 95.764701843 -25.50000000
 873.25200000 15.653464317 104.36632538 22.799999237 17.079200745 2.2484631538 96.237602234 -26.25000000
 873.40440000 15.574255943 79.411766052 22.799999237 16.831699371 2.2266507149 98.138603210 -26.85000038
 873.55680000 15.425744057 85.179992676 22.899999619 16.336599350 2.2464802265 95.176498413 -27.00000000
 873.70920000 15.277227402 83.306930542 23.149999619 15.891099930 2.2454891205 95.294097900 -27.14999962
 873.86160000 15.158417702 80.235282898 23.600000381 16.039600372 2.1909577847 97.782203674 -27.00000000
 874.01400000 15.089110374 84.287139893 24.100000381 16.435600281 2.1495141983 96.000000000 -26.85000038
 874.16640000 15.049504280 100.32675171 24.649999619 17.079200745 2.1554629803 96.950500488 -27.14999962
 874.31880000 15.475247383 89.666702271 25.247499466 18.217800140 2.2857425213 94.585502625 -27.89999962
 874.47120000 15.366338730 87.133872986 25.841600418 19.356399536 2.3793377876 94.109397888 -29.54999924
 874.62360000 15.019803047 89.286285400 26.534700394 20.600000381 2.4326789379 96.831703186 -30.59409904
 874.77600000 14.425744057 85.444190979 27.475200653 22.799999237 2.4663889408 93.862503052 -32.22769928
 874.92840000 14.347264290 78.652450562 28.465299606 24.899999619 2.5155661106 96.118797302 -34.43439865
 875.08080000 13.333027840 76.118164063 29.504899979 25.990100861 2.5825896263 93.742599487 -37.83900070
 875.23320000 12.458606720 74.643234253 30.346500397 26.633699417 2.5871505737 90.653503418 -41.71029663
 875.38560000 12.099949837 75.529197693 31.336599350 25.940599442 2.5825896263 88.396003723 -46.04010010
 875.53800000 11.811882019 76.623764038 32.277198792 25.049499512 2.5619671345 83.762397766 -50.34650040
 875.69040000 11.524751663 79.529418945 32.821800232 24.399999619 2.5722784996 70.930702209 -55.84159851
 875.84280000 11.465346336 86.841567993 33.316799164 24.700000763 2.5580012798 61.782199860 -59.40589905
 875.99520000 11.613862038 67.179992676 33.663398743 25.297000885 2.5445170403 47.755199432 -61.94999695
 876.14760000 11.554456711 58.780010223 33.960399628 26.287099838 2.5395598412 34.663898468 -63.90000153
 876.30000000 11.603960037 63.346523285 33.960399628 27.079200745 2.5619671345 29.180799484 -65.25000000
 876.45240000 11.861385345 63.910888672 34.059398651 27.376199722 2.5766408443 26.721900940 -66.00000000
 876.60480000 11.910889626 64.390007019 34.059398651 27.128700256 2.5708904266 25.474399567 -67.34999847
 876.75720000 11.613862038 64.449989319 34.108898163 26.138599396 2.5603806973 28.520799637 -68.40000153
 876.90960000 11.603960037 64.449989319 34.108898163 25.099000931 2.5574061871 29.241699219 -68.54999542
 877.06200000 11.594058037 64.630004883 34.257400513 23.850000381 2.5359904766 27.282899857 -68.54999542
 877.21440000 11.485149384 65.289985657 34.455398560 23.600000381 2.5510606766 27.517000198 -68.25000000
 877.36680000 11.524751663 65.596343994 34.653499603 23.253400803 2.5649414063 24.583000183 -67.91999817
 877.51920000 11.782176971 65.693817139 34.851501465 23.008899689 2.5554232597 27.963199615 -67.28250122
 877.67160000 11.732673645 65.310653687 35.346500397 22.666299820 2.5197303295 31.726900101 -66.34500122
 877.82400000 11.643563271 64.718338013 35.841598511 22.572999954 2.4905810356 30.858999252 -65.10750580
 877.97640000 11.504948616 64.209991455 36.336601257 22.178199768 2.4989094734 30.721599579 -64.04999542
 878.12880000 11.495051384 64.329986572 36.782199860 21.930700302 2.4671821594 31.069999695 -62.70000458
 878.28120000 11.455445290 64.870002747 37.277198792 22.029699326 2.4531033039 32.875598907 -61.20000076
 878.43360000 11.405941010 65.080009460 38.267299652 22.574300766 2.4770970345 33.459300995 -59.70019913
 878.58600000 11.485149384 64.510002136 39.505001068 23.613899231 2.4929604530 36.025100708 -57.72459793
 878.73840000 11.415843010 63.910007477 40.891101837 24.950500488 2.4929604530 40.320598602 -55.45299911
 878.89080000 11.376235962 63.849990845 42.475200653 28.366300583 2.4804680347 46.176101685 -53.19260025
 879.04320000 11.198019981 63.880016327 43.861400604 32.128700256 2.4774935246 52.653099060 -51.09209824
 879.19560000 11.011881828 65.019996643 44.851501465 68.354103088 2.4594488144 59.755100250 -49.12870026
 879.34800000 11.014358521 66.520011902 45.098999023 98.737602234 2.4301013947 68.673301697 -47.75500107
 879.50040000 11.224791527 66.640014648 43.861400604 177.41769409 2.4005551338 76.633697510 -46.38120270
 879.65280000 11.177762985 65.440010071 41.930698395 246.50900269 2.3606979847 83.049499512 -45.89850235
 879.80520000 11.099007607 64.360015869 39.264701843 312.37631226 2.3083481789 84.599998474 -45.41670227
 879.95760000 11.217823029 63.489990234 35.196098328 335.64358521 2.2623438835 82.336601257 -44.93280029
 880.11000000 11.277228355 63.070011139 30.495100021 118.31680298 2.2173306942 83.643600464 -44.74679947
 880.26240000 11.396039963 61.510013580 26.188100815 50.000000000 2.1124331951 82.693099976 -44.41320038
 880.41480000 11.269373894 57.700012207 22.380699158 22.926300049 2.0009915829 86.275199890 -44.25600052
 880.56720000 11.182716370 53.336616516 20.348100662 17.909599304 1.8494942188 83.164497375 -43.80660248
 880.71960000 11.204999924 51.168331146 19.354499817 14.536100388 1.7654174566 79.453102112 -43.20539856
 880.87200000 11.425354004 100.00000000 18.266399384 13.798100471 1.7668055296 75.003997803 -42.75109863
 881.02440000 11.732673645 109.05938721 17.574300766 13.050000191 1.7677969933 68.792098999 -42.14999771
 881.17680000 13.009944916 121.10401917 16.930700302 12.800000191 1.7677969933 63.445499420 -41.54999924
 881.32920000 14.442606926 129.33999634 16.237600327 13.300000191 1.7677969933 64.752502441 -40.80000305
 881.48160000 14.266835213 114.58415985 15.594099998 13.800000191 1.7677969933 63.920799255 -40.50000000
 881.63400000 13.979999542 97.029693604 15.296999931 14.300000191 1.7747372389 61.069301605 -40.04999924
 881.78640000 13.579999924 84.821784973 15.049500465 14.449999809 1.7909973860 57.479999542 -39.29999924
 881.93880000 13.430000305 69.639999390 15.000000000 14.250000000 1.9089827538 60.000000000 -38.70000076
 882.09120000 13.090000153 68.739990234 15.000000000 14.050000191 1.9841364622 57.720001221 -38.25000000
 882.24360000 12.653464317 77.250823975 15.148500443 13.850000381 2.0460042953 62.494998932 -37.95000076
 882.39600000 12.188118935 87.353485107 15.296999931 14.000000000 2.0715844631 62.613899231 -38.10000229
 882.54840000 12.415842056 99.851478577 15.594099998 14.899999619 2.1035099030 64.158401489 -38.70000076
 882.70080000 12.584156990 99.851478577 16.089099884 16.881200790 2.1177871227 63.920799255 -38.84999847
 882.85320000 12.435642242 97.207908630 16.534700394 19.009899139 2.1158041954 61.306900024 -39.00000000
 883.00560000 12.148515701 90.792083740 16.980199814 21.750000000 2.0456078053 58.200000763 -39.29999924
