~Version information
VERS.   2.0:
WRAP.   NO:
#==================================================================
~Well
STRT .m      3.0480000000 :
STOP .m      1342.0344000 :
STEP .m     0.15240000 :
NULL .        -999.250000 :
COMP.      			UNKNOWN                    : Company
WELL.data          MURPHY_et_al_BIRCH_GROVE_1  : Well Name
FLD . 				SSSB                       : Field
LOC . 				46-145 059-935	           : Location
CNTY.                                          : County
PROV. 				NS                         : Province
CTRY.				CAN                        : Country
UWI . 				4004614505993500           : Unique Well ID
DATE. 				1968-05-16                 : Log Date(s)
SON .                                          : Service Order No(s)
LIC . 				P-84                       : License No
~Parameter Information
#MNEM.UNIT       DATA                           : DESCRIPTION
#----.----       ---------                      : -----------
EKB .M            49.7400                      : Elevation Kelly Bushing
EGL .M            46.4500                      : Elevation Ground Level
DREF.M                 KB                      : Depth Reference
EREF.M            49.7400                      : Elevation of Depth Reference
DIGS.          QCDATA                          : Digitizing Company
SRVC. UNKNOWN OPERATOR-ADDRESS USED BY FIELD S : Service Company
RUN .                   1                      : Run Number
TDL .M          1342.9488                      : Total Depth, Logger
TDD .M          1343.5584                      : Total Depth, Driller
BOTL.M          1341.7296                      : Bottom of Logged Interval
TOPL.M           191.1096                      : Top of Logged Interval
CSGL.M           191.1096                      : Casing Bottom, Logger
CSGD.M           191.7192                      : Casing Bottom, Driller
CSGS.IN           10.7500                      : Casing Size (diameter)
CSGW.                                          : Casing Weight
BS  .MM              7.88                      : Bit Size
MUD .            GEL CHEM                      : API Mud Type
MUDD.KG/M3          11.00                      : Mud Density
MUDV.               75.00                      : Mud Viscosity
FL  .C3            8.0000                      : Fluid Loss
PH  .             11.5000                      : Mud Ph
MUDS.                CIRC                      : Mud Sample Location
RM  .OHM/M          1.300                      : Mud Resistivity
RMT .degF           60.00                      : Mud Temperature
RMF .OHM/M          1.100                      : Mud Filtrate Resistivity
RMFT.DEGC           60.00                      : Mud Filtrate Temperature
RMC .               1.500                      : Mud Cake Resistivity
RMCT.DEGC           60.00                      : Mud Cake Temperature
RW  .OHM/M                                     : Water Resistivity
RWT .DEGC                                      : Water Temperature
TMAX.DEGC          120.00                      : Max Temperature
TIMC.                 6.0                      : Hours Since Circ. Stopped
TIML.                                          : Date/Time Logger on Bottom
UNIT.                                          : Unit Number 
BASE.                                          : Logging Unit Home Base
ENG .                                          : Recording Engineer
WIT .                                          : Witnessed By
~Curve Information
# MNEM  .UNIT        API CODE   : Curve Description
#-----  .----      ------------ : -------------------
DEPT   .M      00 001 00 00 : 1 DEPTH
CALI .in       42 280 01 00 : 5 Density Caliper
DT .us/ft      61 520 32 00 : 7 Delta-T Compressional
RES .ohm.m     05 040 16 00 : 3 Resistivity (unspecified)
ILD .ohm.m     05 060 64 00 : 4 Induction Deep Resistivity
RHOB .g/cm3    42 350 01 00 : 6 Bulk Density
GR .gAPI       61 310 01 00 : 8 GAMMA RAY LOG FROM FDC A_0 CNL
SP .MV         05 010 01 00 : 2 Spontaneous Potential 
#==================================================================
~Ascii
# ...
 718.87080000 11.506929398 72.587387085 31.445499420 22.827100754 2.7180249691 38.424198151 -60.56999969
 719.02320000 11.519307137 68.576492310 30.517299652 21.839700699 2.7005751133 35.025901794 -60.38249969
 719.17560000 11.531681061 69.259002686 30.034700394 20.747699738 2.6976006031 32.581901550 -60.34500122
 719.32800000 11.573763847 70.298370361 29.700500488 20.249900818 2.6995835304 30.982200623 -60.60750198
 719.48040000 11.623763084 69.699989319 29.257400513 19.851499557 2.7104897499 32.326499939 -61.05000305
 719.63280000 11.683169365 69.909996033 28.960399628 19.702999115 2.7150504589 34.775501251 -62.10000229
 719.78520000 11.722771645 70.353965759 28.762399673 19.702999115 2.7094984055 30.979600906 -62.54999924
 719.93760000 11.772274971 70.500236511 28.514900208 19.702999115 2.6995835304 31.959199905 -62.54999924
 720.09000000 11.821783066 70.000007629 28.267299652 19.702999115 2.6886773109 30.244899750 -62.10000229
 720.24240000 11.891090393 71.352951050 28.019800186 19.752500534 2.6837201118 32.449001312 -61.65000153
 720.39480000 11.940594673 75.009994507 27.821800232 19.653499603 2.6807456017 30.489799500 -60.89999771
 720.54720000 11.970294952 79.179992676 27.574300766 19.455400467 2.6692442894 28.163299561 -60.75000000
 720.69960000 12.000000000 70.647064209 27.277200699 19.158399582 2.6692442894 29.142900467 -60.29999924
 720.85200000 12.039999962 71.235298157 26.980199814 19.108900070 2.6603212357 29.510200500 -60.00000000
 721.00440000 12.070000648 72.058837891 26.584199905 19.108900070 2.6609160900 29.755100250 -59.40589905
 721.15680000 12.070000648 71.529396057 26.386100769 19.405899048 2.6692442894 28.653099060 -58.81190109
 721.30920000 12.060000420 71.529396057 26.386100769 19.851499557 2.6761848927 31.714300156 -58.21780014
 721.46160000 12.020000458 78.257431030 26.782199860 20.149999619 2.6857028008 35.755100250 -57.92079926
 721.61400000 11.980196953 89.230018616 27.277200699 20.799999237 2.6896688938 33.795898438 -57.92079926
 721.76640000 11.970294952 82.742561340 27.772300720 21.200000763 2.7009716034 36.242401123 -58.06930161
 721.91880000 11.970236778 69.033996582 28.415800095 21.657100677 2.6890740395 37.818199158 -57.92079926
 722.07120000 11.960216522 70.341194153 28.613899231 21.764299393 2.6906602383 39.515201569 -57.47520065
 722.22360000 11.960118294 70.926956177 28.613899231 21.325500488 2.6960141659 41.090900421 -57.47520065
 722.37600000 11.970015526 70.921806335 28.415800095 20.542299271 2.6771762371 43.151500702 -58.36629868
 722.52840000 11.989999771 71.339324951 28.168300629 19.799999237 2.6827285290 39.757598877 -59.40470123
 722.68080000 12.000000000 71.581398010 27.821800232 19.200000763 2.6999802589 36.606098175 -60.44999695
 722.83320000 12.000000000 70.598144531 27.524799347 18.200000763 2.7019631863 31.224500656 -61.05000305
 722.98560000 12.029705048 71.259223938 27.178199768 17.549999237 2.6777710915 26.571399689 -61.94999695
 723.13800000 12.069307327 71.829986572 26.782199860 17.049999237 2.6698393822 24.857099533 -62.06999969
 723.29040000 12.148515701 71.229988098 26.386100769 16.850000381 2.6573467255 27.061199188 -62.03249741
 723.44280000 12.207921982 71.290008545 26.089099884 16.799999237 2.6539754868 29.020399094 -61.84500122
 723.59520000 12.227724075 70.779983521 25.841600418 16.950000763 2.6732103825 31.346900940 -61.65750122
 723.74760000 12.207921982 71.199996948 25.990100861 17.250000000 2.6791591644 33.800399780 -61.50000000
 723.90000000 12.178216934 72.189987183 26.188100815 17.500000000 2.6851081848 34.902999878 -61.34999847
 724.05240000 12.148515701 71.530006409 26.584199905 17.899999619 2.6960141659 32.109401703 -61.20000076
 724.20480000 12.118810654 70.300018311 26.980199814 18.350000381 2.7035493851 31.755399704 -60.89999771
 724.35720000 12.089110374 70.690010071 27.376199722 18.850000381 2.6916518211 29.939399719 -60.86999893
 724.50960000 12.079208374 71.379981995 27.821800232 19.500000000 2.6930398941 29.333299637 -60.83250046
 724.66200000 12.079208374 70.570007324 28.168300629 20.197999954 2.7019631863 28.969699860 -60.49499893
 724.81440000 12.069307327 69.010009766 28.514900208 20.792100906 2.7104897499 29.939399719 -60.00740051
 724.96680000 12.079208374 67.606010437 28.861400604 21.089099884 2.7025580406 30.677499771 -59.55360031
 725.11920000 12.099008560 68.903511047 29.158399582 20.742599487 2.6946263313 33.224800110 -58.95569992
 725.27160000 12.118810654 70.586860657 29.356399536 20.197999954 2.6976006031 35.638900757 -57.60720062
 725.42400000 12.148515701 74.336639404 29.356399536 19.600000381 2.7009716034 38.303001404 -56.25189972
 725.57640000 12.168314934 100.02079010 29.356399536 19.250000000 2.6952211857 40.751899719 -55.04999924
 725.72880000 12.188118935 106.89591980 29.455400467 20.049499512 2.6694428921 44.055000305 -54.00000000
 725.88120000 12.198019981 109.18865204 29.802000046 20.841600418 2.6595280170 49.649200439 -52.34999847
 726.03360000 12.198019981 67.240005493 30.297000885 21.287099838 2.6510014534 55.557300568 -51.00000000
 726.18600000 12.138613701 72.911758423 30.940599442 21.633699417 2.6525876522 64.944602966 -49.79999924
 726.33840000 12.019803047 75.376251221 31.683200836 21.782199860 2.6815388203 73.368797302 -49.50000000
 726.49080000 11.900000572 74.336639404 32.227699280 22.277200699 2.6839182377 76.135803223 -50.09999847
 726.64320000 11.840000153 74.188110352 32.425701141 22.920799255 2.6950228214 69.233802795 -50.70000076
 726.79560000 11.840000153 72.000007629 32.524799347 23.663400650 2.6920483112 58.680000305 -51.89999771
 726.94800000 11.840000153 67.510002136 32.425701141 23.762399673 2.6940312386 47.515201569 -53.39999771
 727.10040000 11.849999428 67.840003967 32.326698303 23.415800095 2.6944279671 39.030300140 -54.59999847
 727.25280000 11.869999886 69.309997559 32.178199768 22.524799347 2.6880824566 37.090900421 -55.50000000
 727.40520000 11.880000114 67.570014954 31.930700302 21.683200836 2.7055323124 36.751399994 -55.64999771
 727.55760000 11.880000114 66.579994202 31.633699417 21.386100769 2.7114810944 35.202499390 -55.64999771
 727.71000000 11.869999886 68.469993591 31.287099838 21.287099838 2.7168352604 36.569698334 -55.95000076
 727.86240000 11.829999924 69.610008240 30.940599442 21.237600327 2.7128694057 39.024200439 -56.25000000
 728.01480000 11.780000687 69.303993225 30.594100952 21.089099884 2.7089033127 36.363601685 -56.40719986
 728.16720000 11.750000000 69.296493530 30.297000885 20.891099930 2.7035493851 35.634399414 -56.86410141
 728.31960000 11.730000496 70.956619263 30.099000931 20.594100952 2.6845130920 36.969699860 -57.46769714
 728.47200000 11.739999771 70.328056335 30.000000000 20.495100021 2.6585366726 36.242401123 -57.91979980
 728.62440000 11.758483887 70.681808472 29.802000046 20.355699539 2.6444575787 33.595100403 -58.84000015
 728.77680000 11.766551971 70.798423767 29.702999115 20.367200851 2.6406900883 34.228298187 -59.02450180
 728.92920000 11.744788170 70.471984863 29.504899979 20.378599167 2.6337497234 33.521900177 -58.90719986
 729.08160000 11.733036041 70.470825195 29.207899094 20.242799759 2.6331548691 32.811798096 -59.09280014
 729.23400000 11.732673645 71.941177368 28.910900116 19.899999619 2.6391036510 33.673500061 -59.25000000
 729.38640000 11.742574692 77.693061829 28.613899231 19.350000381 2.6500101089 32.816299438 -58.50000000
 729.53880000 11.772274971 95.485153198 28.217800140 18.649999619 2.6464405060 31.224500656 -58.20000076
 729.69120000 11.821783066 95.841583252 27.920799255 18.299999237 2.6470355988 31.101999283 -58.35000229
 729.84360000 11.873220444 84.643569946 27.633699417 17.954099655 2.6464405060 27.795900345 -58.95000076
 729.99600000 11.895437241 73.089118958 27.299499512 17.710300446 2.6272060871 31.714300156 -59.09999847
 730.14840000 11.907992363 82.742561340 26.915800095 17.269100189 2.6159031391 31.591800690 -59.25000000
 730.30080000 11.880704880 99.821784973 26.284700394 16.582500458 2.6083679199 28.163299561 -59.25000000
 730.45320000 11.851483345 99.792068481 25.544599533 15.594099998 2.6044020653 26.938800812 -58.64999771
