~Version information
VERS.   2.0:
WRAP.   NO:
#==================================================================
~Well
STRT .m      3.0480000000 :
STOP .m      1342.0344000 :
STEP .m     0.15240000 :
NULL .        -999.250000 :
COMP.      			UNKNOWN                    : Company
WELL.data          MURPHY_et_al_BIRCH_GROVE_1  : Well Name
FLD . 				SSSB                       : Field
LOC . 				46-145 059-935	           : Location
CNTY.                                          : County
PROV. 				NS                         : Province
CTRY.				CAN                        : Country
UWI . 				4004614505993500           : Unique Well ID
DATE. 				1968-05-16                 : Log Date(s)
SON .                                          : Service Order No(s)
LIC . 				P-84                       : License No
~Parameter Information
#MNEM.UNIT       DATA                           : DESCRIPTION
#----.----       ---------                      : -----------
EKB .M            49.7400                      : Elevation Kelly Bushing
EGL .M            46.4500                      : Elevation Ground Level
DREF.M                 KB                      : Depth Reference
EREF.M            49.7400                      : Elevation of Depth Reference
DIGS.          QCDATA                          : Digitizing Company
SRVC. UNKNOWN OPERATOR-ADDRESS USED BY FIELD S : Service Company
RUN .                   1                      : Run Number
TDL .M          1342.9488                      : Total Depth, Logger
TDD .M          1343.5584                      : Total Depth, Driller
BOTL.M          1341.7296                      : Bottom of Logged Interval
TOPL.M           191.1096                      : Top of Logged Interval
CSGL.M           191.1096                      : Casing Bottom, Logger
CSGD.M           191.7192                      : Casing Bottom, Driller
CSGS.IN           10.7500                      : Casing Size (diameter)
CSGW.                                          : Casing Weight
BS  .MM              7.88                      : Bit Size
MUD .            GEL CHEM                      : API Mud Type
MUDD.KG/M3          11.00                      : Mud Density
MUDV.               75.00                      : Mud Viscosity
FL  .C3            8.0000                      : Fluid Loss
PH  .             11.5000                      : Mud Ph
MUDS.                CIRC                      : Mud Sample Location
RM  .OHM/M          1.300                      : Mud Resistivity
RMT .degF           60.00                      : Mud Temperature
RMF .OHM/M          1.100                      : Mud Filtrate Resistivity
RMFT.DEGC           60.00                      : Mud Filtrate Temperature
RMC .               1.500                      : Mud Cake Resistivity
RMCT.DEGC           60.00                      : Mud Cake Temperature
RW  .OHM/M                                     : Water Resistivity
RWT .DEGC                                      : Water Temperature
TMAX.DEGC          120.00                      : Max Temperature
TIMC.                 6.0                      : Hours Since Circ. Stopped
TIML.                                          : Date/Time Logger on Bottom
UNIT.                                          : Unit Number 
BASE.                                          : Logging Unit Home Base
ENG .                                          : Recording Engineer
WIT .                                          : Witnessed By
~Curve Information
# MNEM  .UNIT        API CODE   : Curve Description
#-----  .----      ------------ : -------------------
DEPT   .M      00 001 00 00 : 1 DEPTH
CALI .in       42 280 01 00 : 5 Density Caliper
DT .us/ft      61 520 32 00 : 7 Delta-T Compressional
RES .ohm.m     05 040 16 00 : 3 Resistivity (unspecified)
ILD .ohm.m     05 060 64 00 : 4 Induction Deep Resistivity
RHOB .g/cm3    42 350 01 00 : 6 Bulk Density
GR .gAPI       61 310 01 00 : 8 GAMMA RAY LOG FROM FDC A_0 CNL
SP .MV         05 010 01 00 : 2 Spontaneous Potential 
#==================================================================
~Ascii
# ...
 801.01440000 10.413732529 63.969993591 43.910900116 56.930698395 2.4638113976 46.639198303 -55.50000000
 801.16680000 10.436247826 63.969993591 43.069301605 67.857101440 2.4243505001 50.597900391 -54.73049927
 801.31920000 10.560039520 64.120018005 42.079200745 79.338600159 2.3848898411 54.309299469 -54.40769958
 801.47160000 10.501980782 64.419998169 40.643600464 73.429702759 2.3569304943 54.185600281 -53.93740082
 801.62400000 10.474236488 63.400012970 39.009899139 60.994499207 2.3162798882 54.185600281 -53.32089996
 801.77640000 10.464645386 62.169994354 37.128700256 44.653499603 2.2520325184 51.605098724 -52.70800018
 801.92880000 10.515153885 62.049995422 34.455398560 31.584199905 2.1054928303 46.700698853 -51.94339752
 802.08120000 10.686869621 64.120018005 33.366298676 27.178199768 2.0009915829 49.805801392 -51.32669830
 802.23360000 10.949496269 61.839984894 33.019798279 22.970300674 1.9050168991 53.385101318 -50.40489960
 802.38600000 11.287129402 56.050006866 32.772300720 22.178199768 1.7753322124 57.183700562 -48.75000000
 802.53840000 11.554456711 65.649986267 32.079200745 21.138599396 1.7677969933 64.990097046 -47.54999924
 802.69080000 11.693071365 92.500000000 31.188100815 20.099000931 1.7677969933 75.239997864 -46.50000000
 802.84320000 12.170000076 95.247528076 30.495100021 20.000000000 1.7687884569 84.475303650 -46.04999924
 802.99560000 13.277228355 81.316833496 30.445499420 21.485099792 1.7733492851 88.871299744 -45.59880066
 803.14800000 14.880000114 79.712875366 31.138599396 26.039600372 1.7737458944 91.841598511 -45.14929962
 803.30040000 14.530000687 76.264709473 32.029701233 31.534700394 1.7783066034 90.772300720 -44.85049820
 803.45280000 12.939999580 83.306930542 32.871299744 37.079200745 1.8296648264 89.108901978 -44.70020294
 803.60520000 11.306929588 85.720001221 33.712898254 40.841598511 1.9698592424 86.376197815 -44.39999771
 803.75760000 11.297027588 68.080009460 34.653499603 41.435600281 2.1395995617 89.703002930 -44.25000000
 803.91000000 12.180000305 72.108917236 35.494998932 40.544601440 2.2325994968 90.296997070 -44.25000000
 804.06240000 13.079209328 72.108917236 36.386100769 41.089099884 2.3291690350 89.584197998 -43.95000076
 804.21480000 13.742574692 67.360008240 37.227699280 43.069301605 2.3985722065 91.009902954 -43.95000076
 804.36720000 12.680000305 66.310005188 38.069301605 51.219501495 2.4564743042 90.534698486 -43.95000076
 804.51960000 11.554456711 75.049499512 37.821800232 51.837100983 2.4733293056 88.158401489 -43.95000076
 804.67200000 11.752476692 85.503623962 37.524799347 43.613899231 2.4598453045 87.089103699 -43.50000000
 804.82440000 12.300000191 83.396049500 36.881198883 33.465301514 2.4193933010 87.785102844 -44.55089951
 804.97680000 11.891090393 79.089103699 36.188098907 28.910900116 2.4356532097 84.542900085 -45.59669876
 805.12920000 11.544554710 99.910881042 35.693099976 25.792100906 2.4069006443 80.460800171 -46.04690170
 805.28160000 11.178215981 106.35642242 35.742599487 24.754800797 2.4084870815 75.209503174 -46.94899750
 805.43400000 11.207921028 112.83168793 36.386100769 25.395999908 2.4233591557 72.118797302 -47.85000229
 805.58640000 11.267326355 119.31999207 37.673301697 26.683200836 2.3989689350 70.336601257 -48.59999847
 805.73880000 11.099007607 126.45999908 38.415798187 28.168300629 2.3662502766 70.693099976 -49.64999771
 805.89120000 11.099007607 131.80000305 38.861400604 29.851499557 2.3969860077 71.762397766 -50.25000000
 806.04360000 11.227725029 112.53466034 39.604698181 31.841600418 2.3823120594 68.554496765 -51.15000153
 806.19600000 11.475248337 76.029396057 41.485099792 37.092498779 2.3936150074 65.227699280 -52.34999847
 806.34840000 11.534653664 80.693054199 43.366298676 47.877201080 2.4901843071 61.188098907 -52.94999695
 806.50080000 11.534653664 99.910881042 45.198001862 56.413501740 2.5127899647 53.520000458 -53.10000229
 806.65320000 11.435641289 99.910881042 45.990100861 67.326698303 2.5296449661 44.554500580 -52.65000153
 806.80560000 11.108909607 92.889999390 46.732700348 71.287101746 2.5835812092 37.069301605 -52.65000153
 806.95800000 10.889999390 83.425743103 46.386100769 63.861400604 2.5790205002 36.237598419 -52.50000000
 807.11040000 10.789999962 74.336639404 45.841598511 56.435600281 2.5689074993 38.376201630 -52.04999924
 807.26280000 10.771535873 66.226181030 44.110698700 49.000000000 2.5629584789 36.356399536 -51.15000153
 807.41520000 10.763413429 62.054748535 42.387901306 32.683601379 2.5474917889 38.376201630 -50.54999924
 807.56760000 10.735109329 63.235637665 40.771900177 28.895999908 2.5474917889 41.940601349 -49.35000229
 807.72000000 10.716760635 64.148452759 38.710800171 26.383699417 2.5445170403 44.435600281 -48.45000076
 807.87240000 10.686256409 65.019996643 36.591300964 24.149999619 2.5332143307 48.000000000 -47.54479980
 808.02480000 10.665161133 71.188110352 35.761001587 23.000000000 2.5197303295 52.200000763 -46.49309921
 808.17720000 10.643957138 85.683181763 35.673301697 22.399999619 2.5088241100 57.959999084 -45.74480057
 808.32960000 10.632842064 94.000015259 35.585998535 22.649999619 2.4905810356 64.871299744 -45.74300003
 808.48200000 10.663264275 91.990013123 35.539199829 23.149999619 2.4657940865 77.703002930 -45.74259949
 808.63440000 10.755102158 87.999992371 36.519599915 24.700000763 2.4618282318 86.879997253 -47.22769928
 808.78680000 10.979591370 73.475234985 37.500000000 28.415800095 2.5266706944 83.049499512 -48.56439972
 808.93920000 11.138614655 67.240005493 38.039199829 30.395999908 2.6143169403 80.435600281 -49.60400009
 809.09160000 11.019803047 68.859992981 38.039199829 30.891099930 2.6460440159 76.514900208 -51.08909988
 809.24400000 10.979591370 75.287124634 37.892200470 30.693099976 2.6202657223 71.762397766 -53.16830063
 809.39640000 11.000000000 77.235282898 37.745098114 28.316799164 2.6123340130 66.891098022 -54.95050049
 809.54880000 11.059406281 65.379997253 37.548999786 26.732700348 2.5964703560 61.425701141 -56.28709793
 809.70120000 11.158417702 63.700000763 37.500000000 25.643600464 2.5484831333 54.959999084 -57.02970123
 809.85360000 11.257425308 66.909996033 37.794101715 25.742599487 2.5282568932 51.959999084 -57.32670212
 810.00600000 11.277228355 72.316848755 37.941200256 25.940599442 2.5207216740 53.759998322 -57.47520065
 810.15840000 11.257425308 80.722778320 37.843101501 26.188100815 2.4991075993 57.479999542 -57.47520065
 810.31080000 11.245543480 81.257423401 37.696098328 26.138599396 2.4882013798 55.799999237 -57.62379837
 810.46320000 11.223267555 62.529991150 37.352901459 25.891099930 2.5127899647 47.159999847 -58.06930161
 810.61560000 11.181189537 58.540008545 36.421600342 26.138599396 2.6073768139 40.919998169 -58.81190109
 810.76800000 11.079704285 60.340007782 35.048999786 25.693099976 2.6979973316 33.841098785 -59.10890198
 810.92040000 11.000000000 61.994003296 33.564399719 24.700000763 2.6910569668 34.416000366 -59.25740051
 811.07280000 10.939393997 63.611759186 32.128700256 23.549999237 2.6726155281 40.043498993 -60.00000000
 811.22520000 10.919193268 65.110000610 31.237600327 21.500000000 2.6686496735 45.824901581 -60.44999695
 811.37760000 10.919193268 66.760009766 30.594100952 20.000000000 2.6698393822 54.959999084 -60.75000000
 811.53000000 10.909090996 66.939994812 30.346500397 19.009899139 2.6777710915 60.950500488 -61.34999847
 811.68240000 10.909090996 67.449989319 30.297000885 18.168300629 2.6807456017 57.950901031 -63.00000000
 811.83480000 10.919193268 65.470001221 30.247499466 17.128700256 2.6692442894 51.902698517 -64.04999542
 811.98720000 10.898988724 64.299995422 29.900999069 16.782199860 2.6609160900 45.340099335 -64.50000000
 812.13960000 10.797979355 66.370018005 29.405899048 16.485099792 2.6654767990 38.666698456 -64.80000305
 812.29200000 10.747476578 71.396049500 28.861400604 16.237600327 2.6609160900 38.424198151 -64.80000305
 812.44440000 10.707071304 77.352935791 28.762399673 15.940600395 2.6664686203 41.090900421 -64.94999695
 812.59680000 10.686869621 77.617652893 28.960399628 15.792099953 2.6565537453 42.909099579 -64.50000000
