~Version information
VERS.   2.0:
WRAP.   NO:
#==================================================================
~Well
STRT .m      3.0480000000 :
STOP .m      1342.0344000 :
STEP .m     0.15240000 :
NULL .        -999.250000 :
COMP.      			UNKNOWN                    : Company
WELL.data          MURPHY_et_al_BIRCH_GROVE_1  : Well Name
FLD . 				SSSB                       : Field
LOC . 				46-145 059-935	           : Location
CNTY.                                          : County
PROV. 				NS                         : Province
CTRY.				CAN                        : Country
UWI . 				4004614505993500           : Unique Well ID
DATE. 				1968-05-16                 : Log Date(s)
SON .                                          : Service Order No(s)
LIC . 				P-84                       : License No
~Parameter Information
#MNEM.UNIT       DATA                           : DESCRIPTION
#----.----       ---------                      : -----------
EKB .M            49.7400                      : Elevation Kelly Bushing
EGL .M            46.4500                      : Elevation Ground Level
DREF.M                 KB                      : Depth Reference
EREF.M            49.7400                      : Elevation of Depth Reference
DIGS.          QCDATA                          : Digitizing Company
SRVC. UNKNOWN OPERATOR-ADDRESS USED BY FIELD S : Service Company
RUN .                   1                      : Run Number
TDL .M          1342.9488                      : Total Depth, Logger
TDD .M          1343.5584                      : Total Depth, Driller
BOTL.M          1341.7296                      : Bottom of Logged Interval
TOPL.M           191.1096                      : Top of Logged Interval
CSGL.M           191.1096                      : Casing Bottom, Logger
CSGD.M           191.7192                      : Casing Bottom, Driller
CSGS.IN           10.7500                      : Casing Size (diameter)
CSGW.                                          : Casing Weight
BS  .MM              7.88                      : Bit Size
MUD .            GEL CHEM                      : API Mud Type
MUDD.KG/M3          11.00                      : Mud Density
MUDV.               75.00                      : Mud Viscosity
FL  .C3            8.0000                      : Fluid Loss
PH  .             11.5000                      : Mud Ph
MUDS.                CIRC                      : Mud Sample Location
RM  .OHM/M          1.300                      : Mud Resistivity
RMT .degF           60.00                      : Mud Temperature
RMF .OHM/M          1.100                      : Mud Filtrate Resistivity
RMFT.DEGC           60.00                      : Mud Filtrate Temperature
RMC .               1.500                      : Mud Cake Resistivity
RMCT.DEGC           60.00                      : Mud Cake Temperature
RW  .OHM/M                                     : Water Resistivity
RWT .DEGC                                      : Water Temperature
TMAX.DEGC          120.00                      : Max Temperature
TIMC.                 6.0                      : Hours Since Circ. Stopped
TIML.                                          : Date/Time Logger on Bottom
UNIT.                                          : Unit Number 
BASE.                                          : Logging Unit Home Base
ENG .                                          : Recording Engineer
WIT .                                          : Witnessed By
~Curve Information
# MNEM  .UNIT        API CODE   : Curve Description
#-----  .----      ------------ : -------------------
DEPT   .M      00 001 00 00 : 1 DEPTH
CALI .in       42 280 01 00 : 5 Density Caliper
DT .us/ft      61 520 32 00 : 7 Delta-T Compressional
RES .ohm.m     05 040 16 00 : 3 Resistivity (unspecified)
ILD .ohm.m     05 060 64 00 : 4 Induction Deep Resistivity
RHOB .g/cm3    42 350 01 00 : 6 Bulk Density
GR .gAPI       61 310 01 00 : 8 GAMMA RAY LOG FROM FDC A_0 CNL
SP .MV         05 010 01 00 : 2 Spontaneous Potential 
#==================================================================
~Ascii
# ...
 413.76600000 12.460000038 67.600006104 40.491600037 30.835800171 2.6851081848 58.680000305 -44.85150146
 413.91840000 12.460000038 67.720008850 40.245201111 30.735700607 2.6777710915 59.279998779 -45.60000229
 414.07080000 12.460000038 68.104141235 39.990200043 30.637300491 2.6718223095 59.663299561 -45.89820099
 414.22320000 12.489999771 68.426841736 39.731399536 30.637300491 2.6708309650 61.726200104 -46.04529953
 414.37560000 12.520000458 68.088783264 39.523101807 30.343099594 2.6747968197 59.480400085 -46.04269791
 414.52800000 12.549999237 67.631462097 39.070598602 30.048999786 2.6787626743 57.570899963 -46.33729935
 414.68040000 12.569999695 67.869995117 38.389099121 29.705900192 2.6811420918 58.427501678 -47.05290222
 414.83280000 12.599999428 67.750000000 37.806701660 29.264699936 2.6860995293 53.484901428 -47.76589966
 414.98520000 12.609999657 67.659988403 37.171901703 28.431400299 2.6936347485 55.064800262 -48.48539734
 415.13760000 12.640000343 67.899993896 36.435001373 27.647100449 2.6910569668 56.998500824 -50.10509872
 415.29000000 12.659999847 68.139991760 35.701999664 26.960800171 2.6870911121 53.183998108 -51.75000000
 415.44240000 12.690000534 68.410011292 34.924198151 26.421600342 2.6857028008 48.414001465 -53.55000305
 415.59480000 12.700000763 68.530014038 34.293800354 25.539199829 2.6722187996 44.423198700 -54.75000000
 415.74720000 12.719999313 68.619987488 33.710998535 24.604000092 2.6668648720 43.465599060 -55.50000000
 415.89960000 12.729999542 68.709999084 33.172000885 23.861400604 2.6722187996 43.234298706 -55.64999771
 416.05200000 12.739999771 68.650009155 32.733100891 23.366300583 2.6728138924 43.002799988 -55.50000000
 416.20440000 12.739999771 68.259994507 32.443298340 23.019800186 2.6751933098 46.784198761 -55.50000000
 416.35680000 12.729999542 67.899993896 32.155399323 22.623800278 2.6751933098 44.362098694 -56.09999847
 416.50920000 12.710000992 68.379989624 31.915599823 22.277200699 2.6742019653 45.717098236 -56.40000153
 416.66160000 12.680000305 69.130012512 31.575799942 21.831699371 2.6702358723 48.414100647 -57.00000000
 416.81400000 12.659999847 69.669998169 31.283199310 21.435600281 2.6623041630 49.284301758 -57.14999771
 416.96640000 12.700000763 69.189994812 31.039100647 21.138599396 2.6529843807 46.892700195 -57.14999771
 417.11880000 12.760000229 70.023567200 30.891099930 20.841600418 2.6450524330 47.144699097 -56.69999695
 417.27120000 12.840000153 71.050216675 30.742599487 20.841600418 2.6444575787 46.537498474 -55.79999924
 417.42360000 12.909999847 71.311950684 30.594100952 20.990100861 2.6424746513 45.203498840 -54.59999847
 417.57600000 12.980000496 70.031188965 30.445499420 21.237600327 2.6311719418 44.119201660 -53.70000076
 417.72840000 13.049504280 69.130012512 30.346500397 21.485099792 2.6281974316 43.272701263 -53.11410141
 417.88080000 13.029704094 68.769981384 30.197999954 21.584199905 2.6301803589 40.363601685 -53.13169861
 418.03320000 12.999999046 69.760002136 30.049499512 21.485099792 2.6278007030 38.424198151 -53.44540024
 418.18560000 12.980000496 69.760002136 29.900999069 21.237600327 2.6228435040 40.121200562 -54.35359955
 418.33800000 12.970000267 69.064239502 29.752500534 20.643600464 2.6232402325 37.575801849 -55.09899902
 418.49040000 12.970000267 68.576858521 29.504899979 19.950500488 2.6178860664 38.424198151 -55.84159851
 418.64280000 12.980000496 68.358650208 29.009899139 18.960399628 2.6331548691 36.848499298 -55.99010086
 418.79520000 12.980000496 68.891777039 28.564399719 18.465299606 2.6406900883 37.575801849 -55.39599991
 418.94760000 12.980000496 69.730010986 28.178199768 18.125000000 2.6400952339 37.212100983 -54.65349960
 419.10000000 12.999999046 70.500000000 27.893600464 18.182500839 2.6400952339 37.212100983 -54.05940247
 419.25240000 13.019803047 70.176483154 27.955400467 18.439699173 2.6347413063 39.636398315 -53.46529770
 419.40480000 13.029704094 69.699989319 28.314399719 18.947999954 2.6272060871 40.484798431 -53.16830063
 419.55720000 13.029704094 69.213981628 28.762399673 19.649999619 2.6232402325 42.303001404 -52.87130356
 419.70960000 13.039602280 68.786506653 29.207899094 20.544599533 2.6208605766 45.575801849 -52.57429886
 419.86200000 13.039602280 68.989013672 29.653499603 22.029699326 2.6228435040 45.575801849 -51.68319702
 420.01440000 13.049504280 69.491508484 30.099000931 23.069299698 2.6202657223 43.272701263 -50.79210281
 420.16680000 13.049504280 69.604003906 30.503999710 24.265699387 2.6159031391 44.854900360 -50.04949951
 420.31920000 13.029704094 68.276512146 30.268600464 25.467800140 2.6410865784 47.517299652 -49.60400009
 420.47160000 13.029704094 67.308982849 29.935600281 26.173299789 2.6460440159 48.727298737 -49.45540237
 420.62400000 13.019803047 67.691505432 29.205400467 25.344100952 2.6426730156 47.159599304 -49.60400009
 420.77640000 13.009901047 67.600006104 28.069299698 23.799999237 2.6361293793 45.620098114 -49.88159943
 420.92880000 12.990000725 67.389999390 26.782199860 21.399999619 2.6252231598 44.316600800 -50.60219955
 421.08120000 12.970000267 67.389999390 25.099000931 17.700000763 2.6109457016 42.404598236 -51.47590256
 421.23360000 12.939999580 67.809982300 22.700000763 15.600000381 2.6103510857 40.603698730 -51.30440140
 421.38600000 12.920000076 67.779991150 20.899999619 12.920800209 2.6089627743 43.660598755 -51.00000000
 421.53840000 12.899999619 68.019989014 19.600000381 11.237600327 2.6000397205 40.902999878 -50.84999847
 421.69080000 12.869999886 71.029403687 18.799999237 10.594099998 2.5984532833 42.387901306 -50.84999847
 421.84320000 12.880000114 74.306915283 18.700000763 10.000000000 2.6040055752 43.509101868 -50.70000076
 421.99560000 12.889999390 73.801986694 19.049999237 9.6999998093 2.6079714298 44.363601685 -50.83829880
 422.14800000 12.889999390 70.411758423 19.850000381 9.8000001907 2.5909183025 44.484798431 -50.82379913
 422.30040000 12.869999886 70.470588684 20.750000000 10.346500397 2.5909183025 45.939399719 -50.95829773
 422.45280000 12.829999924 71.382362366 21.750000000 11.485099792 2.6053936481 47.515201569 -50.94350052
 422.60520000 12.800000191 71.500015259 22.700000763 12.821800232 2.6218523979 48.984001160 -50.79210281
 422.75760000 12.810000420 69.639999390 24.149999619 14.505000114 2.6377155781 48.773998260 -51.23760223
 422.91000000 12.800000191 69.130012512 25.197999954 16.250000000 2.6400952339 47.236400604 -52.27719879
 423.06240000 12.789999962 69.669998169 26.435600281 17.950000763 2.6420781612 48.473999023 -53.91090012
 423.21480000 12.790421486 70.288795471 27.673299789 19.200000763 2.6351377964 46.666698456 -55.54460144
 423.36720000 12.780983925 69.747627258 28.712900162 20.450000763 2.6162998676 44.969699860 -56.73270035
 423.51960000 12.781527519 68.847061157 29.207899094 21.350000381 2.6202657223 44.363601685 -57.47520065
 423.67200000 12.782070160 68.010391235 29.356399536 21.649999619 2.6287922859 45.575801849 -57.77230072
 423.82440000 12.762373924 67.291671753 29.158399582 21.750000000 2.6262145042 43.903900146 -58.06930161
 423.97680000 12.752475739 66.986564636 28.564399719 21.500000000 2.6258180141 40.419200897 -58.66340256
 424.12920000 12.742574692 66.830200195 27.722799301 20.250000000 2.6260163784 36.691699982 -58.96039963
 424.28160000 12.752475739 67.031494141 26.831699371 18.850000381 2.6190760136 36.236499786 -59.10890198
 424.43400000 12.752475739 68.019989014 25.742599487 17.450000763 2.6099543571 38.666698456 -59.25740051
 424.58640000 12.752475739 69.940017700 24.549999237 16.049999237 2.5980567932 39.151500702 -59.25740051
 424.73880000 12.752475739 71.147056580 23.299999237 14.752499580 2.5964703560 38.424198151 -59.10890198
 424.89120000 12.752475739 69.760002136 21.899999619 14.059399605 2.5891335011 38.787899017 -59.10890198
 425.04360000 12.772275925 68.169982910 21.700000763 14.059399605 2.5956768990 36.848499298 -59.10890198
 425.19600000 12.782176971 70.617652893 22.299999237 13.960399628 2.5936942101 39.030300140 -59.10890198
 425.34840000 12.782176971 73.653457642 23.299999237 14.207900047 2.5774340630 37.575801849 -59.10890198
