~Version information
VERS.   2.0:
WRAP.   NO:
#==================================================================
~Well
STRT .m      3.0480000000 :
STOP .m      1342.0344000 :
STEP .m     0.15240000 :
NULL .        -999.250000 :
COMP.      			UNKNOWN                    : Company
WELL.data          MURPHY_et_al_BIRCH_GROVE_1  : Well Name
FLD . 				SSSB                       : Field
LOC . 				46-145 059-935	           : Location
CNTY.                                          : County
PROV. 				NS                         : Province
CTRY.				CAN                        : Country
UWI . 				4004614505993500           : Unique Well ID
DATE. 				1968-05-16                 : Log Date(s)
SON .                                          : Service Order No(s)
LIC . 				P-84                       : License No
~Parameter Information
#MNEM.UNIT       DATA                           : DESCRIPTION
#----.----       ---------                      : -----------
EKB .M            49.7400                      : Elevation Kelly Bushing
EGL .M            46.4500                      : Elevation Ground Level
DREF.M                 KB                      : Depth Reference
EREF.M            49.7400                      : Elevation of Depth Reference
DIGS.          QCDATA                          : Digitizing Company
SRVC. UNKNOWN OPERATOR-ADDRESS USED BY FIELD S : Service Company
RUN .                   1                      : Run Number
TDL .M          1342.9488                      : Total Depth, Logger
TDD .M          1343.5584                      : Total Depth, Driller
BOTL.M          1341.7296                      : Bottom of Logged Interval
TOPL.M           191.1096                      : Top of Logged Interval
CSGL.M           191.1096                      : Casing Bottom, Logger
CSGD.M           191.7192                      : Casing Bottom, Driller
CSGS.IN           10.7500                      : Casing Size (diameter)
CSGW.                                          : Casing Weight
BS  .MM              7.88                      : Bit Size
MUD .            GEL CHEM                      : API Mud Type
MUDD.KG/M3          11.00                      : Mud Density
MUDV.               75.00                      : Mud Viscosity
FL  .C3            8.0000                      : Fluid Loss
PH  .             11.5000                      : Mud Ph
MUDS.                CIRC                      : Mud Sample Location
RM  .OHM/M          1.300                      : Mud Resistivity
RMT .degF           60.00                      : Mud Temperature
RMF .OHM/M          1.100                      : Mud Filtrate Resistivity
RMFT.DEGC           60.00                      : Mud Filtrate Temperature
RMC .               1.500                      : Mud Cake Resistivity
RMCT.DEGC           60.00                      : Mud Cake Temperature
RW  .OHM/M                                     : Water Resistivity
RWT .DEGC                                      : Water Temperature
TMAX.DEGC          120.00                      : Max Temperature
TIMC.                 6.0                      : Hours Since Circ. Stopped
TIML.                                          : Date/Time Logger on Bottom
UNIT.                                          : Unit Number 
BASE.                                          : Logging Unit Home Base
ENG .                                          : Recording Engineer
WIT .                                          : Witnessed By
~Curve Information
# MNEM  .UNIT        API CODE   : Curve Description
#-----  .----      ------------ : -------------------
DEPT   .M      00 001 00 00 : 1 DEPTH
CALI .in       42 280 01 00 : 5 Density Caliper
DT .us/ft      61 520 32 00 : 7 Delta-T Compressional
RES .ohm.m     05 040 16 00 : 3 Resistivity (unspecified)
ILD .ohm.m     05 060 64 00 : 4 Induction Deep Resistivity
RHOB .g/cm3    42 350 01 00 : 6 Bulk Density
GR .gAPI       61 310 01 00 : 8 GAMMA RAY LOG FROM FDC A_0 CNL
SP .MV         05 010 01 00 : 2 Spontaneous Potential 
#==================================================================
~Ascii
# ...
 343.35720000 13.900000572 74.366325378 25.594100952 17.970300674 2.5899267197 56.159999847 -57.59999847
 343.50960000 13.910000801 73.534645081 26.089099884 18.415800095 2.5915129185 55.799999237 -56.40000153
 343.66200000 13.910000801 73.089118958 26.683200836 19.455400467 2.5940909386 53.400001526 -56.40000153
 343.81440000 13.929999352 74.633659363 27.227699280 20.049999237 2.5929009914 56.279998779 -57.45000076
 343.96680000 13.929999352 75.198036194 27.871299744 20.950000763 2.5899267197 59.302600861 -58.79999924
 344.11920000 13.919999123 73.564361572 28.514900208 21.750000000 2.5760459900 61.248100281 -58.95000076
 344.27160000 13.919999123 71.371055603 29.059400558 23.450000763 2.5649414063 56.943000793 -58.20000076
 344.42400000 13.900000572 70.684188843 29.356399536 24.750000000 2.5554232597 55.269699097 -57.75000000
 344.57640000 13.828307152 71.007797241 29.702999115 25.693099976 2.5449137688 55.645698547 -57.87429810
 344.72880000 13.786390305 71.478645325 30.000000000 25.990100861 2.5449137688 54.569698334 -58.58890152
 344.88120000 13.754806519 70.530998230 30.099000931 25.742599487 2.5344040394 50.611698151 -59.44890213
 345.03360000 13.733090401 69.429992676 30.049499512 25.445499420 2.5199286938 48.714298248 -60.15739822
 345.18600000 13.712869644 69.040008545 29.900999069 25.247499466 2.5355939865 45.479400635 -60.44999695
 345.33840000 13.702973366 69.579986572 29.653499603 25.197999954 2.5465002060 47.206298828 -59.70299911
 345.49080000 13.673268318 69.730010986 29.356399536 25.148500443 2.5445170403 49.883998871 -58.66340256
 345.64320000 13.673268318 69.459983826 29.059400558 25.148500443 2.5415427685 52.313999176 -57.17819977
 345.79560000 13.702973366 70.258689880 28.910900116 25.297000885 2.5465002060 54.000000000 -55.54460144
 345.94800000 13.712869644 71.604072571 28.712900162 25.346500397 2.5534400940 52.680000305 -53.91090012
 346.10040000 13.712869644 72.861984253 28.663400650 25.197999954 2.5574061871 55.080001831 -51.68319702
 346.25280000 13.693071365 72.089744568 28.762399673 25.000000000 2.5695023537 55.799999237 -49.45540237
 346.40520000 13.663366318 70.176483154 29.009899139 24.700000763 2.5849692822 57.743999481 -47.07920074
 346.55760000 13.633661270 70.500000000 29.504899979 24.600000381 2.6103510857 61.486999512 -44.84999847
 346.71000000 13.633661270 72.764717102 29.950500488 24.799999237 2.6123340130 66.757301331 -43.04999924
 346.86240000 13.633661270 74.277229309 30.495100021 25.544599533 2.6133253574 71.524497986 -41.25000000
 347.01480000 13.633661270 76.652168274 31.237600327 26.386100769 2.6073768139 80.047996521 -39.88019943
 347.16720000 13.673268318 80.204704285 32.079200745 27.128700256 2.5954787731 87.580200195 -38.81039810
 347.31960000 13.712869644 83.404586792 32.920799255 28.366300583 2.6004362106 94.049201965 -37.59679794
 347.47200000 13.732672691 84.793617249 33.762401581 29.554500580 2.5934958458 98.965202332 -37.28079987
 347.62440000 13.801980019 78.882125854 34.653499603 31.138599396 2.5903232098 96.714202881 -37.27719879
 347.77680000 13.871288300 74.976837158 35.348098755 32.574298859 2.5907196999 96.954597473 -37.57429886
 347.92920000 13.811882019 77.045356750 35.997001648 34.356399536 2.5992465019 99.350097656 -37.57429886
 348.08160000 13.722771645 77.159324646 36.499298096 34.901000977 2.6105492115 100.07800293 -36.83169937
 348.23400000 13.643563271 76.142997742 36.950000763 35.200000763 2.6059885025 96.622703552 -36.23760223
 348.38640000 13.584157944 76.643180847 37.450000763 35.000000000 2.5994448662 96.889900208 -36.23760223
 348.53880000 13.504949570 77.474700928 38.049999237 34.950500488 2.5921080112 98.108901978 -36.68320084
 348.69120000 13.455444336 76.721000671 38.549999237 35.400001526 2.5871505737 98.727600098 -36.83169937
 348.84360000 13.455444336 76.089820862 39.001998901 36.157600403 2.5861589909 99.333099365 -37.27719879
 348.99600000 13.445543289 74.567855835 39.502201080 36.465801239 2.5796155930 101.72779846 -38.46529770
 349.14840000 13.405941010 72.773315430 39.602798462 36.325599670 2.5712869167 102.46140289 -39.50500107
 349.30080000 13.326732635 73.391181946 39.455200195 35.839401245 2.5659329891 98.398696899 -40.99010086
 349.45320000 13.277228355 74.167625427 39.108898163 35.049499512 2.5633552074 93.047302246 -42.77230072
 349.60560000 13.227724075 72.970458984 38.762401581 34.653499603 2.5663294792 89.608901978 -44.40589905
 349.75800000 13.138614655 70.630630493 38.613899231 33.960399628 2.5649414063 86.392700195 -45.60000229
 349.91040000 13.059406281 70.743652344 38.465301514 33.712898254 2.5683124065 83.762298584 -46.95000076
 350.06280000 12.990018845 72.192123413 38.369701385 33.375999451 2.5570096970 82.595001221 -48.75000000
 350.21520000 12.890492439 70.907661438 38.127300262 33.239601135 2.5375769138 80.234397888 -50.25000000
 350.36760000 12.811319351 69.588798523 37.836799622 32.955799103 2.5149712563 73.076797485 -50.40000153
 350.52000000 12.752353668 69.461448669 37.449699402 32.670898438 2.4941504002 71.049102783 -49.95000076
 350.67240000 12.920790672 71.128707886 37.156898499 32.277198792 2.4925639629 72.383102417 -49.19139862
 350.82480000 13.388287544 73.509986877 36.911800385 32.029701233 2.5663294792 82.327598572 -49.18070221
 350.97720000 13.307862282 74.530006409 36.764701843 31.683200836 2.6192741394 90.939201355 -49.91600037
 351.12960000 13.178306580 75.250000000 36.764701843 31.584199905 2.6361293793 95.274398804 -51.09220123
 351.28200000 13.079209328 75.006156921 36.715698242 31.485099792 2.6347413063 90.360000610 -52.57429886
 351.43440000 13.009901047 72.970306396 36.764701843 31.584199905 2.6268093586 81.267303467 -54.35639954
 351.58680000 12.950495720 70.594055176 36.715698242 31.435600281 2.6232402325 71.279998779 -55.54460144
 351.73920000 12.910889626 67.960006714 36.666698456 30.940599442 2.6168947220 57.840000153 -55.69309998
 351.89160000 12.841582298 68.619987488 36.568599701 30.544599533 2.6089627743 49.080001831 -55.83329773
 352.04400000 12.801980972 68.290016174 36.519599915 30.395999908 2.6004362106 46.060600281 -56.56889725
 352.19640000 12.772275925 67.840003967 36.372501373 30.297000885 2.6034107208 44.121200562 -57.30810165
 352.34880000 12.762373924 67.539993286 36.274501801 30.297000885 2.5925045013 43.878799438 -57.90110016
 352.50120000 12.732672691 67.779991150 36.225498199 30.197999954 2.5819947720 45.206298828 -58.64999771
 352.65360000 12.712870598 68.080009460 36.127498627 30.197999954 2.5940909386 47.147598267 -58.79999924
 352.80600000 12.683169365 68.379989624 36.029399872 30.049499512 2.5990481377 49.080001831 -58.50000000
 352.95840000 12.663365364 68.650009155 35.980400085 30.000000000 2.6004362106 50.520000458 -59.25000000
 353.11080000 12.653464317 68.739990234 35.833301544 29.900999069 2.5994448662 49.180801392 -59.97010040
 353.26320000 12.643562317 68.709999084 35.686298370 29.851499557 2.5970652103 47.823200226 -60.82430267
 353.41560000 12.643562317 68.560005188 35.539199829 29.653499603 2.5940909386 49.253700256 -61.67819977
 353.56800000 12.633661270 68.229995728 35.392200470 29.356399536 2.6020226479 47.884799957 -62.97770309
 353.72040000 12.613862038 68.139991760 35.147098541 29.207899094 2.6053936481 47.416999817 -63.56439590
 353.87280000 12.594058990 69.099990845 34.901000977 29.356399536 2.6063849926 47.324298859 -64.00989532
 354.02520000 12.574255943 72.035057068 34.702999115 29.653499603 2.6153082848 47.231098175 -64.15840149
 354.17760000 12.574255943 76.624954224 34.455398560 29.653499603 2.6172912121 48.721599579 -64.00989532
 354.33000000 12.562437057 86.693069458 34.158401489 28.613899231 2.6258180141 45.556098938 -63.41580200
 354.48240000 12.540102959 66.487701416 33.861400604 27.623800278 2.6317667961 46.659301758 -62.67330170
 354.63480000 12.527665138 67.270004272 33.564399719 26.732700348 2.6287922859 48.242401123 -62.22769928
 354.78720000 12.544924736 67.000007629 33.118801117 25.643600464 2.6268093586 50.424198151 -62.22769928
 354.93960000 12.534653664 66.026199341 32.722801208 25.792100906 2.6337497234 50.181800842 -62.67330170
