~Version information
VERS.   2.0:
WRAP.   NO:
#==================================================================
~Well
STRT .m      3.0480000000 :
STOP .m      1342.0344000 :
STEP .m     0.15240000 :
NULL .        -999.250000 :
COMP.      			UNKNOWN                    : Company
WELL.data          MURPHY_et_al_BIRCH_GROVE_1  : Well Name
FLD . 				SSSB                       : Field
LOC . 				46-145 059-935	           : Location
CNTY.                                          : County
PROV. 				NS                         : Province
CTRY.				CAN                        : Country
UWI . 				4004614505993500           : Unique Well ID
DATE. 				1968-05-16                 : Log Date(s)
SON .                                          : Service Order No(s)
LIC . 				P-84                       : License No
~Parameter Information
#MNEM.UNIT       DATA                           : DESCRIPTION
#----.----       ---------                      : -----------
EKB .M            49.7400                      : Elevation Kelly Bushing
EGL .M            46.4500                      : Elevation Ground Level
DREF.M                 KB                      : Depth Reference
EREF.M            49.7400                      : Elevation of Depth Reference
DIGS.          QCDATA                          : Digitizing Company
SRVC. UNKNOWN OPERATOR-ADDRESS USED BY FIELD S : Service Company
RUN .                   1                      : Run Number
TDL .M          1342.9488                      : Total Depth, Logger
TDD .M          1343.5584                      : Total Depth, Driller
BOTL.M          1341.7296                      : Bottom of Logged Interval
TOPL.M           191.1096                      : Top of Logged Interval
CSGL.M           191.1096                      : Casing Bottom, Logger
CSGD.M           191.7192                      : Casing Bottom, Driller
CSGS.IN           10.7500                      : Casing Size (diameter)
CSGW.                                          : Casing Weight
BS  .MM              7.88                      : Bit Size
MUD .            GEL CHEM                      : API Mud Type
MUDD.KG/M3          11.00                      : Mud Density
MUDV.               75.00                      : Mud Viscosity
FL  .C3            8.0000                      : Fluid Loss
PH  .             11.5000                      : Mud Ph
MUDS.                CIRC                      : Mud Sample Location
RM  .OHM/M          1.300                      : Mud Resistivity
RMT .degF           60.00                      : Mud Temperature
RMF .OHM/M          1.100                      : Mud Filtrate Resistivity
RMFT.DEGC           60.00                      : Mud Filtrate Temperature
RMC .               1.500                      : Mud Cake Resistivity
RMCT.DEGC           60.00                      : Mud Cake Temperature
RW  .OHM/M                                     : Water Resistivity
RWT .DEGC                                      : Water Temperature
TMAX.DEGC          120.00                      : Max Temperature
TIMC.                 6.0                      : Hours Since Circ. Stopped
TIML.                                          : Date/Time Logger on Bottom
UNIT.                                          : Unit Number 
BASE.                                          : Logging Unit Home Base
ENG .                                          : Recording Engineer
WIT .                                          : Witnessed By
~Curve Information
# MNEM  .UNIT        API CODE   : Curve Description
#-----  .----      ------------ : -------------------
DEPT   .M      00 001 00 00 : 1 DEPTH
CALI .in       42 280 01 00 : 5 Density Caliper
DT .us/ft      61 520 32 00 : 7 Delta-T Compressional
RES .ohm.m     05 040 16 00 : 3 Resistivity (unspecified)
ILD .ohm.m     05 060 64 00 : 4 Induction Deep Resistivity
RHOB .g/cm3    42 350 01 00 : 6 Bulk Density
GR .gAPI       61 310 01 00 : 8 GAMMA RAY LOG FROM FDC A_0 CNL
SP .MV         05 010 01 00 : 2 Spontaneous Potential 
#==================================================================
~Ascii
# ...
 1176.5280000 12.118810654 70.850791931 18.216899872 11.749300003 2.5980567932 75.363700867 -29.10890007
 1176.6804000 12.186464310 68.811889648 17.821800232 11.449999809 2.5960738659 77.988601685 -30.26790047
 1176.8328000 12.224177361 66.732666016 17.722799301 11.350000381 2.6057901382 69.742599487 -30.82810020
 1176.9852000 12.232361794 64.927459717 17.821800232 11.300000191 2.5998413563 63.920799255 -30.34399986
 1177.1376000 12.230393410 65.227325439 17.871299744 11.350000381 2.6194725037 63.801998138 -29.56189919
 1177.2900000 12.229538918 67.267318726 17.772300720 11.449999809 2.6375176907 68.079200745 -29.85149956
 1177.4424000 12.219015121 66.811882019 17.425699234 11.350000381 2.6404917240 74.732696533 -30.60000038
 1177.5948000 12.198610306 66.099014282 17.128700256 11.199999809 2.6135237217 71.405899048 -31.35000229
 1177.7472000 12.217928886 69.188102722 17.029699326 11.050000191 2.5879437923 66.415802002 -33.45000076
 1177.8996000 12.245992661 67.564346313 16.980199814 10.850000381 2.5782272816 59.757598877 -35.25000000
 1178.0520000 12.254015923 68.514862061 17.277200699 10.850000381 2.5873486996 53.333301544 -36.29999924
 1178.2044000 12.232361794 67.603973389 17.821800232 11.199999809 2.5954787731 48.606098175 -36.00000000
 1178.3568000 12.210405350 65.941131592 18.514900208 11.750000000 2.5808050632 46.530601501 -35.25000000
 1178.5092000 12.148000717 65.019599915 19.306900024 12.500000000 2.5615704060 48.969699860 -33.75000000
 1178.6616000 12.005499840 65.431381226 20.000000000 13.550000191 2.5389649868 55.030300140 -31.05000114
 1178.8140000 11.783000946 65.803909302 20.693099976 14.750000000 2.5570096970 60.831699371 -28.96039963
 1178.9664000 11.570500374 64.549018860 21.435600281 15.296999931 2.5687088966 67.366302490 -27.02970123
 1179.1188000 11.357999802 63.643581390 21.930700302 15.742600441 2.5716834068 69.623802185 -25.56489944
 1179.2712000 11.265500069 64.059082031 22.178199768 15.742600441 2.5746579170 67.366302490 -24.69619942
 1179.4236000 11.192999840 65.974327087 22.376199722 15.247500420 2.5788221359 69.623802185 -23.97279930
 1179.5760000 11.100500107 66.573257446 22.425699234 14.900899887 2.5938925743 71.287101746 -23.84549904
 1179.7284000 11.059999466 65.150085449 22.435800552 14.612999916 2.6040055752 68.910896301 -23.86249924
 1179.8808000 11.020000458 61.233161926 22.794900894 14.574799538 2.5954787731 66.415802002 -24.17659950
 1180.0332000 10.980000496 64.190727234 23.203500748 14.835499763 2.6109457016 69.148498535 -25.38290024
 1180.1856000 10.970000267 68.277244568 23.809099197 15.145999908 2.6049969196 67.841598511 -27.02810097
 1180.3380000 10.920000076 66.039611816 24.762300491 15.644800186 2.6085665226 63.089099884 -28.81189919
 1180.4904000 10.899999619 60.179985046 25.665800095 16.243200302 2.6420781612 50.666698456 -29.10890007
 1180.6428000 10.899999619 55.879989624 26.074300766 17.193399429 2.6379137039 41.212100983 -28.36629868
 1180.7952000 10.899999619 55.959999084 26.136100769 17.798599243 2.6375176907 39.030300140 -27.47520065
 1180.9476000 10.909999847 58.064098358 25.604000092 18.153699875 2.6549673080 40.121200562 -26.88119888
 1181.1000000 10.909999847 59.048965454 25.071800232 18.108499527 2.6345429420 46.060600281 -25.69309998
 1181.2524000 10.909999847 61.074085236 24.536300659 16.921499252 2.6274042130 53.333301544 -23.91090012
 1181.4048000 10.909999847 64.237518311 23.697900772 16.136699677 2.6049969196 58.060600281 -23.01980019
 1181.5572000 10.909999847 65.920799255 23.059499741 15.496000290 2.6044020653 68.079200745 -22.42569923
 1181.7096000 10.939999580 66.725471497 22.223100662 14.900400162 2.6034107208 75.802001953 -21.98019981
 1181.8620000 10.960000038 67.666664124 21.835500717 14.056599617 2.5883402824 81.029701233 -21.68319893
 1182.0144000 11.000000000 66.823532104 21.647899628 13.563599586 2.5691056252 82.693099976 -21.68319893
 1182.1668000 11.040000916 69.386138916 21.560600281 13.125100136 2.5899267197 82.930702209 -21.99440002
 1182.3192000 11.130000114 71.520011902 21.521999359 12.934100151 2.5490779877 86.851501465 -21.71380043
 1182.4716000 11.100000381 72.059806824 21.784799576 13.041199684 2.5020821095 88.514900208 -22.17789841
 1182.6240000 11.010000229 70.680015564 22.597499847 13.447999954 2.5320246220 91.603996277 -22.79599953
 1182.7764000 10.932000160 70.601158142 23.899999619 14.250000000 2.5661313534 93.742599487 -23.38319969
 1182.9288000 10.974499702 74.636466980 25.245100021 15.100000381 2.5490779877 88.039596558 -23.51169968
 1183.0812000 11.166999817 70.765480042 27.107799530 17.100000381 2.5556216240 81.504997253 -24.53330040
 1183.2336000 11.209499359 66.490203857 29.362699509 19.600000381 2.6115407944 75.920799255 -25.69839859
 1183.3860000 11.151999474 61.683166504 31.980199814 21.649999619 2.6095578671 68.554496765 -27.02970123
 1183.5384000 11.114500046 57.799983978 34.702999115 23.649999619 2.5980567932 56.693901062 -28.81189919
 1183.6908000 11.116999626 52.759994507 36.764701843 26.274499893 2.6260163784 42.909099579 -30.30000114
 1183.8432000 11.119500160 39.386131287 37.548999786 27.058799744 2.6420781612 30.959999084 -31.95000076
 1183.9956000 11.122000694 39.881187439 37.156898499 26.421600342 2.6565537453 27.703399658 -33.29339981
 1184.1480000 11.134499550 45.720001221 35.980400085 25.147100449 2.6682529449 27.079900742 -33.88249969
 1184.3004000 11.147000313 52.399997711 34.702999115 23.100000381 2.6585366726 30.199399948 -33.87289810
 1184.4528000 11.169499397 57.000007629 33.118801117 22.149999619 2.6430695057 38.424198151 -33.71469879
 1184.6052000 11.201598167 61.009895325 31.336599350 21.299999237 2.6345429420 44.969699860 -33.71290207
 1184.7576000 11.233448982 60.415840149 29.411800385 20.450000763 2.6194725037 49.714298248 -34.75249863
 1184.9100000 11.265145302 57.799983978 27.352899551 18.500000000 2.6079714298 50.816299438 -36.23760223
 1185.0624000 11.286775589 58.119995117 24.950000763 16.399999619 2.6125319004 48.244899750 -37.57429886
 1185.2148000 11.289110184 59.980003357 22.049999237 13.951999664 2.5837795734 50.199600220 -38.91090012
 1185.3672000 11.311386108 59.980003357 19.200000763 12.113300323 2.5792183876 57.141700745 -40.24750137
 1185.5196000 11.323764801 59.020011902 16.850000381 10.134099960 2.5667262077 57.847999573 -41.73270035
 1185.6720000 11.346039772 62.554134369 15.250000000 9.0974998474 2.5530436039 56.125301361 -43.06929779
 1185.8244000 11.356436729 67.762863159 14.059399605 8.0500001907 2.5359904766 58.906898499 -44.40589905
 1185.9768000 11.366337776 70.059989929 13.267299652 7.4000000954 2.5155661106 63.920799255 -45.29999924
 1186.1292000 11.396039963 71.479988098 12.970299721 7.0999999046 2.5020821095 61.069301605 -47.09999847
 1186.2816000 11.425745010 72.699584961 12.871299744 7.1500000954 2.4915726185 58.286598206 -48.00000000
 1186.4340000 11.445543289 72.240005493 12.772299767 7.2500000000 2.4858219624 57.795898438 -47.09999847
 1186.5864000 11.455445290 73.139991760 12.623800278 7.3000001907 2.4925639629 59.020401001 -44.85150146
 1186.7388000 11.455445290 72.600006104 12.326700211 7.1500000954 2.4925639629 63.564399719 -42.47520065
 1186.8912000 11.425745010 71.400009155 11.930700302 6.9499998093 2.5344040394 67.603996277 -39.65349960
 1187.0436000 11.405941010 68.772270203 11.534700394 6.8499999046 2.5355939865 76.014801025 -37.11310196
 1187.1960000 11.396039963 67.686264038 11.138600349 6.9000000954 2.5494747162 81.808502197 -37.39179993
 1187.3484000 11.405941010 68.970298767 11.188099861 7.0999999046 2.5365850925 79.997001648 -39.46660233
 1187.5008000 11.425745010 70.639991760 11.435600281 7.2500000000 2.5219116211 75.094299316 -41.55170059
 1187.6532000 11.465346336 71.980010986 11.881199837 7.3499999046 2.5094189644 71.762397766 -42.29999924
 1187.8056000 11.475248337 71.599990845 12.623800278 7.8000001907 2.5254807472 72.594100952 -41.54999924
 1187.9580000 11.485149384 71.579994202 13.712900162 8.6999998093 2.5185406208 78.059402466 -38.70000076
 1188.1104000 11.495051384 69.801979065 14.554499626 9.9499998093 2.5369820595 84.480003357 -35.70000076
