~Version information
VERS.   2.0:
WRAP.   NO:
#==================================================================
~Well
STRT .m      3.0480000000 :
STOP .m      1342.0344000 :
STEP .m     0.15240000 :
NULL .        -999.250000 :
COMP.      			UNKNOWN                    : Company
WELL.data          MURPHY_et_al_BIRCH_GROVE_1  : Well Name
FLD . 				SSSB                       : Field
LOC . 				46-145 059-935	           : Location
CNTY.                                          : County
PROV. 				NS                         : Province
CTRY.				CAN                        : Country
UWI . 				4004614505993500           : Unique Well ID
DATE. 				1968-05-16                 : Log Date(s)
SON .                                          : Service Order No(s)
LIC . 				P-84                       : License No
~Parameter Information
#MNEM.UNIT       DATA                           : DESCRIPTION
#----.----       ---------                      : -----------
EKB .M            49.7400                      : Elevation Kelly Bushing
EGL .M            46.4500                      : Elevation Ground Level
DREF.M                 KB                      : Depth Reference
EREF.M            49.7400                      : Elevation of Depth Reference
DIGS.          QCDATA                          : Digitizing Company
SRVC. UNKNOWN OPERATOR-ADDRESS USED BY FIELD S : Service Company
RUN .                   1                      : Run Number
TDL .M          1342.9488                      : Total Depth, Logger
TDD .M          1343.5584                      : Total Depth, Driller
BOTL.M          1341.7296                      : Bottom of Logged Interval
TOPL.M           191.1096                      : Top of Logged Interval
CSGL.M           191.1096                      : Casing Bottom, Logger
CSGD.M           191.7192                      : Casing Bottom, Driller
CSGS.IN           10.7500                      : Casing Size (diameter)
CSGW.                                          : Casing Weight
BS  .MM              7.88                      : Bit Size
MUD .            GEL CHEM                      : API Mud Type
MUDD.KG/M3          11.00                      : Mud Density
MUDV.               75.00                      : Mud Viscosity
FL  .C3            8.0000                      : Fluid Loss
PH  .             11.5000                      : Mud Ph
MUDS.                CIRC                      : Mud Sample Location
RM  .OHM/M          1.300                      : Mud Resistivity
RMT .degF           60.00                      : Mud Temperature
RMF .OHM/M          1.100                      : Mud Filtrate Resistivity
RMFT.DEGC           60.00                      : Mud Filtrate Temperature
RMC .               1.500                      : Mud Cake Resistivity
RMCT.DEGC           60.00                      : Mud Cake Temperature
RW  .OHM/M                                     : Water Resistivity
RWT .DEGC                                      : Water Temperature
TMAX.DEGC          120.00                      : Max Temperature
TIMC.                 6.0                      : Hours Since Circ. Stopped
TIML.                                          : Date/Time Logger on Bottom
UNIT.                                          : Unit Number 
BASE.                                          : Logging Unit Home Base
ENG .                                          : Recording Engineer
WIT .                                          : Witnessed By
~Curve Information
# MNEM  .UNIT        API CODE   : Curve Description
#-----  .----      ------------ : -------------------
DEPT   .M      00 001 00 00 : 1 DEPTH
CALI .in       42 280 01 00 : 5 Density Caliper
DT .us/ft      61 520 32 00 : 7 Delta-T Compressional
RES .ohm.m     05 040 16 00 : 3 Resistivity (unspecified)
ILD .ohm.m     05 060 64 00 : 4 Induction Deep Resistivity
RHOB .g/cm3    42 350 01 00 : 6 Bulk Density
GR .gAPI       61 310 01 00 : 8 GAMMA RAY LOG FROM FDC A_0 CNL
SP .MV         05 010 01 00 : 2 Spontaneous Potential 
#==================================================================
~Ascii
# ...
 648.46200000 11.519999504 70.058830261 67.326698303 46.683200836 2.7434067726 89.346496582 -34.34999847
 648.61440000 11.490000725 69.160003662 67.326698303 50.000000000 2.7374577522 90.772300720 -34.50000000
 648.76680000 11.440000534 67.743995667 67.361099243 50.000000000 2.7334918976 87.928596497 -34.78990173
 648.91920000 11.390000343 65.606498718 67.901496887 50.000000000 2.7440016270 77.907402039 -35.67499924
 649.07160000 11.349999428 67.158988953 67.946197510 50.498500824 2.7535197735 76.135101318 -36.55440140
 649.22400000 11.300000191 67.991493225 67.990997314 50.999500275 2.7495539188 71.513999939 -36.98369980
 649.37640000 11.239999771 64.839981079 68.065498352 51.100299835 2.7364664078 58.669399261 -37.27719879
 649.52880000 11.150000572 62.824645996 68.147003174 51.722801208 2.7354748249 53.484500885 -38.01979828
 649.68120000 11.090000153 63.637485504 68.220001221 51.833499908 2.7364664078 53.621398926 -38.91090012
 649.83360000 11.059999466 63.606273651 68.300697327 52.451099396 2.7360699177 50.755901337 -39.35639954
 649.98600000 11.048000336 63.151512146 68.316802979 52.970298767 2.7309141159 50.665298462 -39.80199814
 650.13840000 11.035499573 63.818172455 68.316802979 50.000000000 2.7265517712 48.892501831 -40.54459763
 650.29080000 11.013000488 64.689987183 68.316802979 47.970298767 2.7180249691 51.083900452 -40.99010086
 650.44320000 10.990402222 64.659996033 68.316802979 46.039600372 2.7085068226 50.514499664 -41.13859940
 650.59560000 10.977784157 64.653839111 68.316802979 45.009899139 2.7094984055 50.040000916 -41.43560028
 650.74800000 10.955062866 64.496170044 68.316802979 44.329200745 2.7154471874 50.040000916 -41.28710175
 650.90040000 10.942440987 64.579223633 68.316802979 43.351501465 2.7164385319 50.279998779 -41.43560028
 651.05280000 10.939913750 65.051544189 67.821800232 43.066799164 2.7209994793 51.840000153 -41.73270035
 651.20520000 10.937390327 65.560012817 67.821800232 43.069301605 2.7204046249 54.743301392 -41.88119888
 651.35760000 10.934865952 65.830001831 67.326698303 43.415798187 2.7239739895 54.293899536 -42.32669830
 651.51000000 10.932342529 65.769989014 67.326698303 44.604000092 2.7350783348 52.284198761 -42.47520065
 651.66240000 10.929815292 65.200012207 66.831703186 45.990100861 2.7469758987 50.034400940 -42.02970123
 651.81480000 10.937512398 64.593856812 66.831703186 47.623798370 2.7535197735 51.126598358 -41.43560028
 651.96720000 10.935153961 64.556152344 66.336601257 49.405899048 2.7505455017 54.267799377 -41.13859940
 652.11960000 10.922771454 64.849220276 65.346496582 51.980201721 2.7525284290 59.117801666 -41.58420181
 652.27200000 10.900452614 65.171546936 64.356399536 50.990100861 2.7545108795 62.607898712 -41.73270035
 652.42440000 10.880240440 64.960014343 63.366298676 50.000000000 2.7549076080 64.752502441 -41.73270035
 652.57680000 10.860625267 65.590003967 62.376201630 47.128700256 2.7640292645 61.782199860 -42.02970123
 652.72920000 10.860968590 66.129989624 61.386100769 45.742599487 2.7670040131 63.445499420 -43.36630249
 652.88160000 10.861310959 64.750007629 60.395999908 43.861400604 2.7630379200 60.000000000 -44.55450058
 653.03400000 10.871287346 64.750007629 59.405899048 41.881198883 2.7489590645 57.720001221 -45.44999695
 653.18640000 10.900992393 65.139991760 58.415798187 40.445499420 2.7426135540 54.119998932 -45.75000000
 653.33880000 10.920791626 64.870002747 57.920799255 38.529399872 2.7386476994 53.040000916 -46.34999847
 653.49120000 10.940594673 66.129989624 57.425701141 37.402000427 2.7449929714 53.759998322 -47.09999847
 653.64360000 10.962367058 67.240005493 55.445499420 36.568599701 2.7549076080 50.759998322 -47.09999847
 653.79600000 10.974743843 67.539993286 52.970298767 36.176498413 2.7785048485 47.510200500 -47.54999924
 653.94840000 10.996992111 66.430000305 50.049499512 35.931400299 2.7654173374 44.326499939 -47.70000076
 654.10080000 11.019508362 67.029998779 49.653499603 35.882400513 2.7455878258 46.775501251 -47.25000000
 654.25320000 11.040000916 67.360008240 49.356399536 35.784301758 2.7426135540 50.279998779 -46.04999924
 654.40560000 11.069999695 67.899993896 49.059398651 35.833301544 2.7455878258 47.265300751 -45.44999695
 654.55800000 11.090000153 67.270004272 48.712898254 35.882400513 2.7396388054 49.799999237 -45.29999924
 654.71040000 11.109999657 67.299995422 48.415798187 35.833301544 2.7346818447 48.959999084 -45.60000229
 654.86280000 11.121953011 67.419990540 48.019798279 35.735298157 2.7283360958 49.803600311 -46.04999924
 655.01520000 11.134388924 66.670005798 47.574298859 35.735298157 2.7158436775 48.482200623 -46.95000076
 655.16760000 11.157073975 67.209983826 46.980201721 35.539199829 2.7170336246 48.845901489 -47.09999847
 655.32000000 11.179512024 67.779991150 46.386100769 35.147098541 2.7164385319 49.938400269 -47.09999847
 655.47240000 11.182050705 67.389999390 45.604000092 34.554500580 2.7160420418 49.959701538 -47.09580231
 655.62480000 11.194614410 66.640014648 44.626201630 33.762401581 2.7069203854 48.536998749 -46.19460297
 655.77720000 11.206925392 66.730010986 43.549499512 32.326698303 2.6970055103 46.742599487 -46.34059906
 655.92960000 11.219488144 66.489990234 42.225200653 31.237600327 2.6985921860 46.892398834 -47.52590179
 656.08200000 11.252000809 66.730010986 40.494998932 30.148500443 2.6976006031 47.633399963 -48.41579819
 656.23440000 11.274499893 68.229995728 38.910900116 29.752500534 2.6995835304 47.878101349 -49.30690002
 656.38680000 11.277000427 74.009887695 37.029701233 28.465299606 2.7039461136 48.599998474 -50.19799805
 656.53920000 11.299500465 80.811866760 35.148498535 26.980199814 2.7009716034 47.393600464 -50.64360046
 656.69160000 11.321999550 88.599990845 33.069301605 24.450000763 2.6930398941 48.504001617 -50.94059753
 656.84400000 11.344500542 93.821800232 30.792100906 21.549999237 2.6801507473 46.106498718 -50.94059753
 656.99640000 11.366999626 89.679992676 28.217800140 17.623800278 2.6619076729 46.376399994 -51.08909988
 657.14880000 11.379500389 85.823539734 25.792100906 15.247500420 2.6500101089 48.234001160 -51.38610077
 657.30120000 11.381236076 99.792068481 23.100000381 13.199999809 2.6404917240 49.200000763 -51.83169937
 657.45360000 11.362866402 99.732658386 20.950000763 12.300000191 2.6270077229 45.927898407 -51.83169937
 657.60600000 11.324728966 99.792068481 20.399999619 11.699999809 2.6075749397 45.446800232 -51.68319702
 657.75840000 11.296680450 89.469985962 20.399999619 11.699999809 2.5905215740 45.817100525 -50.34650040
 657.91080000 11.279209137 81.251670837 21.208000183 12.355400085 2.5758476257 46.545501709 -48.83930206
 658.06320000 11.261881828 91.344596863 22.411500931 13.357500076 2.5847709179 50.290298462 -46.72299957
 658.21560000 11.264357567 91.457618713 24.106199265 14.702099800 2.5978584290 54.284000397 -45.04470062
 658.36800000 11.276731491 86.842155457 25.792100906 16.499200821 2.5948836803 58.418998718 -43.66979980
 658.52040000 11.316831589 82.237625122 27.821800232 18.902200699 2.5815982819 63.920799255 -42.61890030
 658.67280000 11.366337776 81.792068481 29.504899979 20.000000000 2.5532422066 74.138603210 -41.42009735
 658.82520000 11.415843010 91.208534241 30.742599487 21.089099884 2.5268688202 84.829101563 -40.66320038
 658.97760000 11.504948616 98.128715515 31.980199814 21.683200836 2.4646043777 92.906997681 -40.05249786
 659.13000000 11.653465271 109.41999817 33.217800140 21.980199814 2.4074954987 89.596000671 -39.75000000
 659.28240000 11.920791626 118.12000275 34.059398651 21.930700302 2.3495934010 81.504997253 -40.04999924
 659.43480000 12.267327309 78.643547058 34.653499603 22.623800278 2.3321435452 63.683200836 -40.80000305
 659.58720000 12.772275925 63.636356354 35.494998932 23.960399628 2.4330756664 54.360000610 -41.70000076
 659.73960000 13.109783173 66.543846130 36.590698242 25.554700851 2.5794169903 50.520000458 -43.20000076
 659.89200000 12.472897530 67.346138000 38.028400421 27.993099213 2.6680545807 54.840000153 -44.10000229
 660.04440000 12.202393532 64.939224243 39.164199829 30.578699112 2.6630973816 61.069301605 -44.55000305
